time_total,x,y,z,vx,vy,vz,roll,pitch,yaw,roll_rate,pitch_rate,yaw_rate
9e-02,9.990208190275547129e-02,-5.445273878488485902e-02,1.816782092175313612e-01,4.056611996553270249e-04,-3.722127429870547132e-03,9.439891435616758544e-03,-3.432279097394769218e-02,-1.848162482732120665e-02,2.148018989736877674e-02,-3.700938222708189951e-01
2.500000000000000000e-01,-5.235431778948083092e-01,-2.528167758269269857e-02,9.994474588097804202e-02,-4.100252589624823335e-02,1.858087561426796375e-01,2.865824422011362918e-04,-6.196551489873114091e-03,1.163127432351737309e-02,-8.060540701585268419e-02,-1.625925833360156864e-02,1.628678504909901806e-02,-3.700138435397308800e-01
5.000000000000000000e-01,-5.276487269297177596e-01,-1.688861850254865047e-03,9.997443341543803264e-02,-2.482174790218771160e-02,1.916191623192566584e-01,1.953150834824707424e-04,-7.578933370216983309e-03,1.327314206652243853e-02,-1.268700661302003541e-01,-2.622809870096205406e-03,1.218896828983369145e-02,-3.699549793264731434e-01
7.500000000000000000e-01,-5.295889907869839597e-01,2.263189930303263417e-02,9.999418195767185991e-02,-6.540982877229993379e-03,1.970781014878457971e-01,1.267754770760817968e-04,-7.169184746583681482e-03,1.458651156343213420e-02,-1.731063378386434315e-01,1.096359494432575139e-02,7.444963064987899365e-03,-3.699255986781908034e-01
1.000000000000000000e+00,-5.291508432628060365e-01,4.749514719032486149e-02,1.000068205124944459e-01,1.303094651455049581e-02,2.001012346980579060e-01,8.033041490656017052e-05,-5.436630654504857017e-03,1.548460002948295541e-02,-2.193202620540587733e-01,1.728032748324457094e-02,1.133453333600529557e-03,-3.699192182430079967e-01
1.250000000000000000e+00,-5.262410819440456189e-01,7.251674663027729562e-02,1.000147640528003395e-01,3.279288035377960625e-02,1.996720602769198882e-01,4.968159296766130157e-05,-3.316524090992142588e-03,1.565491544788994577e-02,-2.655271153921826000e-01,1.505843973968883087e-02,-6.502825832700243232e-03,-3.699212046661295994e-01
1.500000000000000000e+00,-5.209191155581599508e-01,9.727210004296658885e-02,1.000194739168092511e-01,5.143961021317110249e-02,1.960908458926132747e-01,2.751188788900425759e-05,-1.578707617243132414e-03,1.478688725043124028e-02,-3.117405642982160052e-01,7.276149155772570175e-03,-1.430725088102931947e-02,-3.699194708099883822e-01
1.750000000000000000e+00,-5.134090799696851004e-01,1.214392304573920223e-01,1.000218544303476259e-01,6.768293558276494704e-02,1.905688907278404454e-01,1.241868575740705703e-05,-5.429085303674877072e-04,1.278707390031450820e-02,-3.579655453248875019e-01,-1.768827555083676232e-03,-2.071368326626022577e-02,-3.699116678666701241e-01
2.000000000000000000e+00,-5.040809095529321660e-01,1.448717209064828149e-01,1.000229090895445455e-01,8.051071817645440165e-02,1.845902789454360315e-01,6.193714531223273620e-06,-1.325988874156744661e-04,9.872818093332852082e-03,-4.041991136623294123e-01,-8.751934627583522752e-03,-2.427087403426712864e-02,-3.699027943417426134e-01
2.250000000000000000e+00,-4.934010905240867051e-01,1.675966435437665492e-01,1.000237225986096157e-01,8.940296802698054213e-02,1.793884805125624815e-01,7.723468357742814148e-06,-9.672792899662505345e-05,6.523276222266457570e-03,-4.504362098965365435e-01,-1.220407373571808299e-02,-2.406185817272460739e-02,-3.698974629585815577e-01
2.500000000000000000e+00,-4.818622658961629890e-01,1.897635153975628930e-01,1.000249686672894656e-01,9.445067147471593316e-02,1.756848154223703551e-01,1.204912910063652204e-05,-2.168120051859909702e-04,3.337220056391377362e-03,-4.966738187642106284e-01,-1.220945606563491985e-02,-1.995579017750240616e-02,-3.698957057154851347e-01
2.750000000000000000e+00,-4.699058504603117470e-01,2.115765035687941220e-01,1.000266499286328742e-01,9.635075697404368866e-02,1.736595176106225935e-01,1.414371306619867450e-05,-4.002688485196710948e-04,8.716749798867386070e-04,-5.429111104770192320e-01,-9.613325205049816358e-03,-1.265871111546052266e-02,-3.698953308487187841e-01
3.000000000000000000e+00,-4.578533935396459920e-01,2.332322701009142130e-01,1.000283377671756097e-01,9.627757615193061058e-02,1.730477573171217143e-01,1.235159602426757984e-05,-6.595887238809438084e-04,-4.807314522546972087e-04,-5.891480766088214027e-01,-5.360366810328137145e-03,-3.557625381812934157e-03,-3.698963042280909441e-01
3.250000000000000000e+00,-4.458606688888096525e-01,2.548725088490829127e-01,1.000296425984161242e-01,9.565748996516322544e-02,1.732660979202745866e-01,8.593891080173856730e-06,-1.035787402545407417e-03,-5.517620089942370165e-04,-6.353851604007983989e-01,-2.302010028303263058e-04,5.603129131111365784e-03,-3.699016665927263303e-01
3.500000000000000000e+00,-4.339036561238660550e-01,2.765517987995345650e-01,1.000305242991458426e-01,9.589507732650424943e-02,1.735294144713864783e-01,6.011451498447708569e-06,-1.530426682761484814e-03,5.998591399043502618e-04,-6.816235769279676004e-01,5.104058626280404999e-03,1.312644422517956350e-02,-3.699142381808644409e-01
3.750000000000000000e+00,-4.217986309441886239e-01,2.982196346496456263e-01,1.000312650208738663e-01,9.811099077722056083e-02,1.729640498733301113e-01,6.316911745249425124e-06,-2.081630484784576744e-03,2.724525376224847494e-03,-7.278648949481327790e-01,9.926098335252887470e-03,1.773754467663711185e-02,-3.699327382420414256e-01
4.000000000000000000e+00,-4.092511357567786834e-01,3.197174034504109974e-01,1.000321965362011845e-01,1.029480536775593119e-01,1.707356500803456911e-01,8.656782539673410823e-06,-2.584011255744483090e-03,5.438384498739014597e-03,-7.741097257918740926e-01,1.343377212250285863e-02,1.883354240652020464e-02,-3.699510729592889180e-01
4.250000000000000000e+00,-3.959225566300321741e-01,3.407925439675980606e-01,1.000334118585590876e-01,1.104842443006232300e-01,1.661938795458934304e-01,1.038021811041447863e-05,-2.930335927907268441e-03,8.289228617539718194e-03,-8.203567286332678066e-01,1.486637821118799371e-02,1.655530766031428763e-02,-3.699614156449440583e-01
4.500000000000000000e+00,-3.814998914957669629e-01,3.611307416118263447e-01,1.000346558896327009e-01,1.202642138936568933e-01,1.590108395183437717e-01,8.900037297240358730e-06,-3.049617948570568140e-03,1.082547570322255244e-02,-8.666029678027069583e-01,1.373381126454103172e-02,1.168341542704348819e-02,-3.699586894900626644e-01
4.750000000000000000e+00,-3.657546767229921114e-01,3.804029660264848789e-01,1.000354508904329198e-01,1.314330447669690427e-01,1.492750169317189068e-01,3.391895695279523234e-06,-2.926255911689101818e-03,1.266257031195221205e-02,-9.128454313120547559e-01,1.002014989795861795e-02,5.405348747921955195e-03,-3.699433789775392056e-01
5.000000000000000000e+00,-3.485805500174160021e-01,3.983194687350078977e-01,1.000353686434281159e-01,1.429346975387965069e-01,1.375070611590420433e-01,-4.628629256023712969e-06,-2.598042259805141002e-03,1.353883239427655129e-02,-9.590826061592475638e-01,4.256366834235571391e-03,-9.736471594215529010e-04,-3.699210867410869241e-01
5.250000000000000000e+00,-3.300043883932330946e-01,4.146798666344309603e-01,1.000342843979565299e-01,1.537277382497613254e-01,1.245844910611158401e-01,-1.210298974279195913e-05,-2.139938193519575881e-03,1.335148088164053726e-02,-1.005315101131374123e+00,-2.572694616742232307e-03,-6.302293083621591033e-03,-3.698994247614723618e-01
5.500000000000000000e+00,-3.101718541021872277e-01,4.294085427323133808e-01,1.000324671813737631e-01,1.629732674505258161e-01,1.115889803728362245e-01,-1.608263374797005315e-05,-1.643056271319132686e-03,1.216573721907019887e-02,-1.051545086449283906e+00,-9.249698792805377545e-03,-9.781837200911582333e-03,-3.698842674817117704e-01
5.750000000000000000e+00,-2.893131249715429898e-01,4.425677683574799626e-01,1.000304607144898994e-01,1.701618858925228184e-01,9.961099522969757425e-02,-1.525776420652378465e-05,-1.195985037005155120e-03,1.019533546258167243e-02,-1.097775061182783451e+00,-1.459632091329144364e-02,-1.106362605428708526e-02,-3.698774656922574899e-01
6.000000000000000000e+00,-2.676976612979598547e-01,4.543460226741414254e-01,1.000288304898735020e-01,1.751635217795603494e-01,8.955561504244002879e-02,-1.050176544166072496e-05,-8.716285388073375566e-04,7.759171467121803514e-03,-1.144006717919960892e+00,-1.771502262373579606e-02,-1.024534924554846432e-02,-3.698770251147316390e-01
6.250000000000000000e+00,-2.455877433401733589e-01,4.650243437622650911e-01,1.000279225563296820e-01,1.782013231044426715e-01,8.198964779926275204e-02,-4.208718567757965897e-06,-7.196323236097338424e-04,5.223709363106712224e-03,-1.190240455210429538e+00,-1.814656589491614111e-02,-7.785585464270718473e-03,-3.698792580745929315e-01
6.500000000000000000e+00,-2.231994020301766302e-01,4.749277969912453212e-01,1.000277586089868831e-01,1.797649656215706271e-01,7.705728730684228978e-02,1.072429603663419303e-06,-7.631552605779624810e-04,2.942713496466324661e-03,-1.236475646793005145e+00,-1.592245142421410201e-02,-4.366703658996380459e-03,-3.698813959646367611e-01
6.750000000000000000e+00,-2.006768127373128596e-01,4.843714836273252944e-01,1.000281013860954415e-01,1.804876143321644255e-01,7.447479532514995892e-02,3.863073396494921317e-06,-9.988400658474377164e-04,1.204892178169318217e-03,-1.282711379264439788e+00,-1.151940707974920090e-02,-7.385637229624415637e-04,-3.698831126557346471e-01
7.000000000000000000e+00,-1.780829329718537635e-01,4.936107582760416723e-01,1.000286271769617180e-01,1.810138774476927059e-01,7.359859884050695689e-02,4.204219475125570878e-06,-1.399427353108798457e-03,1.971030331754044401e-04,-1.328947185271476705e+00,-5.739633581453417593e-03,2.427412832627334587e-03,-3.698862482056334833e-01
7.250000000000000000e+00,-1.554058365487009374e-01,5.028037657214022849e-01,1.000290962529098437e-01,1.818839489281065536e-01,7.354863758280248687e-02,3.235286996305852602e-06,-1.918812650627357320e-03,-1.292638863897358739e-05,-1.375183375448028489e+00,4.526439186596198068e-04,4.650106672894733194e-03,-3.698931462606080411e-01
7.500000000000000000e+00,-1.325774146224882599e-01,5.119915849472593816e-01,1.000294344077808789e-01,1.834528994060106444e-01,7.336107254287915769e-02,2.301637095529758657e-06,-2.499208993192224802e-03,5.260005555783232476e-04,-1.421420838946580556e+00,6.106505772382560607e-03,5.700711413834673794e-03,-3.699047529349827057e-01
7.750000000000000000e+00,-1.094992964425636206e-01,5.210978137095124696e-01,1.000297039955228701e-01,1.858552355348107032e-01,7.214191967339639300e-02,2.165769232833778010e-06,-3.079615625514313046e-03,1.668345772876627178e-03,-1.467660483692477591e+00,1.044153172075080668e-02,5.608826852046325771e-03,-3.699196125271143609e-01
8.000000000000000000e+00,-8.607020568248897885e-02,5.299459810341140553e-01,1.000300065019485707e-01,1.890151297000718378e-01,6.919561586215501603e-02,2.722828671641258502e-06,-3.604345940896420790e-03,3.203875947427657286e-03,-1.513902660702896696e+00,1.296184844550689504e-02,4.617371252241742573e-03,-3.699342539522201267e-01
8.250000000000000000e+00,-6.220950346415215354e-02,5.382903197376612825e-01,1.000303864275705890e-01,1.926939515077287501e-01,6.410921000279569404e-02,3.265025687622076858e-06,-4.030213563777316002e-03,4.895703682111159603e-03,-1.560146883478211954e+00,1.351121873808842216e-02,3.100933974208129693e-03,-3.699446445491438862e-01
8.500000000000000000e+00,-3.787314920712291783e-02,5.458536096797136361e-01,1.000307905327975921e-01,1.965605328424469278e-01,5.678232951579528093e-02,3.034433855547162746e-06,-4.331210380944382210e-03,6.517982488596746685e-03,-1.606391959648350243e+00,1.226614056411208520e-02,1.468408604655408031e-03,-3.699478734248271006e-01
8.750000000000000000e+00,-1.306034052206258428e-02,5.523652312354720983e-01,1.000310950897058543e-01,2.002669725084881003e-01,4.740322373585227622e-02,1.705168848434479904e-06,-4.500046175497715052e-03,7.887964468938329921e-03,-1.652636427792504525e+00,9.676561871736854767e-03,7.132161655020184720e-05,-3.699432402413317389e-01
9.000000000000000000e+00,1.218878858218407427e-02,5.575931954646157207e-01,1.000311745524354590e-01,2.035138171643961769e-01,3.637994909480356254e-02,-4.490935225135471533e-07,-4.546562608633626656e-03,8.888911335977460471e-03,-1.698879062653450678e+00,6.371381241012128403e-03,-8.653287339921916311e-04,-3.699323545536120084e-01
9.250000000000000000e+00,3.780224075084574753e-02,5.613654736297868375e-01,1.000309681863469635e-01,2.060923823984882608e-01,2.424183329413606702e-02,-2.730887802775845742e-06,-4.493590336010829835e-03,9.482099895339471743e-03,-1.745119225018327835e+00,3.045759710978754916e-03,-1.279705661458395340e-03,-3.699183777835844400e-01
9.500000000000000000e+00,6.368865458109292110e-02,5.635780777614460835e-01,1.000305101337189417e-01,2.078976695124956364e-01,1.152961509472140086e-02,-4.387279280634463806e-06,-4.371173181283900117e-03,9.707201045370827258e-03,-1.791356949061529980e+00,3.419619081008414864e-04,-1.272770674705182891e-03,-3.699048726558764599e-01
9.750000000000000000e+00,8.974948187841277902e-02,5.641897344054204178e-01,1.000299128418089267e-01,2.089118260994182186e-01,-1.306225526293109404e-03,-4.953363592454354342e-06,-4.210225709787566994e-03,9.670633355607187454e-03,-1.837592796380319582e+00,-1.267256111443023888e-03,-1.070020172465590072e-03,-3.698947566013649491e-01
1.000000000000000000e+01,1.158875176814579827e-01,5.632054100808527863e-01,1.000293188381074505e-01,2.091647170689696911e-01,-1.398010633904651911e-02,-4.402587890732127747e-06,-4.036673854266496254e-03,9.522028928513601165e-03,-1.883827590355729109e+00,-1.577441125198357713e-03,-9.491816005733664336e-04,-3.698896653641412513e-01
1.025000000000000000e+01,1.420096732112914872e-01,5.606531234497842409e-01,1.000288492106835986e-01,2.086840627090714995e-01,-2.640342450463921756e-02,-3.062802968349644080e-06,-3.867011082480772705e-03,9.420872566242372709e-03,-1.930062150055755543e+00,-7.070887181947380865e-04,-1.147027638361381016e-03,-3.698897796577538255e-01
1.050000000000000000e+01,1.680237071459430853e-01,5.565599901550696282e-01,1.000285727624156268e-01,2.074512346323519885e-01,-3.866594373209011198e-02,-1.400383500895171988e-06,-3.706007096391694851e-03,9.498719189854825523e-03,-1.976297091175916343e+00,9.202167869823013342e-04,-1.770042616344322250e-03,-3.698939909782688606e-01
1.075000000000000000e+01,1.938306617970810553e-01,5.509337527825217684e-01,1.000285012684045405e-01,2.053783183560958514e-01,-5.096989270755490631e-02,1.556421051069160939e-07,-3.547013501354978268e-03,9.825544173744383755e-03,-2.022532703041042712e+00,2.677576600845141958e-03,-2.739531497900894036e-03,-3.699002555194253472e-01
1.100000000000000000e+01,2.193163942010731282e-01,5.437547747721592772e-01,1.000285978397050801e-01,2.023164856112386056e-01,-6.353319474714387571e-02,1.247986877210176714e-06,-3.374894933254562850e-03,1.038949317093831523e-02,-2.068768890834795648e+00,3.900730080874111050e-03,-3.794763124008413823e-03,-3.699060764563797399e-01
1.125000000000000000e+01,2.443462570702797099e-01,5.349807344084888117e-01,1.000287829329913059e-01,1.980961265148741823e-01,-7.648801738051372312e-02,1.544407796679569765e-06,-3.171091415998944507e-03,1.109648044484447607e-02,-2.115005195671969318e+00,4.070861354676358866e-03,-4.558901062415320928e-03,-3.699091304698305382e-01
1.150000000000000000e+01,2.687663462698038908e-01,5.245627387219425897e-01,1.000289378141349383e-01,1.925885708699943133e-01,-8.980318601997273886e-02,7.659145660405780136e-07,-2.919783007859187707e-03,1.179067724055377943e-02,-2.161240928605371536e+00,2.958606818719199116e-03,-4.650473722597548223e-03,-3.699079840490514526e-01
1.175000000000000000e+01,2.924128980753357698e-01,5.124683323570498050e-01,1.000289213157120605e-01,1.857712065185186112e-01,-1.032526864280655654e-01,-1.136845205741204058e-06,-2.613743356371189906e-03,1.229115312655837400e-02,-2.207475426253096895e+00,6.874378648119686174e-04,-3.807711959239555924e-03,-3.699026567674231214e-01
1.200000000000000000e+01,3.151289053837628695e-01,4.987048808257307786e-01,1.000286126914843449e-01,1.777750657014804392e-01,-1.164396152568659693e-01,-3.777622599199376705e-06,-2.258400348953368622e-03,1.243581017245405651e-02,-2.253708352958674777e+00,-2.298841440354054255e-03,-1.988774919388371868e-03,-3.698946846235625641e-01
1.225000000000000000e+01,3.367845658727779412e-01,4.833366213731530858e-01,1.000279697891049563e-01,1.688974036455075101e-01,-1.288696897229511529e-01,-6.324450632415804060e-06,-1.872955166194500368e-03,1.212214785647054531e-02,-2.299939901337633597e+00,-5.352762610872575239e-03,5.834073172186219009e-04,-3.698865043119273777e-01
1.250000000000000000e+01,3.572965140870844603e-01,4.664903101721369905e-01,1.000270681293195379e-01,1.595706303535074644e-01,-1.400551174962441636e-01,-7.805501108969476910e-06,-1.488097207972844099e-03,1.133513540733288062e-02,-2.346170759314567977e+00,-7.792348765330609807e-03,3.450282105217664704e-03,-3.698803783733226047e-01
1.275000000000000000e+01,3.766404738191176937e-01,4.483473842007811294e-01,1.000260871525421591e-01,1.502911059777230773e-01,-1.496215297881393624e-01,-7.599245400750696038e-06,-1.140715597890431870e-03,1.015506448523585681e-02,-2.392401834699872332e+00,-9.079321594313845972e-03,6.021343078955929649e-03,-3.698774301366099526e-01
1.300000000000000000e+01,3.948532245702054966e-01,4.291241105744738604e-01,1.000252404177367216e-01,1.415237466076390005e-01,-1.573897111901292334e-01,-5.787859450594990000e-06,-8.668044770169026393e-04,8.742457610844755339e-03,-2.438633882276022735e+00,-8.959187926867992480e-03,7.730544607333785477e-03,-3.698773509008980165e-01
1.325000000000000000e+01,4.120224080825088953e-01,4.090443764023662387e-01,1.000246861053225855e-01,1.336074243755074609e-01,-1.634105083646912593e-01,-3.107170076706492348e-06,-6.942610752170109501e-04,7.302603680087295900e-03,-2.484867246046416067e+00,-7.522724654331636347e-03,8.202047561285844696e-03,-3.698789198885887308e-01
1.350000000000000000e+01,4.282660467309543639e-01,3.883116884793093027e-01,1.000244705602234552e-01,1.266882500393816946e-01,-1.679442825292126185e-01,-5.129554266874283156e-07,-6.373394629662279673e-04,6.038132358811676426e-03,-2.531101849469226117e+00,-5.167911569223159786e-03,7.369941330854061674e-03,-3.698809231650413420e-01
1.375000000000000000e+01,4.437066871252667299e-01,3.670870067855777630e-01,1.000245347537623841e-01,1.207010433960568757e-01,-1.713922534682729426e-01,1.324147235362160885e-06,-6.941246615871756245e-04,5.102413748219920137e-03,-2.577337394175475360e+00,-2.471905131060582895e-03,5.504119782187407751e-03,-3.698828057021213978e-01
1.400000000000000000e+01,4.584467430682253042e-01,3.454771624805401675e-01,1.000247686325501789e-01,1.154047343140117976e-01,-1.742011218291849850e-01,2.245628105274350934e-06,-8.476251680275239319e-04,4.567389310167077610e-03,-2.623573596584376499e+00,-1.467797645515507706e-05,3.124348665714964807e-03,-3.698846595409436833e-01
1.425000000000000000e+01,4.725511840391977136e-01,3.235353856381498749e-01,1.000250690656154379e-01,1.104597004347567801e-01,-1.767694644320903785e-01,2.461993906690801551e-06,-1.070135710487305544e-03,4.415537204900973553e-03,-2.669810301608469327e+00,1.784664492923174759e-03,8.278347257633313257e-04,-3.698867153487382375e-01
1.450000000000000000e+01,4.860412285882331762e-01,3.012719735495798523e-01,1.000253666083519150e-01,1.055208905912320000e-01,-1.793817294894373970e-01,2.253120831129019997e-06,-1.329645685086972571e-03,4.557805219574580582e-03,-2.716047440706577110e+00,2.762143184603293479e-03,-9.063444217810279722e-04,-3.698888711969645637e-01
1.475000000000000000e+01,4.988990192458294670e-01,2.786705723851216621e-01,1.000256205136944992e-01,1.003160612283351127e-01,-1.821841351874868287e-01,1.790957980186597039e-06,-1.596521665127500871e-03,4.870252916656301473e-03,-2.762284927424830894e+00,3.005343401076710635e-03,-1.859041770808596500e-03,-3.698906609820998281e-01
1.500000000000000000e+01,5.110797839800725884e-01,2.557047620234155771e-01,1.000258052298617778e-01,9.468592548873930315e-02,-1.852010450890722304e-01,1.165310117722180130e-06,-1.848670038680520549e-03,5.235488490030784127e-03,-2.808522604954484692e+00,2.764238611192114305e-03,-2.102250137870964163e-03,-3.698916118333247516e-01
1.525000000000000000e+01,5.225260987344180208e-01,2.323507385927560953e-01,1.000259065319124702e-01,8.857963701101652376e-02,-1.883769212678738092e-01,4.792853210142671249e-07,-2.073935089494693181e-03,5.573683974096013335e-03,-2.854760282967652607e+00,2.322958677545477590e-03,-1.910105192850075151e-03,-3.698916120751816194e-01
1.550000000000000000e+01,5.331087336527733367e-01,2.088672772742206640e-01,1.000343465555673522e-01,7.985541891167935447e-02,-1.831933760883354134e-01,2.217751555997283163e-04,2.114458768819737350e-02,5.257824744943443221e-03,-2.862628937465227175e+00,-3.025470780198162291e-01,-7.743528323074932995e-02,1.555706623310524062e-01
1.575000000000000000e+01,5.419542493077477152e-01,1.884289006453249149e-01,1.001115958490942648e-01,6.011357353945094573e-02,-1.374276926257486653e-01,9.390230525909724684e-04,6.097363797823467102e-02,3.197347056307596729e-03,-2.830879800789792622e+00,-2.718690102492029581e-01,-6.285532297940675528e-02,3.110111185427427705e-01
1.600000000000000000e+01,5.475352643753662596e-01,1.764348033373765723e-01,1.002123814747198360e-01,2.878686286099208652e-02,-5.292044120382363021e-02,4.158402134436873696e-04,8.254373456226553329e-02,-6.051798142450492073e-05,-2.788705510677863764e+00,-6.687342202279146497e-02,3.168174012602118297e-03,3.530237422917668622e-01
1.625000000000000000e+01,5.488547379980311947e-01,1.759646082340341477e-01,1.001781926502007536e-01,-6.281195059256833649e-03,4.110714362147879775e-02,-8.657950026518796251e-04,7.613129315571810773e-02,-2.560777200379538675e-03,-2.743633962045302077e+00,1.273652284030477311e-01,6.654598381546915353e-02,3.650866409575531102e-01
1.650000000000000000e+01,5.460742720130178363e-01,1.862350694577255272e-01,1.000387647836201155e-01,-3.567122931239202765e-02,1.158575594285350674e-01,-1.129375717818860729e-03,5.122880905183507805e-02,-2.716667024688425650e-03,-2.697652004166135153e+00,2.112896107246456656e-01,9.054137782077259500e-02,3.686636394788453397e-01
1.675000000000000000e+01,5.402926838491661776e-01,2.038024078692196039e-01,9.993679940245993321e-02,-5.434520323236206873e-02,1.583228087799503636e-01,-4.632634985607774055e-04,2.371910780664620091e-02,-5.918412475473197338e-04,-2.651433454123531153e+00,1.831161225998062247e-01,7.186139470073009405e-02,3.697929919980898483e-01
1.700000000000000000e+01,5.328394086813881270e-01,2.247337927681761494e-01,9.991941747375644722e-02,-6.333829770912013934e-02,1.723155256818581227e-01,9.135776850431518413e-05,5.233802034954797809e-03,2.371709599685111521e-03,-2.605193374522484451e+00,9.680855885240348402e-02,3.142227880603180173e-02,3.701750193646974885e-01
1.725000000000000000e+01,5.246327644332546836e-01,2.462544524372205779e-01,9.994212595467143190e-02,-6.748591118221727858e-02,1.706375293034775309e-01,2.131499650232872886e-04,-9.519971958287209686e-04,4.505042017526875685e-03,-2.558937394051695513e+00,1.258298080700965063e-02,-4.795130150974474988e-03,3.701934591184768419e-01
1.750000000000000000e+01,5.159395690515764521e-01,2.672657677065409798e-01,9.996619200627789026e-02,-7.180385175017933719e-02,1.660157305211597545e-01,1.682842804113187751e-04,1.695374892359433018e-03,4.953225011561833424e-03,-2.512659620637456293e+00,-3.422547900431411466e-02,-2.129062789075770665e-02,3.700335039942846405e-01
1.775000000000000000e+01,5.065349239821664851e-01,2.879366471087941304e-01,9.998464636238357794e-02,-7.897205409038349222e-02,1.656981531193277291e-01,1.312688189856605432e-04,7.248068815485371810e-03,3.989697068652026286e-03,-2.466390716737436151e+00,-3.970466827654157982e-02,-1.786047419388271315e-02,3.698823309156027417e-01
1.800000000000000000e+01,4.960434771894514649e-01,3.089290004221780794e-01,9.999881420601111626e-02,-8.890301725758074924e-02,1.707396741279196828e-01,9.427469308916064774e-05,1.109925049774344863e-02,2.612835424208359830e-03,-2.420146962400979262e+00,-2.000306834942117834e-02,-4.581450915746989455e-03,3.698282077243729149e-01
1.825000000000000000e+01,4.842205863736935845e-01,3.307556164715445002e-01,1.000076467343031100e-01,-9.991538294667408338e-02,1.783415907252756116e-01,4.918020634092739034e-05,1.158338216448913556e-02,1.863505047246336293e-03,-2.373915964627431041e+00,4.692762429767670732e-03,6.892586712159551841e-03,3.698567327455981046e-01
1.850000000000000000e+01,4.710460385182489995e-01,3.534968980533853555e-01,1.000117072242530797e-01,-1.103414248639187911e-01,1.848631782239598675e-01,2.114472689740568031e-05,9.521281772935432167e-03,2.315124784943920627e-03,-2.327683953673844286e+00,2.114906673018364033e-02,9.924855143604882982e-03,3.699222998894683423e-01
1.875000000000000000e+01,4.566462538804965665e-01,3.768404407372064058e-01,1.000138982554360650e-01,-1.195622585990509662e-01,1.878298994904000208e-01,1.703805207741272367e-05,6.749704489868782291e-03,3.944433496763643902e-03,-2.281447642929010033e+00,2.602169017624229863e-02,4.698713123606111652e-03,3.699890703570486439e-01
1.900000000000000000e+01,4.411475540508428272e-01,4.002755292862587022e-01,1.000163375715820702e-01,-1.281042935482754608e-01,1.864675333133143376e-01,2.200309392138629250e-05,4.762321679189542196e-03,6.318446785820910211e-03,-2.235205616066739509e+00,2.280698706047277688e-02,-4.067697442605554096e-03,3.700351972989897598e-01
1.925000000000000000e+01,4.245668464206754367e-01,4.232803111188847001e-01,1.000192822228057749e-01,-1.370436735091253577e-01,1.812027620474905010e-01,2.417764893433471039e-05,4.080279388303669624e-03,8.889836593758285513e-03,-2.188954807761876786e+00,1.687968302229210515e-02,-1.094034429223196374e-02,3.700506093857105494e-01
1.950000000000000000e+01,4.067931731447108623e-01,4.454203582449792198e-01,1.000221632568954883e-01,-1.472432325749637450e-01,1.728728160445659467e-01,2.122660134005384204e-05,4.363802051605409141e-03,1.121475333487484405e-02,-2.142696137091087305e+00,1.186456185654820132e-02,-1.269932605625920079e-02,3.700366246459886876e-01
1.975000000000000000e+01,3.876502109174719823e-01,4.663613114728380471e-01,1.000243967075360313e-01,-1.588645298605222689e-01,1.621928868228909304e-01,1.417717568899919509e-05,4.910210282804410888e-03,1.302188252190493098e-02,-2.096436936704630938e+00,8.552652209359390065e-03,-9.253046371108771331e-03,3.700034237572061291e-01
2.000000000000000000e+01,3.669913267343130614e-01,4.858424663764261409e-01,1.000255722576656181e-01,-1.713233050495789334e-01,1.496465743966085560e-01,4.746351511912741491e-06,5.138604432989053207e-03,1.417223849986211023e-02,-2.050185952565845238e+00,5.825627699580782082e-03,-2.792452296388174809e-03,3.699646315668069230e-01
2.025000000000000000e+01,3.447757388758923014e-01,5.036573942188657949e-01,1.000255548407149447e-01,-1.835931505187550217e-01,1.356600186492586402e-01,-4.440600257120790999e-06,4.829300042406736888e-03,1.459545057219959092e-02,-2.003947102175668071e+00,2.288740103330483104e-03,3.809598759821919770e-03,3.699314404720345784e-01
2.050000000000000000e+01,3.210962745172674104e-01,5.196611696686537218e-01,1.000245462966201926e-01,-1.946322600585537743e-01,1.208124696505483570e-01,-1.087778255170164925e-05,4.098774871842437995e-03,1.426609848062580961e-02,-1.957717814785479904e+00,-2.518379720170110022e-03,8.365532302513668805e-03,3.699090742554482225e-01
2.075000000000000000e+01,2.961575874975249101e-01,5.337956683634934585e-01,1.000229830137583514e-01,-2.037245294498629677e-01,1.059002162450810580e-01,-1.337248745946361905e-05,3.226542224442594930e-03,1.322904279985521840e-02,-1.911492086946807056e+00,-7.828186873588632855e-03,9.995731127446077016e-03,3.698970889048093791e-01
2.100000000000000000e+01,2.702236930015365357e-01,5.461103088422420981e-01,1.000213610856878349e-01,-2.106278842292376996e-01,9.181066861669749668e-02,-1.205091061094544658e-05,2.474414279006278451e-03,1.163839326526176776e-02,-1.865264722195975944e+00,-1.214502191557111782e-02,9.023246305816573845e-03,3.698923595144760212e-01
2.125000000000000000e+01,2.435597199248785427e-01,5.567585929866281091e-01,1.000200970047330079e-01,-2.155326230761751283e-01,7.928443941694482411e-02,-7.983619453473617881e-06,1.984980443512586804e-03,9.764638114765310933e-03,-1.819033523765072102e+00,-1.407993733669534592e-02,6.463017801446732484e-03,3.698919886143456348e-01
2.150000000000000000e+01,2.163874562702542137e-01,5.659646472711327148e-01,1.000194260250628076e-01,-2.189010088858371617e-01,6.869425864142801597e-02,-2.916290713428371682e-06,1.772815323627089388e-03,7.946549113064658998e-03,-1.772798805270000999e+00,-1.304464706798093634e-02,3.460417371634616230e-03,3.698944491915722721e-01
2.175000000000000000e+01,1.888638184025165645e-01,5.739693114432454779e-01,1.000193533296574733e-01,-2.212755817054794238e-01,5.994779575936913518e-02,1.363973192602430520e-06,1.772781182842397439e-03,6.499442166596838995e-03,-1.726561733187278902e+00,-9.515979805611019665e-03,8.979826671147734390e-04,3.698992430707520040e-01
2.200000000000000000e+01,1.610814750598357770e-01,5.809747125221802477e-01,1.000197063629963135e-01,-2.231237381660294006e-01,5.255558059906443452e-02,3.888038381801095045e-06,1.898677564448343191e-03,5.617497169714174947e-03,-1.680323157549289403e+00,-4.826874494422160426e-03,-7.741665319700350399e-04,3.699060147149509925e-01
2.225000000000000000e+01,1.330845187450052647e-01,5.871066095560909526e-01,1.000202614989908617e-01,-2.247530273996383721e-01,4.583254361594923249e-02,4.726899477916272931e-06,2.081777908170214745e-03,5.312677955149792616e-03,-1.634083417376883673e+00,-6.328576363069720809e-04,-1.530351537057510116e-03,3.699137107734967178e-01
2.250000000000000000e+01,1.048897921716903242e-01,5.924062872827541293e-01,1.000208401790781410e-01,-2.263015646945915615e-01,3.915165013626005497e-02,4.382591855904417706e-06,2.282665460051019109e-03,5.416839143209083163e-03,-1.587842683363305918e+00,1.705396173791427945e-03,-1.655619270560340509e-03,3.699202345631628641e-01
2.275000000000000000e+01,7.650537874784089920e-02,5.968523216947327903e-01,1.000213185704434682e-01,-2.277870456551857326e-01,3.215472945037751995e-02,3.185471008150089268e-06,2.485924773689022604e-03,5.647023486115773649e-03,-1.541601298230581785e+00,1.593338462860175667e-03,-1.581882563583657990e-03,3.699230253256439727e-01
2.300000000000000000e+01,4.794068957620095661e-02,6.004017741260680996e-01,1.000216043340747263e-01,-2.291858476244899856e-01,2.484748231749527372e-02,1.378999754208311244e-06,2.690733557545149212e-03,5.709720810722814129e-03,-1.495359862161976361e+00,-6.188973390989289296e-04,-1.710715405547062100e-03,3.699204123731126281e-01
2.325000000000000000e+01,1.920650686064562934e-02,6.030339762934694425e-01,1.000216534686927672e-01,-2.305092415859594790e-01,1.755028213689307365e-02,-4.696087092721585249e-07,2.904966513311207921e-03,5.407348566060131249e-03,-1.449119061492271987e+00,-3.783360237640183941e-03,-2.255859775490206588e-03,3.699128215066503911e-01
2.350000000000000000e+01,-9.692644249752338861e-03,6.047797900194320508e-01,1.000215140530905100e-01,-2.318466819752065811e-01,1.072648677234710329e-02,-1.535575340446783278e-06,3.143028351134607903e-03,4.712010071896216394e-03,-1.402879382476961201e+00,-6.355468624685878080e-03,-3.143879062067476624e-03,3.699029646680707106e-01
2.375000000000000000e+01,-3.876828529479069835e-02,6.057246720621426439e-01,1.000213201409711483e-01,-2.333569306687502953e-01,4.749519463966036387e-03,-1.374703968433030919e-06,3.423517214678562307e-03,3.784426630156121317e-03,-1.356640876887277747e+00,-6.910672954921052470e-03,-4.009714987619022314e-03,3.698950697538650467e-01
2.400000000000000000e+01,-6.805309669537171202e-02,6.059829657447375340e-01,1.000212091798000497e-01,-2.352052913506941512e-01,-3.117552130299420339e-04,-3.572699694969232761e-07,3.763362081511701165e-03,2.933763274479412111e-03,-1.310403034966857838e+00,-4.616383508146785011e-03,-4.303799076529676339e-03,3.698938701265132023e-01
2.425000000000000000e+01,-9.759560475770577559e-02,6.056506076879819567e-01,1.000212387505954592e-01,-2.374654137996642100e-01,-4.816466412710893388e-03,7.647865203614288365e-07,4.168478158443188891e-03,2.531016083547494092e-03,-1.264164716999538252e+00,4.783984468512504423e-04,-3.490642670140414478e-03,3.699036816952601670e-01
2.450000000000000000e+01,-1.274421360024321215e-01,6.047509142149994910e-01,1.000213998535871701e-01,-2.400204783178093160e-01,-9.539313156190125723e-03,1.802799382305257550e-06,4.624352003886970583e-03,2.900580095787631124e-03,-1.217924183964909757e+00,7.416320758951642535e-03,-1.279780051317299695e-03,3.699271045545973746e-01
2.475000000000000000e+01,-1.576086019205694966e-01,6.031911217965252314e-01,1.000217218921211626e-01,-2.425045109132669685e-01,-1.551861750869374008e-02,3.487114320107606956e-06,5.091222650251298401e-03,4.219497951426605040e-03,-1.171679461759292495e+00,1.457298062049388991e-02,2.192867515940164110e-03,3.699630001311688954e-01
2.500000000000000000e+01,-1.880493941149450066e-01,6.007450513717360607e-01,1.000223427020251743e-01,-2.443164074751112969e-01,-2.380310433908339879e-02,6.585874681556611473e-06,5.507213086696807237e-03,6.451344392374474407e-03,-1.125429226807806993e+00,2.009635605232533775e-02,6.308551034452388774e-03,3.700046645953561364e-01
2.525000000000000000e+01,-2.186334918332623056e-01,5.970703206808638530e-01,1.000234178657559148e-01,-2.447181788633431831e-01,-3.516655499536890106e-02,1.045156852237842464e-05,5.799799593499844336e-03,9.332769814795518690e-03,-1.079173953171256084e+00,2.241994275281963128e-02,1.007312539620127192e-02,3.700402066960709613e-01
2.550000000000000000e+01,-2.491375524573122002e-01,5.917589308516619795e-01,1.000248939273656462e-01,-2.430011143574234977e-01,-4.987064491665603450e-02,1.251833117472321014e-05,5.902858588786081065e-03,1.241768008877307088e-02,-1.032916553810822480e+00,2.070571629933430288e-02,1.237299214399260883e-02,3.700564438887281593e-01
2.575000000000000000e+01,-2.792619969527223023e-01,5.844105357041109450e-01,1.000263386268017418e-01,-2.386780623088515241e-01,-6.754460954190277810e-02,9.684355712237360914e-06,5.774466663695302510e-03,1.516978733422292940e-02,-9.866617629017618851e-01,1.509254805625370038e-02,1.231015793673199271e-02,3.700451168371878263e-01
2.600000000000000000e+01,-3.086698021968095063e-01,5.747109721490818446e-01,1.000270343486736324e-01,-2.316458007084993553e-01,-8.721914130267756360e-02,8.336488304385460621e-07,5.410263186076486909e-03,1.708193605235643411e-02,-9.404142470732532733e-01,6.679003897339772997e-03,9.511981403375469393e-03,3.700078159952658319e-01
2.625000000000000000e+01,-3.370407029705366764e-01,5.624966220264222549e-01,1.000263520247560850e-01,-2.222643606472631816e-01,-1.075097633804426162e-01,-1.153347368594243589e-05,4.848432030712949287e-03,1.779313559025986341e-02,-8.941764131449559949e-01,-2.755983177934480128e-03,4.309541009820510790e-03,3.699560411323113418e-01
2.650000000000000000e+01,-3.641280229890868636e-01,5.477885056139674136e-01,1.000241751996341771e-01,-2.113206641517852147e-01,-1.269037455858489372e-01,-2.218041376592546748e-05,4.164670336185453264e-03,1.717400041018779522e-02,-8.479472735004000006e-01,-1.121424914409633114e-02,-2.284780972147397015e-03,3.699057952685562700e-01
2.675000000000000000e+01,-3.898032957226574280e-01,5.307877581779155696e-01,1.000210578528320515e-01,-1.998763455811785050e-01,-1.440764442804255974e-01,-2.619877716121052691e-05,3.458172386834466178e-03,1.535898353115963157e-02,-8.017231138831040216e-01,-1.698775511380237052e-02,-8.806559493655958387e-03,3.698699519365050148e-01
2.700000000000000000e+01,-4.140760842110304818e-01,5.118340938928993555e-01,1.000179714693649885e-01,-1.890340919187795676e-01,-1.581560852394238714e-01,-2.207533475329669824e-05,2.831971207352637198e-03,1.271741704841018207e-02,-7.554994939328847359e-01,-1.907192449554961922e-02,-1.371467156520315804e-02,3.698532212334197933e-01
2.725000000000000000e+01,-4.370824887713526397e-01,4.913381644688227801e-01,1.000157993337928014e-01,-1.796822796967758595e-01,-1.688721585223562915e-01,-1.247061740528711369e-05,2.372364423215230726e-03,9.770941573849351719e-03,-7.092732395662676437e-01,-1.737350082748760627e-02,-1.580542478478126969e-02,3.698525107736469475e-01
2.750000000000000000e+01,-4.590440459792071159e-01,4.697047849540383901e-01,1.000149212848636254e-01,-1.722860308441059307e-01,-1.765562209089086287e-01,-2.201383591061882202e-06,2.132256070097926504e-03,7.078001863654635219e-03,-6.630432307326414865e-01,-1.266860921174152790e-02,-1.454532865105802840e-02,3.698614831459691721e-01
2.775000000000000000e+01,-4.802066996373747787e-01,4.472652928326846244e-01,1.000151495771252619e-01,-1.667813945561852085e-01,-1.820043908977339031e-01,4.922707617023059940e-06,2.122103667199460794e-03,5.113514289514838745e-03,-6.168097838427619717e-01,-6.339361497867764331e-03,-1.022512600907760257e-02,3.698753629605462945e-01
2.800000000000000000e+01,-5.007749493203661473e-01,4.242337480894337043e-01,1.000160019055760935e-01,-1.626014949744793159e-01,-1.862462483163638272e-01,8.024725115978644245e-06,2.310180509404663636e-03,4.172106109179566508e-03,-5.705734435517709757e-01,2.385984972354005538e-05,-3.888793286540457358e-03,3.698925655020073311e-01
2.825000000000000000e+01,-5.208575822485136397e-01,4.006945605571117786e-01,1.000170607009438495e-01,-1.588272719802008293e-01,-1.902856835151415238e-01,8.669646063823519192e-06,2.631638794282477409e-03,4.316717146620990819e-03,-5.243342564533450822e-01,5.036926099603654915e-03,2.943448824821651502e-03,3.699127737073570343e-01
2.850000000000000000e+01,-5.404381968860551000e-01,3.766206311161591214e-01,1.000181510504559307e-01,-1.544214219911225205e-01,-1.948807986313947083e-01,8.784791667366037343e-06,3.003929959784283100e-03,5.382576644514599704e-03,-4.780919976739142485e-01,7.840256616545738383e-03,8.679024883848033417e-03,3.699339977421963743e-01
2.875000000000000000e+01,-5.593769667592940475e-01,3.519136160208013453e-01,1.000192604471942248e-01,-1.484821705812882642e-01,-2.004132951528520279e-01,8.917780528555631665e-06,3.344872597640383832e-03,7.032752475718126103e-03,-4.318469471618870958e-01,8.244131963115533535e-03,1.206950280087459859e-02,3.699516129400580167e-01
2.900000000000000000e+01,-5.774417213267989402e-01,3.264533973546699941e-01,1.000203421299870471e-01,-1.404496792980791109e-01,-2.068689721402566239e-01,8.157397036205521398e-06,3.589253498664673071e-03,8.849207985662669099e-03,-3.856003956912870123e-01,6.678917495803044814e-03,1.252384188314172031e-02,3.699603125349320565e-01
2.925000000000000000e+01,-5.943588096948128063e-01,3.001432218440072131e-01,1.000212097016227875e-01,-1.302129070798490884e-01,-2.139189797357118894e-01,5.454196625251099690e-06,3.700357594975525483e-03,1.043549284268330095e-02,-3.393543717634068813e-01,3.984336993104757932e-03,1.023308547148761918e-02,3.699573183558718670e-01
2.950000000000000000e+01,-6.098694702345848206e-01,2.729400475151973482e-01,1.000216135516869970e-01,-1.180940013683582784e-01,-2.210654838556958268e-01,9.517162782242568428e-07,3.674143954945339758e-03,1.150543853325478039e-02,-2.931107691723671138e-01,1.114267243494617430e-03,6.074219892327289809e-03,3.699442466252934048e-01
2.975000000000000000e+01,-6.237768192600040562e-01,2.448651870416843346e-01,1.000214152365389714e-01,-1.047223602798066505e-01,-2.278022463690441424e-01,-3.850658358426869207e-06,3.535632798537153426e-03,1.193672444511138624e-02,-2.468705145940793266e-01,-1.148443241108690815e-03,1.323437268835979744e-03,3.699262820618011705e-01
3.000000000000000000e+01,-6.359721770733464119e-01,2.159965245207916551e-01,1.000206997589744989e-01,-9.084134861448403542e-02,-2.337431166091852308e-01,-7.110269783269611118e-06,3.329000148919987381e-03,1.177787866463408939e-02,-2.006333136632615366e-01,-2.383030793533490177e-03,-2.734442268309134148e-03,3.699094531533359542e-01
3.025000000000000000e+01,-6.464361297040811527e-01,1.864485271359375973e-01,1.000197364835737623e-01,-7.710814908378388344e-02,-2.386876767615568884e-01,-7.847169122316673882e-06,3.104386468992709463e-03,1.121000250503458723e-02,-1.543980281751105854e-01,-2.579363931487625196e-03,-5.179732107383358541e-03,3.698979869353223870e-01
3.050000000000000000e+01,-6.552174025108085109e-01,1.563486082237451613e-01,1.000188327266951782e-01,-6.394583359355429653e-02,-2.426172625192798693e-01,-6.375961299648061447e-06,2.905091721266932301e-03,1.047701764993194326e-02,-1.081633201257335142e-01,-2.045968456924157804e-03,-5.696961804928653630e-03,3.698932104832511891e-01
3.075000000000000000e+01,-6.623988814723048568e-01,1.258176860688382803e-01,1.000181959880539623e-01,-5.148663380914157706e-02,-2.456379300943448973e-01,-3.821621446191028848e-06,2.758457626971564259e-03,9.806954432988899614e-03,-6.192815072693014233e-02,-1.227631905832865392e-03,-4.603186280985768937e-03,3.698940539376939229e-01
3.100000000000000000e+01,-6.680629732651702790e-01,9.495963438366188114e-02,1.000178846933765936e-01,-3.961296262808472468e-02,-2.479017273814967670e-01,-1.325715372447702159e-06,2.672442768710863760e-03,9.348914455923298950e-03,-1.569196938669973826e-02,-5.114552976845751931e-04,-2.660060960802988934e-03,3.698982430203491822e-01
3.125000000000000000e+01,-6.722670834486583757e-01,6.386015483196172404e-02,1.000178415600359166e-01,-2.806899998507549759e-02,-2.495391710640245120e-01,4.228581307011191430e-07,2.638079771213417118e-03,9.144655970441135234e-03,3.054532448521808663e-02,-9.821513818486018196e-05,-7.426091867739983716e-04,3.699033411279943895e-01
3.150000000000000000e+01,-6.750349510813110632e-01,3.259210334793605918e-02,1.000179552326541932e-01,-1.659288650129580114e-02,-2.506245806824453637e-01,1.211425549803905619e-06,2.636234561970046339e-03,9.141341536697064271e-03,7.678350629296024077e-02,1.771304303956480625e-05,5.038259977190386344e-04,3.699074133689883026e-01
