time_total,x,y,z,vx,vy,vz,roll,pitch,yaw,roll_rate,pitch_rate,yaw_rate
-01,9.990089582755562470e-02,-5.549373608318773632e-02,1.736309068757540541e-01,3.888280131339869787e-04,-5.323873600692636274e-04,2.399911093859784326e-03,-2.752621908032011788e+00,-1.652759970316281662e-02,-2.296107297069636261e-02,3.930306006735601043e-01
2.500000000000000000e-01,4.534101620142181877e-01,1.400367413513447512e-01,9.994182820788106991e-02,-5.930016726513905739e-02,1.720273246121467592e-01,2.773229938802006722e-04,2.696560345078943474e-03,4.383381152232683486e-03,-2.703480601387816762e+00,-1.501668500121898855e-02,-2.518461355875491539e-02,3.930516640772245829e-01
5.000000000000000000e-01,4.455462456754782363e-01,1.615481434570092689e-01,9.997112258793240669e-02,-6.686774891667794651e-02,1.723148725677749182e-01,1.974940554988599464e-04,4.922252926451201570e-03,6.489170208498059797e-03,-2.654336758198693413e+00,-1.335986010584915701e-03,-2.010913216392714101e-02,3.930599183360954374e-01
7.500000000000000000e-01,4.365254588128562596e-01,1.831079671406135034e-01,9.999163961707960291e-02,-7.753116588770429807e-02,1.724034234155786272e-01,1.357779146708171529e-04,5.228595956914631679e-03,8.648649717108198784e-03,-2.605202068907027879e+00,1.271051257830267851e-02,-1.248204359802678777e-02,3.930628237810896985e-01
1.000000000000000000e+00,4.260361965638836956e-01,2.045430419538379063e-01,1.000056211274000656e-01,-9.008818768138580901e-02,1.701001494851083207e-01,9.236050573972625114e-05,4.010404420737192013e-03,1.071918882168980749e-02,-2.556081131396438888e+00,1.965310921161806876e-02,-5.662274366785889114e-03,3.930641788589607222e-01
1.250000000000000000e+00,4.139210340236156860e-01,2.254671024804435486e-01,1.000151904054722846e-01,-1.033405716259846868e-01,1.642707510488568556e-01,6.343370663007213777e-05,2.228728662830865414e-03,1.241246218203897675e-02,-2.506968739066152807e+00,1.794954980457220267e-02,-6.807951339410293727e-04,3.930649548272549532e-01
1.500000000000000000e+00,4.001575416000575092e-01,2.454392819265639181e-01,1.000216353445660539e-01,-1.163332001317792519e-01,1.551104158381428899e-01,4.100799231087596809e-05,7.103647531907734264e-04,1.337743282673312280e-02,-2.457855427487501299e+00,1.028375109066430315e-02,3.037674973518403668e-03,3.930614484580744472e-01
1.750000000000000000e+00,3.848267403746274962e-01,2.641104178498721589e-01,1.000254736221431046e-01,-1.283445290079623102e-01,1.437644373788346253e-01,2.163002602389772243e-05,-1.893748679472314408e-04,1.335834503358225567e-02,-2.408735444219559430e+00,7.533854878473788923e-04,6.346006970102243717e-03,3.930513739006198382e-01
2.000000000000000000e+00,3.680897109411324641e-01,2.813026981041606978e-01,1.000271847127655878e-01,-1.387976560174229435e-01,1.317171135428303330e-01,7.333908099801388926e-06,-5.484422441489154995e-04,1.231984520832635731e-02,-2.359609526919550060e+00,-7.318414762847455859e-03,9.441722427856437394e-03,3.930386509855643418e-01
2.250000000000000000e+00,3.501724469972256615e-01,2.970169179493873379e-01,1.000275757739631927e-01,-1.472304660839759138e-01,1.202813342030095711e-01,4.185736955358440326e-07,-6.406377599162909166e-04,1.047348617134940055e-02,-2.310481403738711137e+00,-1.227265246915515244e-02,1.174622909149039031e-02,3.930298891127274596e-01
2.500000000000000000e+00,3.313482433582600750e-01,3.113910165320081247e-01,1.000275501305711995e-01,-1.533583387205285087e-01,1.103289268743837120e-01,3.390286139608409528e-08,-7.010096933630523535e-04,8.205989367875931445e-03,-2.261353417980429992e+00,-1.392838867028063296e-02,1.240561650419170873e-02,3.930278991601730554e-01
2.750000000000000000e+00,3.119090899129536854e-01,3.246398439613913389e-01,1.000277226340482717e-01,-1.571721894475852643e-01,1.022402327091508495e-01,2.850110147752819696e-06,-8.120541983741661482e-04,5.956487425638801007e-03,-2.212225592616817504e+00,-1.292818852637505657e-02,1.092883763425996427e-02,3.930299158644292024e-01
3.000000000000000000e+00,2.921271798678711229e-01,3.369978148055238210e-01,1.000282649697236959e-01,-1.589876026501221284e-01,9.597979497753436617e-02,5.513314753810238528e-06,-9.202263035519787004e-04,4.099886894399743138e-03,-2.163097288958592213e+00,-1.014113582910921782e-02,7.545227036733187509e-03,3.930312289359858546e-01
3.250000000000000000e+00,2.722164616760185396e-01,3.486743095316851559e-01,1.000290319673441952e-01,-1.593947441966304390e-01,9.121211898176205535e-02,6.410586996008295762e-06,-9.225701727338359677e-04,2.874287919075868471e-03,-2.113968490379968923e+00,-6.355075989445626086e-03,3.133597874625805926e-03,3.930294736428804891e-01
3.500000000000000000e+00,2.523066768154505479e-01,3.598235098961258815e-01,1.000298037711187527e-01,-1.591178056740363278e-01,8.741326815612848744e-02,5.789465367394606024e-06,-7.512610314331960278e-04,2.361502255359473716e-03,-2.064839610137117365e+00,-2.224787493491454070e-03,-1.158020998099880145e-03,3.930257266809359940e-01
3.750000000000000000e+00,2.324380102211421606e-01,3.705273880151515042e-01,1.000304570730382175e-01,-1.588380257901048365e-01,8.397077507243709549e-02,4.706173295638464791e-06,-4.125484763362632337e-04,2.507953762418174866e-03,-2.015710807298253915e+00,1.674930989770389601e-03,-4.356646082563638694e-03,3.930225606486926759e-01
4.000000000000000000e+00,2.125766276000121968e-01,3.807907845838603422e-01,1.000309897120871261e-01,-1.590454138620038260e-01,8.027839202443173838e-02,3.915291954475225985e-06,2.423203243531370316e-05,3.165483159614736978e-03,-1.966581846921725552e+00,4.821427256741208679e-03,-5.960469718600764320e-03,3.930216154763955805e-01
4.250000000000000000e+00,1.926442975973170491e-01,3.905481326126422070e-01,1.000314478713663913e-01,-1.599639041764815417e-01,7.582706205983279213e-02,3.458228760097725493e-06,4.656435310192926251e-04,4.135237828929259375e-03,-1.917452491490357236e+00,6.787763064007980816e-03,-5.999667425410747622e-03,3.930226569159412930e-01
4.500000000000000000e+00,1.725519007331265398e-01,3.996808197919908823e-01,1.000318489150740786e-01,-1.615600269626997487e-01,7.028218535496648378e-02,2.923781453103928213e-06,8.336295887278515277e-04,5.206046420623030961e-03,-1.868322845341265692e+00,7.330003862703912514e-03,-4.900866746652474473e-03,3.930242207014360001e-01
4.750000000000000000e+00,1.522274392767534734e-01,4.080424514797040825e-01,1.000321555709849930e-01,-1.636149834718950979e-01,6.353104527674509339e-02,1.920763522908617662e-06,1.087742137766511356e-03,6.185420783663290144e-03,-1.819193322950386049e+00,6.461820268272002767e-03,-3.261927933656009679e-03,3.930248056049145400e-01
5.000000000000000000e+00,1.316328189661014336e-01,4.154873605827359984e-01,1.000323012289477814e-01,-1.658251195130358846e-01,5.568726518685875732e-02,3.889014755901387586e-07,1.226719613482623889e-03,6.924051151975263614e-03,-1.770064368487048290e+00,4.472709241502502084e-03,-1.642327367369282413e-03,3.930236841873351872e-01
5.250000000000000000e+00,1.107681180326738762e-01,4.218966612095533253e-01,1.000322364952782456e-01,-1.678969453811633428e-01,4.704904779491275030e-02,-1.363105921150931221e-06,1.276315319525004851e-03,7.334055708049130526e-03,-1.720936213168443585e+00,1.876864609200671252e-03,-4.299199212314326786e-04,3.930210515763881696e-01
5.500000000000000000e+00,8.966563387582680844e-02,4.271964989476803587e-01,1.000319655464389917e-01,-1.696139861810185001e-01,3.801963272884451711e-02,-2.834584130064736784e-06,1.273271489429559028e-03,7.399464675041197981e-03,-1.671808817936669023e+00,-6.938184596476251005e-04,2.061356376113827773e-04,3.930177100613256869e-01
5.750000000000000000e+00,6.837795352052185305e-02,4.313648404863679731e-01,1.000315530539082065e-01,-1.708663021554205352e-01,2.900762174560479051e-02,-3.599911871663292877e-06,1.252621115570758678e-03,7.176305471410138366e-03,-1.622681962157906055e+00,-2.626896899984463782e-03,2.981668708808487092e-04,3.930146124520885742e-01
6.000000000000000000e+00,4.696469288679547965e-02,4.344257098997202915e-01,1.000310999749853269e-01,-1.716444354714735110e-01,2.032960526872674284e-02,-3.517223833168894478e-06,1.240779027963241328e-03,6.780103803867731059e-03,-1.573555367846995345e+00,-3.468595950440696730e-03,2.643868555428544558e-05,3.930125110273774980e-01
6.250000000000000000e+00,2.548184563030581745e-02,4.364326354208898917e-01,1.000307037410637367e-01,-1.720064395900338661e-01,1.213758275313550627e-02,-2.762927622918868417e-06,1.253301683127151485e-03,6.360769851219929237e-03,-1.524428783261036591e+00,-3.036631889894146792e-03,-3.519721792558872442e-04,3.930118165848041079e-01
6.500000000000000000e+00,3.976327726138270159e-03,4.374456359766396019e-01,1.000304264363362644e-01,-1.720304877523820275e-01,4.389123488424012155e-03,-1.686286431043434438e-06,1.295014898779259065e-03,6.068201113209631403e-03,-1.475302011664797019e+00,-1.477956711920872402e-03,-5.822211319397061846e-04,3.930126180236311328e-01
6.750000000000000000e+00,-1.751339736185001522e-02,4.375077838809526831e-01,1.000302865077542236e-01,-1.717674289984251756e-01,-3.130765649001874575e-03,-6.083851591042495584e-07,1.360938365257260974e-03,6.015453794298077431e-03,-1.426174913556649937e+00,7.520720986995985211e-04,-4.891784900931715014e-04,3.930147186510420387e-01
7.000000000000000000e+00,-3.895153778577285786e-02,4.366277222272887948e-01,1.000302701604087324e-01,-1.712074696062368673e-01,-1.073956026430725706e-02,2.736295080263476591e-07,1.437773879310902348e-03,6.248535596924747852e-03,-1.377047422634347651e+00,2.995744036801285381e-03,-3.734423540841152794e-05,3.930175963629777280e-01
7.250000000000000000e+00,-6.029656217758185000e-02,4.347732085199844665e-01,1.000303442289612460e-01,-1.702719377029397463e-01,-1.875572738281207352e-02,8.257286729210902255e-07,1.506541736391165624e-03,6.731430807821640362e-03,-1.327919593150611144e+00,4.564275587068403021e-03,6.468456241776270694e-04,3.930203651947596910e-01
7.500000000000000000e+00,-8.149365320652360301e-02,4.318779484956932202e-01,1.000304568902198599e-01,-1.688343616807997105e-01,-2.739271323564219235e-02,8.738675196937677642e-07,1.546816095247754465e-03,7.351557710605362631e-03,-1.278791647093322270e+00,4.929292317589910148e-03,1.304503990791024354e-03,3.930219276928948458e-01
7.750000000000000000e+00,-1.024714740961072679e-01,4.278603388429538246e-01,1.000305322241866191e-01,-1.667659791060197016e-01,-3.667833905159721686e-02,2.265583334034854677e-07,1.542185598050688135e-03,7.945475353840106975e-03,-1.229663953961800393e+00,3.878323683385474438e-03,1.623982337246959251e-03,3.930213961257149613e-01
8.000000000000000000e+00,-1.231454970984776492e-01,4.226492769089824075e-01,1.000304788115994742e-01,-1.639919913861207501e-01,-4.642378277451993801e-02,-1.140139596591245045e-06,1.485660421552089435e-03,8.339035545386572559e-03,-1.180536902676440736e+00,1.586017741596268231e-03,1.349904617170752733e-03,3.930185836993639326e-01
8.250000000000000000e+00,-1.434280409766291731e-01,4.162099704860103278e-01,1.000302239196357579e-01,-1.605396267888485329e-01,-5.625301036237839031e-02,-2.897057294306159272e-06,1.383318049866070392e-03,8.392065852623691036e-03,-1.131410712453298828e+00,-1.422608191151169014e-03,3.867320443655108140e-04,3.930141964169343582e-01
8.500000000000000000e+00,-1.632427714368520910e-01,4.085624097160197588e-01,1.000297584269647794e-01,-1.565597241292591701e-01,-6.568649046158721305e-02,-4.397618838824160497e-06,1.254770322585661846e-03,8.036223456947162724e-03,-1.082285304374386747e+00,-4.408379398476275010e-03,-1.140186901882615312e-03,3.930095112812234670e-01
8.750000000000000000e+00,-1.825395220611902292e-01,3.997869856002146394e-01,1.000291585237330916e-01,-1.523105142639566145e-01,-7.425738041180308946e-02,-4.991718441225550768e-06,1.129925356954177311e-03,7.296206003018900627e-03,-1.033160335872058910e+00,-6.615425440523964827e-03,-2.891740965158495508e-03,3.930057227205716597e-01
9.000000000000000000e+00,-2.013045862190040447e-01,3.900151653921670181e-01,1.000285599495406297e-01,-1.481037125607238270e-01,-8.162883258661354779e-02,-4.418735828848220157e-06,1.042648042775244904e-03,6.288630169551804802e-03,-9.840353836958563027e-01,-7.473472052029327996e-03,-4.394330483095505550e-03,3.930034302920580869e-01
9.250000000000000000e+00,-2.195624532152819497e-01,3.794071886042372221e-01,1.000280949472837078e-01,-1.442253599060136504e-01,-8.768054200035842183e-02,-2.973112408713422472e-06,1.022874227206050854e-03,5.198575060138523919e-03,-9.349101414328769843e-01,-6.746856542474055987e-03,-5.170255920039960353e-03,3.930026383212039121e-01
9.500000000000000000e+00,-2.373671548001643483e-01,3.681222573590655078e-01,1.000278327135559892e-01,-1.408528876865280111e-01,-9.254136764746187516e-02,-1.295501341123085131e-06,1.089196089482203289e-03,4.239631804383591634e-03,-8.857844848910096935e-01,-4.588113280844467040e-03,-4.878842097463785728e-03,3.930032019809066024e-01
9.750000000000000000e+00,-2.547843111245647330e-01,3.562886475029978239e-01,1.000277631628779113e-01,-1.379923569736574152e-01,-9.656018592688374313e-02,5.582832191835592898e-08,1.243799137393348945e-03,3.607588787450860274e-03,-8.366583722105861431e-01,-1.484602157038291672e-03,-3.423272699220730134e-03,3.930052617878053711e-01
1.000000000000000000e+01,-2.718677076729150155e-01,3.439810347029616522e-01,1.000278304179648275e-01,-1.354547993676692430e-01,-1.002241771768930395e-01,9.201550394153782396e-07,1.470989224910466357e-03,3.439055966502737541e-03,-7.875316906272126216e-01,1.878656406112586084e-03,-9.912762447472475615e-04,3.930092161304496456e-01
1.025000000000000000e+01,-2.886359568521038588e-01,3.312102571847326815e-01,1.000279845178762422e-01,-1.328799997866259297e-01,-1.040470438497472228e-01,1.505476030670300056e-06,1.739630882657340486e-03,3.784032652074921944e-03,-7.384042124061247492e-01,4.793081883755344330e-03,1.978089055784758039e-03,3.930151921166011864e-01
1.050000000000000000e+01,-3.050550400385454997e-01,3.179274613113485248e-01,1.000282087726405422e-01,-1.298037198646161960e-01,-1.084554778944038650e-01,2.070426199425454453e-06,2.008896891182122054e-03,4.596869251684392033e-03,-6.892757337004284945e-01,6.687204161785374572e-03,4.886678846351914969e-03,3.930224340102410063e-01
1.075000000000000000e+01,-3.210313227557992644e-01,3.040411057968551711e-01,1.000285031326475504e-01,-1.257540343441105601e-01,-1.136999358373041724e-01,2.591826779899084979e-06,2.236032351184422031e-03,5.745376096745960157e-03,-6.401463144411309036e-01,7.238123529894966400e-03,7.102352795072742163e-03,3.930291521973885982e-01
1.100000000000000000e+01,-3.364173983575594606e-01,2.894425237025632369e-01,1.000288403728454845e-01,-1.203562777458239835e-01,-1.198076579722455598e-01,2.685545520412817082e-06,2.384497818221545384e-03,7.034683483156068881e-03,-5.910164385321940994e-01,6.419091897286704172e-03,8.091002623040920855e-03,3.930330768383581419e-01
1.125000000000000000e+01,-3.510303968057877366e-01,2.740341781327348403e-01,1.000291338452751616e-01,-1.134243570319055927e-01,-1.265852001749878941e-01,1.850840538304589251e-06,2.430895712187065155e-03,8.241148228675677576e-03,-5.418869466087030684e-01,4.484988352086970338e-03,7.534441557827225612e-03,3.930324758711196687e-01
1.150000000000000000e+01,-3.646797119402838683e-01,2.577545288671618806e-01,1.000292489064763118e-01,-1.050182512565591836e-01,-1.336672471507399929e-01,-1.222582785725718636e-07,2.369424116763014371e-03,9.151303960739955862e-03,-4.927587355005513814e-01,1.905675322252592570e-03,5.415915473025083825e-03,3.930270632277462206e-01
1.175000000000000000e+01,-3.771988908746325975e-01,2.405944231303591974e-01,1.000290606433589941e-01,-9.545287096795616877e-02,-1.405996471067832432e-01,-2.863409669460238111e-06,2.213113241676896437e-03,9.600531974820010125e-03,-4.436323739444533731e-01,-7.394476523660701911e-04,2.054787684029351150e-03,3.930182461034607000e-01
1.200000000000000000e+01,-3.884750916512610397e-01,2.226018744556588491e-01,1.000285270503018242e-01,-8.525193039674673623e-02,-1.469381808634101783e-01,-5.476814832188987698e-06,1.991661863205180984e-03,9.505440627235775888e-03,-3.945078509330435801e-01,-2.888651481589306520e-03,-1.926600566420014942e-03,3.930085272546743336e-01
1.225000000000000000e+01,-3.984694216392931643e-01,2.038746553721458576e-01,1.000277307020233375e-01,-7.505167240144237917e-02,-1.523412706559029994e-01,-6.959424408800975789e-06,1.746231097591960770e-03,8.883485421727090742e-03,-3.453846039535088952e-01,-4.123571717028999030e-03,-5.711315262501144747e-03,3.930003836997920663e-01
1.250000000000000000e+01,-4.072228695857876279e-01,1.845428501718307801e-01,1.000268562538065426e-01,-6.547156827704384008e-02,-1.566356356779227132e-01,-6.749276462105078110e-06,1.522038882672167642e-03,7.854263576132164762e-03,-2.962618063258167234e-01,-4.264792490074517314e-03,-8.459554572264322073e-03,3.929952783334223487e-01
1.275000000000000000e+01,-4.148388314823169831e-01,1.647719419561181065e-01,1.000281250685284423e-01,-5.663753356387325744e-02,-1.584620067273838362e-01,4.616239195311351627e-05,-6.235875703784254064e-03,6.457273431916632153e-03,-2.631697420444568114e-01,-1.855949226727381107e-01,3.456238002537011939e-02,-7.096521368673634755e-03
1.300000000000000000e+01,-4.211466569060909881e-01,1.460155254843116812e-01,1.000565774200172509e-01,-4.341911641951189116e-02,-1.360968011401420263e-01,4.689337137480279025e-04,-3.774403923969897601e-02,3.875019625058492758e-03,-2.862095087764210954e-01,-2.607585289602781242e-01,4.939453898320541464e-02,-2.888530370724388674e-01
1.325000000000000000e+01,-4.252626036256968445e-01,1.324899000077671973e-01,1.001306553965948531e-01,-2.187104641639048622e-02,-7.710263163825112342e-02,5.369190046062156507e-04,-6.308525687469523913e-02,1.834030015539603624e-04,-3.282122930178816844e-01,-1.277282577636612015e-01,1.105411461619996462e-02,-3.638934945951138866e-01
1.350000000000000000e+01,-4.263099488480551758e-01,1.277996478771840638e-01,1.001491892133507117e-01,4.467749703993565726e-03,2.742868361955684044e-04,-2.779005954895887162e-04,-6.632943842299027226e-02,-3.079529857334813506e-03,-3.753096155081753205e-01,5.027643349326374467e-02,-4.049255249453078548e-02,-3.847179786368892795e-01
1.375000000000000000e+01,-4.241349414058344092e-01,1.325312241497883792e-01,1.000726869548024534e-01,2.861698986117942878e-02,7.000999747289596287e-02,-7.885151849715198126e-04,-5.026825860114072370e-02,-4.096530161278218347e-03,-4.239275499566764749e-01,1.598975995250094262e-01,-6.861745891590526059e-02,-3.907639269907170476e-01
1.400000000000000000e+01,-4.193792507131786085e-01,1.445095321848990089e-01,9.998665640684055445e-02,4.552395146375200902e-02,1.155001120419413829e-01,-5.027317602970445823e-04,-2.712699347101914585e-02,-2.311222876413872394e-03,-4.729908290392828563e-01,1.707935087637400817e-01,-6.097057233437470219e-02,-3.925797709660845958e-01
1.425000000000000000e+01,-4.130227305474620803e-01,1.604305188088165912e-01,9.995536160418359850e-02,5.480963289053589899e-02,1.347059801655442479e-01,-4.192343302760584330e-05,-8.468257321665150980e-03,1.285237515936973537e-03,-5.221218171748810422e-01,1.142120981333661078e-01,-2.931313786553950765e-02,-3.931712522904268758e-01
1.450000000000000000e+01,-4.058230793042524320e-01,1.774721523407965518e-01,9.996500685190429225e-02,5.989926027036263090e-02,1.358509041397412687e-01,1.404225084535638845e-04,3.668152042601321278e-04,4.981356860610283710e-03,-5.712559853432186419e-01,4.116968026807662356e-02,4.413288397783257308e-03,-3.933205375730203790e-01
1.475000000000000000e+01,-3.980160751269652408e-01,1.940893621118216228e-01,9.998270380425303139e-02,6.517330012820500562e-02,1.298306518320141434e-01,1.289799932247748997e-04,4.996668852345374301e-04,7.414735193562292485e-03,-6.204182764696015706e-01,-1.027938266942007156e-02,2.313083594799614923e-02,-3.932460190457940929e-01
1.500000000000000000e+01,-3.893753175851176196e-01,2.099403689315742227e-01,9.999641405656621573e-02,7.338432824504390051e-02,1.244531847079394377e-01,9.368826504358695995e-05,-3.516388532683232225e-03,8.166941980542564289e-03,-6.695966139753354307e-01,-2.788259140777831976e-02,2.233338571416280602e-02,-3.931009028228978353e-01
1.525000000000000000e+01,-3.794977491291873228e-01,2.253361701258392302e-01,1.000063673251127966e-01,8.468423907156977237e-02,1.225126674965509033e-01,6.634868885569409399e-05,-7.215967951056534088e-03,7.671633948775415622e-03,-7.187562327526331174e-01,-2.017304959670805642e-02,8.566356187497983082e-03,-3.929931920316734328e-01
1.550000000000000000e+01,-3.680995588824427234e-01,2.406684157877436447e-01,1.000127271021968717e-01,9.728577858467214734e-02,1.229975749872532775e-01,3.647521149019083075e-05,-8.298537955581462844e-03,6.704775430048821698e-03,-7.678852436910756918e-01,-3.565722546189225260e-03,-7.350179653459171410e-03,-3.929547580596695067e-01
1.575000000000000000e+01,-3.551678611808857799e-01,2.560884464474055822e-01,1.000157653359824012e-01,1.089077960774572917e-01,1.235265776076737848e-01,1.553245128221694127e-05,-6.827412613582130134e-03,5.877405645660581900e-03,-8.169960353459716496e-01,8.786639606727843915e-03,-1.704068850299804080e-02,-3.929689700892063375e-01
1.600000000000000000e+01,-3.409357681374984850e-01,2.714744970156884318e-01,1.000172503611724689e-01,1.180232828782416948e-01,1.223269534043415763e-01,1.054116532805673383e-05,-4.209415250315454333e-03,5.404571857834211158e-03,-8.661047424665152539e-01,1.183089682050777677e-02,-1.783439115031080699e-02,-3.930051708479995742e-01
1.625000000000000000e+01,-3.257473997295047274e-01,2.865707304691145207e-01,1.000186570915009010e-01,1.243541654030578397e-01,1.190057809933779964e-01,1.198355146308293017e-05,-1.941206867605279078e-03,5.177816641551238365e-03,-9.152205886825727221e-01,7.533971591762716503e-03,-1.209235002505604228e-02,-3.930368607453551544e-01
1.650000000000000000e+01,-3.099116247594793094e-01,3.011493710882883201e-01,1.000201410265291746e-01,1.286230797430039374e-01,1.142615547616732813e-01,1.123193877720986039e-05,-8.252337497829044695e-04,4.991961677085128037e-03,-9.643456163862371699e-01,9.248175483305919563e-04,-4.315233089469330298e-03,-3.930511677036623852e-01
1.675000000000000000e+01,-2.936153800863439134e-01,3.150998572772501505e-01,1.000213725372279261e-01,1.319360338493501261e-01,1.091287049259761222e-01,8.490108745162658379e-06,-8.449322357074818060e-04,4.743739796915331756e-03,-1.013477138645557662e+00,-3.633996547792743472e-03,1.741662871149342925e-03,-3.930501772199168631e-01
1.700000000000000000e+01,-2.769145447857877529e-01,3.284252381526697739e-01,1.000222792625947155e-01,1.352166018253805890e-01,1.043197800375420814e-01,6.270476824302180841e-06,-1.490837369101889525e-03,4.498728221653907483e-03,-1.062610965069660907e+00,-4.284375820497041826e-03,4.531061984795176252e-03,-3.930435913533016912e-01
1.725000000000000000e+01,-2.597778557173432978e-01,3.411795526875960327e-01,1.000229687705893877e-01,1.389332341103328428e-01,9.994580332653747734e-02,4.893836767201474957e-06,-2.194298481956642472e-03,4.431187691108874616e-03,-1.111744241428471280e+00,-1.568021378267516874e-03,4.561606909813034974e-03,-3.930398527821544752e-01
1.750000000000000000e+01,-2.421444488684728891e-01,3.533950550007767255e-01,1.000235106442205757e-01,1.431291724119563291e-01,9.560045437788645961e-02,3.858884980490461466e-06,-2.612924600327825187e-03,4.709554122214403872e-03,-1.160876202004191837e+00,2.735112760105064440e-03,3.310064998530089925e-03,-3.930421983527863650e-01
1.775000000000000000e+01,-2.239653575123686235e-01,3.650342447933730972e-01,1.000239490340971982e-01,1.476148622331704963e-01,9.063248161736726927e-02,3.278295276333259009e-06,-2.688986192563922687e-03,5.405572873100286495e-03,-1.210007271916297311e+00,6.828035640636919042e-03,2.088358324844095427e-03,-3.930493998656257593e-01
1.800000000000000000e+01,-2.052195556087886563e-01,3.759777437528648569e-01,1.000243560482227123e-01,1.521594915792247038e-01,8.442107743118726360e-02,3.320021766125487455e-06,-2.545614413770564549e-03,6.466734768222193348e-03,-1.259138149285683683e+00,9.589145766310504942e-03,1.445968886383378754e-03,-3.930580098483813511e-01
1.825000000000000000e+01,-1.859118032546056287e-01,3.860405689669398344e-01,1.000247887623127441e-01,1.565857198503970982e-01,7.654909263227847871e-02,3.569131460035947695e-06,-2.338984412889310097e-03,7.745669997367056296e-03,-1.308269382609697384e+00,1.065553505517345331e-02,1.205740032901704865e-03,-3.930643290203786333e-01
1.850000000000000000e+01,-1.660656029881156515e-01,3.950023909841035574e-01,1.000252261415529725e-01,1.607620827170877786e-01,6.686140088483800981e-02,3.296604737591431911e-06,-2.158202213666056760e-03,9.053867554757953282e-03,-1.357401062207944653e+00,1.014268047583820852e-02,8.796389884576913181e-04,-3.930658181863331824e-01
1.875000000000000000e+01,-1.457209382993251978e-01,4.026398395189378920e-01,1.000255665741414113e-01,1.645469327599274334e-01,5.545064343680607133e-02,2.007871054684179538e-06,-2.003690696328162477e-03,1.020779052837102012e-02,-1.406532597445334876e+00,8.314842326329245983e-03,1.146072877631635267e-04,-3.930618844707525206e-01
1.900000000000000000e+01,-1.249386124093021383e-01,4.087550955817279008e-01,1.000256771450596799e-01,1.677474398666495559e-01,4.261963233015966801e-02,-3.081975146147755621e-07,-1.823426289936382364e-03,1.105322299515312974e-02,-1.455662920882331512e+00,5.407969272411616152e-03,-1.071952694247789396e-03,-3.930538877785694218e-01
1.925000000000000000e+01,-1.038065805263202607e-01,4.131998393608640185e-01,1.000254532614006514e-01,1.701297218475259776e-01,2.884630304526033737e-02,-3.223312309666826887e-06,-1.565871613461410072e-03,1.147254401699137477e-02,-1.504791132155617994e+00,1.640357183927700600e-03,-2.322710730844772687e-03,-3.930444347502488056e-01
1.950000000000000000e+01,-8.244166923636889188e-02,4.158949662971409555e-01,1.000248637819891040e-01,1.714776208856536033e-01,1.474884651564074833e-02,-6.030412408446420257e-06,-1.216398704928804177e-03,1.138826631264704993e-02,-1.553917126186446618e+00,-2.674839368524097993e-03,-3.148284046671608744e-03,-3.930363125505808575e-01
1.975000000000000000e+01,-6.098235851475200531e-02,4.168450406741346370e-01,1.000239733087350952e-01,1.716700594341680763e-01,1.033883971406217381e-03,-7.943664190838780915e-06,-8.049445382623056410e-04,1.077259431213247083e-02,-1.603041738406246530e+00,-7.037679404712411831e-03,-3.170905424282658390e-03,-3.930314898540686053e-01
2.000000000000000000e+01,-3.957273940668455670e-02,4.161443895128507653e-01,1.000229368415203879e-01,1.707397650363050023e-01,-1.158548892384950006e-02,-8.341563109072272034e-06,-3.910665425668108960e-04,9.662522352950751736e-03,-1.652166326073204905e+00,-1.077572100417773654e-02,-2.289176534161246890e-03,-3.930305017790073907e-01
2.025000000000000000e+01,-1.834186367898501396e-02,4.139710959600281792e-01,1.000219616813805973e-01,1.688868900908410131e-01,-2.249821664785906991e-02,-7.036849377198353920e-06,-4.057013268582121244e-05,8.171172242892255771e-03,-1.701292094124424947e+00,-1.317835317786212983e-02,-7.136028117697676464e-04,-3.930323906056793493e-01
2.050000000000000000e+01,2.615218019979887419e-03,4.105668285176983789e-01,1.000212399790138401e-01,1.664407001796252561e-01,-3.130837643773442397e-02,-4.449041514558636566e-06,1.940504291118302709e-04,6.484046951683941108e-03,-1.750419588302875917e+00,-1.369943504960735407e-02,1.115724889503100312e-03,-3.930352449575260088e-01
2.075000000000000000e+01,2.324886016348412868e-02,4.062039648419382698e-01,1.000208764675647732e-01,1.637816144484922354e-01,-3.792079224269435944e-02,-1.491806025807099787e-06,2.838234575596984056e-04,4.834215111918374087e-03,-1.799548608170769226e+00,-1.214347067397684304e-02,2.680587944230730397e-03,-3.930371838084077973e-01
2.100000000000000000e+01,4.355521462397258375e-02,4.011454152544501883e-01,1.000208524343921268e-01,1.612480902119740322e-01,-4.257024896191533014e-02,8.664745876325860349e-07,2.247970234751300660e-04,3.459658680804505223e-03,-1.848678511364690857e+00,-8.757881243230430934e-03,3.546195615510374256e-03,-3.930373502247934692e-01
2.125000000000000000e+01,6.356550415960789124e-02,3.956052948656476609e-01,1.000210534685419261e-01,1.590557526622099760e-01,-4.578040371503259987e-02,2.118471849107905619e-06,3.434282705523755935e-05,2.554149900513841796e-03,-1.897808674652099459e+00,-4.192989749886009455e-03,3.483231402287440166e-03,-3.930363295310446148e-01
2.150000000000000000e+01,8.332721286804196936e-02,3.897190082203482731e-01,1.000213453286080550e-01,1.572506302510415788e-01,-4.825926267501369493e-02,2.426248759824498174e-06,-2.544711425512146850e-04,2.226241342139721399e-03,-1.946938834104378291e+00,6.571863599453831029e-04,2.520975983899653976e-03,-3.930356601881400680e-01
2.175000000000000000e+01,1.028822848809264195e-01,3.835291894089501996e-01,1.000216450074190855e-01,1.557072747549950731e-01,-5.075668659883571243e-02,2.357435382587629420e-06,-5.988610349969802600e-04,2.478278229777752372e-03,-1.996069132639299859e+00,4.878884548597340297e-03,9.252312434151312506e-04,-3.930367070905176341e-01
2.200000000000000000e+01,1.222479384242325662e-01,3.769899979006817725e-01,1.000219388713799035e-01,1.541696937780315246e-01,-5.391943523037274338e-02,2.374829402712416799e-06,-9.524677760362345409e-04,3.210544431867105950e-03,-2.045199888718449710e+00,7.755739303666719583e-03,-8.848338598006724081e-04,-3.930396562227821966e-01
2.225000000000000000e+01,1.414046967853724857e-01,3.699877895126589267e-01,1.000222438688527227e-01,1.523220104552274745e-01,-5.817811701246716066e-02,2.495082286623071037e-06,-1.271771785916971141e-03,4.247874167295156468e-03,-2.094331265085365601e+00,8.917325293261640917e-03,-2.453053122517956028e-03,-3.930433210874660355e-01
2.250000000000000000e+01,1.602941241847031517e-01,3.623725053736123192e-01,1.000225518525150459e-01,1.498692299402031580e-01,-6.368955066913525864e-02,2.357226475652426350e-06,-1.522353950727274412e-03,5.380157988954219726e-03,-2.143463063643520794e+00,8.385678459501515539e-03,-3.402777218345236047e-03,-3.930458554847859332e-01
2.275000000000000000e+01,1.788261857260101118e-01,3.539922008025330191e-01,1.000228045444730013e-01,1.466076137884448349e-01,-7.034187621742031549e-02,1.590216296152871307e-06,-1.683911027361148461e-03,6.405745808976468295e-03,-2.192594771388256092e+00,6.521228636676672762e-03,-3.524386524754908375e-03,-3.930458348131976032e-01
2.300000000000000000e+01,1.968938210172498093e-01,3.447232825578293580e-01,1.000229164642946755e-01,1.424684966929749552e-01,-7.781371737314586590e-02,1.577200835905558662e-07,-1.752765825551443274e-03,7.167853497949243542e-03,-2.241725806894341311e+00,3.897517249981365985e-03,-2.815414321042236222e-03,-3.930429865704958559e-01
2.325000000000000000e+01,2.143907806485151890e-01,3.344909139906473983e-01,1.000228247858014896e-01,1.375271978790937322e-01,-8.566723922531381541e-02,-1.570250613745870871e-06,-1.741114394875274826e-03,7.577486895656542452e-03,-2.290855794880962026e+00,1.147321672566643412e-03,-1.468451122134797893e-03,-3.930381901603950956e-01
2.350000000000000000e+01,2.312283113449657146e-01,3.232769434818192900e-01,1.000225286454907853e-01,1.319776543405395686e-01,-9.345026171081918798e-02,-3.029597029814616036e-06,-1.673164552667552769e-03,7.620541912225360995e-03,-2.339984705571624080e+00,-1.178373057952580372e-03,1.849792013487174219e-04,-3.930328918086927192e-01
2.375000000000000000e+01,2.473468826105171825e-01,3.111157506076259738e-01,1.000220930784972428e-01,1.260812406932723395e-01,-1.007845794616703677e-01,-3.774091967746792716e-06,-1.579193436268044913e-03,7.350439873813183547e-03,-2.389112807913315706e+00,-2.708647127416378888e-03,1.756775659477356755e-03,-3.930283947360820318e-01
2.400000000000000000e+01,2.627205628119050895e-01,2.980808547234288786e-01,1.000216193176672458e-01,1.201032178303987757e-01,-1.074245049451798273e-01,-3.677208453214599381e-06,-1.489027096510412264e-03,6.870144411244016175e-03,-2.438240505376410461e+00,-3.295313253924261193e-03,2.889740031172506433e-03,-3.930254327922230728e-01
2.425000000000000000e+01,2.773534613208556432e-01,2.842665519299916177e-01,1.000212028956471710e-01,1.142516647652288136e-01,-1.132787089015062365e-01,-2.929443942914005948e-06,-1.426405719535143004e-03,6.308417841709765446e-03,-2.487368170459497652e+00,-3.002894133460226687e-03,3.331432534569830732e-03,-3.930241506719699962e-01
2.450000000000000000e+01,2.912694192414421734e-01,2.697691359002775124e-01,1.000209032258375375e-01,1.086318676720578469e-01,-1.183971296295937975e-01,-1.879864599691148610e-06,-1.405257375410268877e-03,5.795053382061882662e-03,-2.536496058198876025e+00,-2.058853748253745668e-03,2.980936416302449980e-03,-3.930243425797965706e-01
2.475000000000000000e+01,3.044974935999712473e-01,2.546715811180831346e-01,1.000207363695844037e-01,1.032248117304306739e-01,-1.229313564009880400e-01,-8.466171693948090391e-07,-1.428293593928648634e-03,5.439107646455662755e-03,-2.585624306170434927e+00,-7.810978460242524101e-04,1.901208791952725989e-03,-3.930257057007885413e-01
2.500000000000000000e+01,3.170565005348021104e-01,2.390342399714132926e-01,1.000206872547574760e-01,9.789272051457263701e-02,-1.270806906483368526e-01,-5.625241297021413507e-09,-1.487783923475696855e-03,5.313167319039837667e-03,-2.634752974824736693e+00,4.995703678002559253e-04,2.970585725351207679e-04,-3.930279476157377827e-01
2.525000000000000000e+01,3.289418698709974387e-01,2.228924968445303301e-01,1.000207283573931044e-01,9.240877784860961064e-02,-1.310369003524048392e-01,6.063126779761478244e-07,-1.567995971074517434e-03,5.445365921290087376e-03,-2.683882074944615947e+00,1.506103542212882838e-03,-1.533228650969295590e-03,-3.930307427579390334e-01
2.550000000000000000e+01,3.401173901158714430e-01,2.062607914857187141e-01,1.000208324200734383e-01,8.650358108386448086e-02,-1.349388123686862950e-01,1.012543620517837075e-06,-1.648626485278271167e-03,5.819284066271981914e-03,-2.733011559273755609e+00,2.059411657267917750e-03,-3.258319294564779658e-03,-3.930336454004582647e-01
2.575000000000000000e+01,3.505133149438194873e-01,1.891412612224766532e-01,1.000209742702357352e-01,7.991856512975824278e-02,-1.388440911533928290e-01,1.213018444672051464e-06,-1.708555062388274074e-03,6.380250495948455551e-03,-2.782141293478428867e+00,2.095204019875306078e-03,-4.569878089105057842e-03,-3.930360762503772865e-01
2.600000000000000000e+01,3.600310779239881964e-01,1.715346280384610900e-01,1.000211250263505214e-01,7.245697518768258460e-02,-1.427209622418864898e-01,1.150001255011212176e-06,-1.729361865629845804e-03,7.045460067194587485e-03,-2.831271041329347149e+00,1.656465355826585188e-03,-5.222530044831186907e-03,-3.930374274306335791e-01
2.625000000000000000e+01,3.685538199877458343e-01,1.534508875913371817e-01,1.000212460229482625e-01,6.402527492165747958e-02,-1.464585406836762804e-01,7.342593558855059791e-07,-1.698208961845286240e-03,7.715301085884340368e-03,-2.880400492154875369e+00,8.704799304602621815e-04,-5.056290585811675821e-03,-3.930372447801009916e-01
2.650000000000000000e+01,3.759612264282021221e-01,1.349177143562835524e-01,1.000212888215886720e-01,5.466060887274080959e-02,-1.498917581562267676e-01,-9.012807934177667602e-08,-1.609846820323167314e-03,8.284486566479648539e-03,-2.929529334673358409e+00,-7.976012798803177564e-05,-4.010697556202923696e-03,-3.930354038760176527e-01
2.675000000000000000e+01,3.821467399002734799e-01,1.159850830617392831e-01,1.000212041024354376e-01,4.454147060081908166e-02,-1.528357749184897918e-01,-1.273898642401463484e-06,-1.467633921290569530e-03,8.653395226080915631e-03,-2.978657355835648612e+00,-9.847387370409978712e-04,-2.143048937858616984e-03,-3.930322029120301708e-01
2.700000000000000000e+01,3.870348621571282344e-01,9.672526798736373610e-02,1.000209583364412708e-01,3.397853383205461097e-02,-1.551244595317027575e-01,-2.614481591358241941e-06,-1.283519974601924447e-03,8.741187766374588011e-03,-3.027784526906616591e+00,-1.640111249010647691e-03,3.459555158102090022e-04,-3.930283222707792179e-01
2.725000000000000000e+01,3.905958284383687085e-01,7.722808752021854961e-02,1.000205530735014392e-01,2.338197768327297810e-02,-1.566469716589612149e-01,-3.766580203252073979e-06,-1.076944704065751048e-03,8.501527218054969956e-03,-3.076911035929061011e+00,-1.885651421724423085e-03,3.094201244390793609e-03,-3.930246324977372807e-01
2.750000000000000000e+01,3.928545449967897896e-01,5.759207754110052396e-02,1.000200372733530269e-01,1.320322639105079437e-02,-1.573753309652604071e-01,-4.343217711194126146e-06,-8.725946470533086936e-04,7.938862657028693259e-03,-3.126037239547012625e+00,-1.650355972381815309e-03,5.597895336020000320e-03,-3.930218897077472073e-01
2.775000000000000000e+01,3.938906713186055564e-01,3.791336088826907647e-02,1.000278944423450972e-01,3.854236880886936344e-03,-1.573719928478356789e-01,2.984911192753775239e-05,-6.995982658831906330e-04,7.119603910831949316e-03,3.107505094991700023e+00,-9.582388688987569098e-04,7.300382243785771309e-03,-3.874323240162895199e-01
2.800000000000000000e+01,3.938283429642902567e-01,1.827431448609382128e-02,1.000272190996873145e-01,-4.377102126937246207e-03,-1.567913723583371499e-01,-1.979488838081452359e-05,-5.779771634564812325e-04,6.169668368661626948e-03,3.058757712277990759e+00,-9.963475915992399943e-05,7.727293195170787179e-03,-3.915275225221471755e-01
2.825000000000000000e+01,3.928151303080160694e-01,-1.265031626084419780e-03,1.000246967153566452e-01,-1.140444640792498063e-02,-1.558216675018205821e-01,-1.850079751032391602e-05,-5.238299336230618514e-04,5.256149103062385773e-03,3.009731805395595927e+00,7.382752548543506646e-04,6.686536136982812982e-03,-3.926219300844507876e-01
2.850000000000000000e+01,3.909947552300087614e-01,-2.066800828536053194e-02,1.000227615183382351e-01,-1.736902402378084562e-02,-1.546432727497656090e-01,-1.270120677684157261e-05,-5.456641204563721570e-04,4.546251616002429038e-03,2.960631134196027414e+00,1.269397744630907298e-03,4.380950834489074838e-03,-3.929150389740414528e-01
2.875000000000000000e+01,3.884798870526097181e-01,-3.991738638549911788e-02,1.000214907979536105e-01,-2.260910266680580746e-02,-1.533807306265693449e-01,-8.046860148748458482e-06,-6.380704442588984622e-04,4.160900682775206527e-03,2.911510196851760490e+00,1.327304180200321315e-03,1.406754860573044977e-03,-3.929943426360217873e-01
2.900000000000000000e+01,3.853329338289960826e-01,-5.900591947078108468e-02,1.000207041704222755e-01,-2.756773327366443191e-02,-1.520693374703166456e-01,-4.865399894711531257e-06,-7.827434673965986620e-04,4.136072795169699369e-03,2.862383582425237272e+00,9.428408230088001270e-04,-1.412194861444039228e-03,-3.930168022186017462e-01
2.925000000000000000e+01,3.815609740236290959e-01,-7.792490772375290642e-02,1.000202375378349412e-01,-3.266610879662425887e-02,-1.506568917989536960e-01,-2.834335079008825233e-06,-9.528822453504570212e-04,4.410022552823115831e-03,2.813255212012224060e+00,3.365357699724197014e-04,-3.316668239475913972e-03,-3.930240834275636752e-01
2.950000000000000000e+01,3.771263746862663080e-01,-9.665528960140223891e-02,1.000199647255726049e-01,-3.818708412833436011e-02,-1.490396540105608236e-01,-1.705450838037388230e-06,-1.120041185593483512e-03,4.846461234882819616e-03,2.764126227591099827e+00,-1.913432396530004211e-04,-3.913931358927101416e-03,-3.930267633793363968e-01
