time_total,x,y,z,vx,vy,vz,roll,pitch,yaw,roll_rate,pitch_rate,yaw_rate
e-01,9.990749586754302247e-02,3.937223799925373274e-02,1.255239588114612226e-01,3.679539653240229929e-04,-5.000871742263271295e-04,4.840183421064940365e-03,-3.840592442161616105e-01,-1.558166865506653564e-02,-3.707521185991695650e-03,-2.734443713444600910e-01
2.500000000000000000e-01,-4.716895395806363633e-01,1.574141576016545030e-01,9.994578533835975220e-02,4.449558188416437299e-02,1.242960410214528216e-01,2.559392994249639936e-04,-2.288239648708350130e-03,3.298716536997138744e-03,-4.182435563857770378e-01,-1.788876946015608219e-02,-7.268447234269377263e-03,-2.733937518320643245e-01
5.000000000000000000e-01,-4.658533134200129044e-01,1.730086003883557766e-01,9.997255805382389282e-02,4.855628790953113449e-02,1.255214866719324973e-01,1.793743973263650811e-04,-3.478820171509758308e-03,1.673332237100970833e-03,-4.524193456483479037e-01,-9.584107268125674137e-03,-7.754375057808633731e-03,-2.733755123782724006e-01
7.500000000000000000e-01,-4.595814148581855441e-01,1.888592099281067860e-01,9.999123133105840278e-02,5.153692262186869433e-02,1.280962594817692812e-01,1.242044007221198123e-04,-3.552450049391721581e-03,7.088542645461171901e-04,-4.865916573543676016e-01,9.863266087862519217e-04,-5.194356441074589846e-03,-2.733813987128453360e-01
1.000000000000000000e+00,-4.529873008457809824e-01,2.050351321330096954e-01,1.000040952013938611e-01,5.382478850787444230e-02,1.304993202035543698e-01,8.541430511354358083e-05,-2.818873953084523581e-03,6.810322171764628292e-04,-5.207648646628153521e-01,8.015160816483419409e-03,-9.060547551844933857e-04,-2.733971855823229546e-01
1.250000000000000000e+00,-4.461194624030835332e-01,2.214389628211720640e-01,1.000130014858211513e-01,5.602522891048548198e-02,1.316694198560078854e-01,5.976903389564837627e-05,-1.903513355040357046e-03,1.422503779360915523e-03,-5.549396048149978222e-01,9.778077126283942974e-03,3.279206418424847076e-03,-2.734119650145832026e-01
1.500000000000000000e+00,-4.389501100685240242e-01,2.378889129885797538e-01,1.000193048798831280e-01,5.871388791348440550e-02,1.312947438317545179e-01,4.270294906762106752e-05,-1.292657995945149275e-03,2.526027206857449272e-03,-5.891155699560813863e-01,7.635309332805674358e-03,5.849265114504056604e-03,-2.734204996948326194e-01
1.750000000000000000e+00,-4.313929608658761405e-01,2.542048392828391012e-01,1.000238082670086293e-01,6.223315800554118232e-02,1.296420893123220730e-01,3.032461532418638563e-05,-1.137108102623837769e-03,3.574596075472722886e-03,-6.232928487078909230e-01,4.042798205193163900e-03,6.152963688457363176e-03,-2.734218319406176434e-01
2.000000000000000000e+00,-4.233394640859842739e-01,2.702585392569665235e-01,1.000269522267908384e-01,6.660433835906112710e-02,1.272101315138019217e-01,2.068048016985977739e-05,-1.305677485491425803e-03,4.293355473564073807e-03,-6.574710295510858282e-01,9.443965903120822179e-04,4.493714974386495316e-03,-2.734176027782895813e-01
2.250000000000000000e+00,-4.146974192325710296e-01,2.859829294280318845e-01,1.000290320021821749e-01,7.157044407745329073e-02,1.244451505022891868e-01,1.319357768689456413e-05,-1.560314289054055793e-03,4.593712187599200726e-03,-6.916489430598800059e-01,-8.529175492608226080e-04,1.833273585855825505e-03,-2.734108698926929204e-01
2.500000000000000000e+00,-4.054176418293807260e-01,3.013557844313623502e-01,1.000303107004698461e-01,7.673196531768973483e-02,1.216170817704664564e-01,7.789261273927248371e-06,-1.716411964400275719e-03,4.537693627959782025e-03,-7.258256064036208155e-01,-1.458803282414753311e-03,-6.925810859210409544e-04,-2.734047932267710257e-01
2.750000000000000000e+00,-3.955011858667145108e-01,3.163772999949802656e-01,1.000310430788970278e-01,8.170963132621114622e-02,1.188287985731866503e-01,4.346048932527170886e-06,-1.714066539604378091e-03,4.270498353060462986e-03,-7.600009429284289020e-01,-1.333870947780085555e-03,-2.218973159220720762e-03,-2.734013229179875770e-01
3.000000000000000000e+00,-3.849880212394551360e-01,3.310530835871883237e-01,1.000314517892965382e-01,8.627062278503251636e-02,1.160781208690235544e-01,2.471094494151693520e-06,-1.599684940878088419e-03,3.958086647920815507e-03,-7.941755746757929169e-01,-8.394398672837222533e-04,-2.403074153168247018e-03,-2.734007281800877598e-01
3.250000000000000000e+00,-3.739345387904587925e-01,3.453845203818177723e-01,1.000316965916105694e-01,9.038002333123926202e-02,1.133068631406972254e-01,1.593825277383096053e-06,-1.461789957264144051e-03,3.743981750111531875e-03,-8.283502135051726833e-01,-1.073271037729759954e-04,-1.441046179110225863e-03,-2.734021618018349087e-01
3.500000000000000000e+00,-3.623898794700798898e-01,3.593631357049610342e-01,1.000318679209437067e-01,9.417265532728386068e-02,1.104175143409382859e-01,1.210743989492495361e-06,-1.370153109137475355e-03,3.722349282670235539e-03,-8.625252913803683752e-01,8.258842682284597706e-04,9.486308119544049726e-05,-2.734045258050842864e-01
3.750000000000000000e+00,-3.503798038784613489e-01,3.729659017460369985e-01,1.000320053563263922e-01,9.786788196222492853e-02,1.072772699078306941e-01,1.006597214238979632e-06,-1.346686435618632462e-03,3.920023426577023615e-03,-8.967009264516231370e-01,1.810271009294217321e-03,1.502149901725115299e-03,-2.734069034891578598e-01
4.000000000000000000e+00,-3.379029345563646647e-01,3.861519539225058972e-01,1.000321175602479351e-01,1.016640227704753013e-01,1.037404622899769091e-01,7.750219981508088785e-07,-1.370317453191334089e-03,4.285609045448313635e-03,-9.308770032335540456e-01,2.479129840039641201e-03,2.186367892113270667e-03,-2.734085217008042634e-01
4.250000000000000000e+00,-3.249394766231407661e-01,3.988642786190149669e-01,1.000321875718374748e-01,1.056492983118737516e-01,9.970492027278186897e-02,3.020367363979306144e-07,-1.401191686068862510e-03,4.691151132215114899e-03,-9.650532349918575781e-01,2.328017446271248621e-03,1.832218397652995209e-03,-2.734086739836287250e-01
4.500000000000000000e+00,-3.114684602554827486e-01,4.110401299420806120e-01,1.000321722026498300e-01,1.097564316295633335e-01,9.519033787992454976e-02,-5.947421025111063960e-07,-1.406263860545463925e-03,4.953990549666128715e-03,-9.992292489080544238e-01,9.358081754750080007e-04,4.791861084441205888e-04,-2.734068907257821146e-01
4.750000000000000000e+00,-2.974871037096976645e-01,4.226309024296739936e-01,1.000320187419651563e-01,1.137728686085736074e-01,9.040499625723101562e-02,-1.851702786476905528e-06,-1.374620181660164350e-03,4.880964675579897369e-03,-1.033404734300194860e+00,-1.787967351068246637e-03,-1.503348705763036391e-03,-2.734032277695460089e-01
5.000000000000000000e+00,-2.830254700574403870e-01,4.336274828888613819e-01,1.000317088626921924e-01,1.174020910496943043e-01,8.576270888403195181e-02,-2.989070021664692470e-06,-1.319786036453148535e-03,4.327030836944308935e-03,-1.067579575610007270e+00,-5.454137147478509834e-03,-3.528746830259109433e-03,-2.733983408817738936e-01
5.250000000000000000e+00,-2.681511235733374798e-01,4.440830994941279974e-01,1.000313039606415683e-01,1.203571261660488084e-01,8.182634148523187934e-02,-3.286096108344652665e-06,-1.272573321466538218e-03,3.251510166984840442e-03,-1.101753850576132843e+00,-9.219708786611126999e-03,-4.963678199071950778e-03,-2.733931996494420313e-01
5.500000000000000000e+00,-2.529615125714829715e-01,4.541243698197206524e-01,1.000309418078933615e-01,1.224582278310512029e-01,7.918071575548017715e-02,-2.339703651039406119e-06,-1.270003350463943040e-03,1.752517889153683717e-03,-1.135927684260116921e+00,-1.198981460403167852e-02,-5.311997602978665856e-03,-2.733886841186304872e-01
5.750000000000000000e+00,-2.375654915079462581e-01,4.639434081414126609e-01,1.000307595278091821e-01,1.237052281281749294e-01,7.826487406915827449e-02,-5.850285606354296736e-07,-1.344645606172897899e-03,6.540658716556027651e-05,-1.170101102022254036e+00,-1.272922240719480749e-02,-4.361256476192830814e-03,-2.733855052152618370e-01
6.000000000000000000e+00,-2.220587206979767192e-01,4.737688687459469250e-01,1.000307868210773971e-01,1.243019520582604454e-01,7.921112682877527733e-02,8.061455382088940109e-07,-1.516499575994619767e-03,-1.477967157681315440e-03,-1.204274062439163018e+00,-1.078043675445907595e-02,-2.249548490219909890e-03,-2.733846110799101892e-01
6.250000000000000000e+00,-2.064996843587016129e-01,4.838200235065523436e-01,1.000309030731537097e-01,1.246236516731701188e-01,8.174017801311313225e-02,7.784070955160603724e-07,-1.787935630816980294e-03,-2.520081425121631011e-03,-1.238446717082537507e+00,-6.088202719355069459e-03,5.670872972314095969e-04,-2.733876461233548660e-01
6.500000000000000000e+00,-1.908931473926467337e-01,4.942533967405071671e-01,1.000309193474126224e-01,1.251347410395138027e-01,8.514800420039370099e-02,-6.179947619714111619e-07,-2.141673726891339408e-03,-2.760586303447750203e-03,-1.272619722770367501e+00,7.345545027666935132e-04,3.436614505877508448e-03,-2.733966984482698037e-01
6.750000000000000000e+00,-1.751859978687770880e-01,5.051144586366592693e-01,1.000307421826015369e-01,1.262783005107610546e-01,8.839614286161852352e-02,-2.012743148538836668e-06,-2.541899699621752700e-03,-2.030058721870913688e-03,-1.306794296768664987e+00,8.512446310320718676e-03,5.685506025290567277e-03,-2.734129834913791024e-01
7.000000000000000000e+00,-1.592771494951180367e-01,5.163066002691308887e-01,1.000304890177276945e-01,1.283666790068253016e-01,9.029041773253733416e-02,-1.647549877957551566e-06,-2.938717916840508006e-03,-3.370067103387564488e-04,-1.340971801809186292e+00,1.574910042691809314e-02,6.795157940265852611e-03,-2.734350838233468584e-01
7.250000000000000000e+00,-1.430394556412071527e-01,5.275862598995187946e-01,1.000304408514223614e-01,1.315020315456282840e-01,8.971148991353071478e-02,1.139845187518817411e-06,-3.275790150636728130e-03,2.121808214115189755e-03,-1.375152964905614894e+00,2.093915133661724409e-02,6.532686466983591775e-03,-2.734580899232690876e-01
7.500000000000000000e+00,-1.263484411701671917e-01,5.385876180344328912e-01,1.000308362205641344e-01,1.355474570932778955e-01,8.584885041799143746e-02,5.032691557471239877e-06,-3.500238492603796863e-03,4.988881426419818424e-03,-1.409337168228100845e+00,2.288116125984911153e-02,5.005130951739396490e-03,-2.734747285570559572e-01
7.750000000000000000e+00,-1.091108878108889430e-01,5.488740711961184182e-01,1.000316422063147748e-01,1.401563117348304521e-01,7.838909310261386876e-02,7.266345387561713071e-06,-3.573061609531286761e-03,7.805292870447178878e-03,-1.443522331682756121e+00,2.093418002986888182e-02,2.627840406983555140e-03,-2.734783487473253505e-01
8.000000000000000000e+00,-9.128629757977003989e-02,5.580080183116981063e-01,1.000324789276364340e-01,1.448528577694465913e-01,6.761787154127142652e-02,5.389321404955201110e-06,-3.477858223417254219e-03,1.009114104443436730e-02,-1.477705614104874554e+00,1.517628898722720061e-02,1.774694922890289364e-05,-2.734662725495869418e-01
8.250000000000000000e+00,-7.289595183135325063e-02,5.656263540673545087e-01,1.000327856966723855e-01,1.491449793147823222e-01,5.441032636912693232e-02,-8.687424269406076363e-07,-3.225802644482079085e-03,1.143359121950578497e-02,-1.511884645217716150e+00,6.436384424851337993e-03,-2.162571453172542745e-03,-2.734415003284110801e-01
8.500000000000000000e+00,-5.401726202554842787e-02,5.715071632737572793e-01,1.000321528097084384e-01,1.526417498387284688e-01,4.010470929832508913e-02,-8.964322096790216078e-06,-2.855528870514221010e-03,1.156756234142857984e-02,-1.546058607279478192e+00,-3.815747891999043614e-03,-3.374088312866275335e-03,-2.734115543905014656e-01
8.750000000000000000e+00,-3.476469903500689629e-02,5.756138756571845816e-01,1.000306121521081920e-01,1.551467731756383528e-01,2.627613346906526245e-02,-1.477664789063451236e-05,-2.427628411328755162e-03,1.043407595200652842e-02,-1.580228512181626854e+00,-1.371543578788063898e-02,-3.343668899882766988e-03,-2.733849529833216052e-01
9.000000000000000000e+00,-1.526197908168793957e-02,5.781066614765477674e-01,1.000286794266535551e-01,1.567030662115202755e-01,1.444865924965226499e-02,-1.509669504601524304e-05,-2.014593008698925547e-03,8.203598102326969260e-03,-1.614396496117674218e+00,-2.135126401190540549e-02,-2.142909392107832014e-03,-2.733673567594365195e-01
9.250000000000000000e+00,4.387440225804677303e-03,5.793167374570715733e-01,1.000270888663620933e-01,1.575762433200706691e-01,5.799919506121093554e-03,-9.768689631571214811e-06,-1.688002287021900466e-03,5.256929402506454845e-03,-1.648564588321347557e+00,-2.515246669578108732e-02,-1.794495404032443253e-04,-2.733597262366666003e-01
9.500000000000000000e+00,2.412379286290040545e-02,5.796865469843667240e-01,1.000263712314114900e-01,1.581778493321533141e-01,9.186164661499639271e-04,-1.932333938111076708e-06,-1.505361423698458028e-03,2.123976590335713548e-03,-1.682733766041995871e+00,-2.423385945171799630e-02,1.902490024073780683e-03,-2.733595354136117428e-01
9.750000000000000000e+00,4.394186486906676709e-02,5.796860242775989658e-01,1.000265516774346414e-01,1.589463766029137193e-01,-3.315286993717620964e-04,3.980160081488620229e-06,-1.499098029883004632e-03,-6.103882498880727021e-04,-1.716903908780859078e+00,-1.861666868232440125e-02,3.391245020234836139e-03,-2.733639839805619975e-01
1.000000000000000000e+01,6.388581302043344623e-02,5.797207094735425947e-01,1.000271810752448171e-01,1.602156068533672761e-01,1.192680002203357504e-03,5.221755785508260999e-06,-1.669831255524656432e-03,-2.416269518073446091e-03,-1.751074617420418589e+00,-9.264639860429212115e-03,3.704444322144642004e-03,-2.733727004299980057e-01
1.025000000000000000e+01,8.402858309987769336e-02,5.800499461554927683e-01,1.000276878238197803e-01,1.621048221353808549e-01,4.064111601266457222e-03,2.576424485011865451e-06,-1.985257952899958413e-03,-2.922447680436644855e-03,-1.785246214192909298e+00,2.086911923901468673e-03,2.560294162660017251e-03,-2.733877649552787781e-01
1.050000000000000000e+01,1.044407133975401997e-01,5.807319727452087132e-01,1.000278021584096594e-01,1.644612379773188471e-01,6.554411449036317248e-03,-3.425488646892439064e-07,-2.385024571073933279e-03,-1.991390770695014752e-03,-1.819420070547911106e+00,1.328286955288416823e-02,7.366826345922990974e-05,-2.734109109342981458e-01
1.075000000000000000e+01,1.251563573456612455e-01,5.816074788124245831e-01,1.000277409069919299e-01,1.668722631249438815e-01,6.967273203589383589e-03,8.548902609510105470e-08,-2.790899322796562380e-03,2.518950034376477628e-04,-1.853597883814543712e+00,2.220560120980291652e-02,-3.254264891009460425e-03,-2.734400693079049871e-01
1.100000000000000000e+01,1.461454180733945674e-01,5.823251506316475812e-01,1.000280103438398183e-01,1.687470048556853897e-01,3.964907255661241463e-03,4.614288504484970230e-06,-3.120537736486586177e-03,3.444664721343628552e-03,-1.887780327930712376e+00,2.722750357437395477e-02,-6.654239302671036832e-03,-2.734681993416627765e-01
1.125000000000000000e+01,1.672993905393280745e-01,5.824037218943106664e-01,1.000289699739454058e-01,1.694478757644661826e-01,-3.182391744425021318e-03,1.037863022854846739e-05,-3.302308810868500710e-03,7.059526727298662263e-03,-1.921966046391348160e+00,2.754319219123222903e-02,-9.283460600882189814e-03,-2.734858387603738006e-01
1.150000000000000000e+01,1.884351671573288034e-01,5.813173285364896525e-01,1.000304824215446919e-01,1.684397228621494769e-01,-1.447482895095530096e-02,1.284714450625626609e-05,-3.288264016109428405e-03,1.050844694554317962e-02,-1.956151803000360623e+00,2.329724630671235405e-02,-1.044061938967612464e-02,-2.734860414666485662e-01
1.175000000000000000e+01,2.093166093271673356e-01,5.785865239033595175e-01,1.000319108956392311e-01,1.654196776327162555e-01,-2.920927488074032824e-02,9.018945408680057054e-06,-3.062608507645710708e-03,1.325298625097142032e-02,-1.990333838756567220e+00,1.548350393610210124e-02,-9.739003522100601884e-03,-2.734684765208112434e-01
1.200000000000000000e+01,2.296893811417717590e-01,5.738571840260866530e-01,1.000324689987707322e-01,1.603970566970660538e-01,-4.613709673634800584e-02,-4.580106661003056320e-07,-2.643995127821010833e-03,1.489595628329657730e-02,-2.024509658009963964e+00,5.659732407627500982e-03,-7.190746273111101906e-03,-2.734399307719525551e-01
1.225000000000000000e+01,2.493215597431977515e-01,5.669534792283875690e-01,1.000316810770489478e-01,1.537067751704884466e-01,-6.370929272873042393e-02,-1.163666477062551161e-05,-2.081369404749730274e-03,1.523664674249900278e-02,-2.058679182837542143e+00,-4.428144526178665052e-03,-3.186814603373981473e-03,-2.734109047502363277e-01
1.250000000000000000e+01,2.680415769027565953e-01,5.578977116474054254e-01,1.000296550715151500e-01,1.459569109589150537e-01,-8.035054226200244454e-02,-1.963609218018978444e-05,-1.444553724238541430e-03,1.428310893457445004e-02,-2.092844645295583117e+00,-1.320415565289139760e-02,1.608827532942494346e-03,-2.733905114424975413e-01
1.275000000000000000e+01,2.857661307673466933e-01,5.468971223664353953e-01,1.000270202802922281e-01,1.379258598044936779e-01,-9.470619661663849664e-02,-2.130918925877319268e-05,-8.118679295312289769e-04,1.222634009030662550e-02,-2.127009379192889238e+00,-1.951964463450082954e-02,6.411032349119513349e-03,-2.733826853337408269e-01
1.300000000000000000e+01,3.025132767084171559e-01,5.343038861715438959e-01,1.000246035418354690e-01,1.304333106083543636e-01,-1.058214532847057687e-01,-1.661247006023406654e-05,-2.575372900391490675e-04,9.388716113754566606e-03,-2.161176266564009296e+00,-2.277458790493191651e-02,1.046860875192320850e-02,-2.733854987938759140e-01
1.325000000000000000e+01,3.183991252181268550e-01,5.205582670285012759e-01,1.000230520686480190e-01,1.242111648295741166e-01,-1.132330367253480269e-01,-8.171765268839346181e-06,1.586740590283993346e-04,6.161137685272041926e-03,-2.195346655591313478e+00,-2.291357409377446988e-02,1.319127194234769734e-02,-2.733933441389798658e-01
1.350000000000000000e+01,3.336196497548089557e-01,5.061260354810287465e-01,1.000225982596915780e-01,1.197968555768432614e-01,-1.169736918531993075e-01,3.520943129661067707e-07,3.980801057592120266e-04,2.941151705874961268e-03,-2.229520170941035051e+00,-2.033415654527543845e-02,1.423256871959871668e-02,-2.734003121615571352e-01
1.375000000000000000e+01,3.484214904493367349e-01,4.914402098527635432e-01,1.000230484365225853e-01,1.174646334108891133e-01,-1.175042124196715582e-01,6.031495810013457261e-06,4.455347384184607973e-04,8.021461575926507081e-05,-2.263695314745318932e+00,-1.574981088928150905e-02,1.352540233428916293e-02,-2.734029145182629295e-01
1.400000000000000000e+01,3.630670749006316145e-01,4.768547791922040369e-01,1.000239527188949984e-01,1.172024432122701215e-01,-1.155954329954744786e-01,7.726651689656479808e-06,3.082409263512058567e-04,-2.155458582492021050e-03,-2.297870412978237464e+00,-1.003917304454145405e-02,1.127267264471716601e-02,-2.734010662384494528e-01
1.425000000000000000e+01,3.777998251530750307e-01,4.626150654348992752e-01,1.000248414039423966e-01,1.187342778187847198e-01,-1.121849751410863016e-01,6.127142550937828676e-06,1.189127266411094852e-05,-3.608253619411839596e-03,-2.332044413353663082e+00,-4.099737934809511916e-03,7.896852693278383697e-03,-2.733972925770383755e-01
1.450000000000000000e+01,3.928147396108673250e-01,4.488463170662230772e-01,1.000254109576777795e-01,1.215808008268129126e-01,-1.082326290855499668e-01,3.000101284382677074e-06,-4.047895304895898815e-04,-4.235596398281167921e-03,-2.366217223868733566e+00,1.282922183275425143e-03,3.954127188822935575e-03,-2.733949119390818860e-01
1.475000000000000000e+01,4.082383303771408012e-01,4.355593114708964930e-01,1.000255920568094287e-01,1.251449364440282708e-01,-1.045953316484249385e-01,1.594992594043470105e-07,-8.961593004200351991e-04,-4.099394068691183078e-03,-2.400389552874307331e+00,5.538657750634306230e-03,2.460202599373437909e-05,-2.733962342169968807e-01
1.500000000000000000e+01,4.241199359227447729e-01,4.226694130420665663e-01,1.000255002386634950e-01,1.288049249151789755e-01,-1.019378731170321600e-01,-1.314663541086506921e-06,-1.415654093211921819e-03,-3.340399532011525518e-03,-2.434562436326361379e+00,8.373718573049138136e-03,-3.400525663972123972e-03,-2.734016015909410680e-01
1.525000000000000000e+01,4.404341425792752673e-01,4.100239506808443513e-01,1.000253231324924469e-01,1.319964688413402809e-01,-1.006883873697269061e-01,-1.306094469472954640e-06,-1.921004383817040027e-03,-2.142448818934823522e-03,-2.468736731510613236e+00,9.775280957195127754e-03,-6.006419566091951781e-03,-2.734095512297310959e-01
1.550000000000000000e+01,4.570919365762650122e-01,3.974322139283111843e-01,1.000252141984449422e-01,1.342692245773016990e-01,-1.010386793314644177e-01,-3.786078232287902340e-07,-2.378102894553208845e-03,-6.944801810096183506e-04,-2.502912803969597366e+00,9.956590235779704326e-03,-7.690096662200981113e-03,-2.734177813499495957e-01
1.575000000000000000e+01,4.739568384924735533e-01,3.846929657692919058e-01,1.000252397432990631e-01,1.353107864250333858e-01,-1.029802427359819972e-01,7.258180454632382152e-07,-2.763113143437108746e-03,8.406164300913286300e-04,-2.537090488300063118e+00,9.258035679309885649e-03,-8.532302097610475547e-03,-2.734242611143156143e-01
1.600000000000000000e+01,4.908620523088713106e-01,3.716159844223080877e-01,1.000253843662888414e-01,1.349412307844988779e-01,-1.063601671632753154e-01,1.478777120289522789e-06,-3.062699549651432766e-03,2.343152466092829952e-03,-2.571269255339061477e+00,8.035479855726473941e-03,-8.717178578965506519e-03,-2.734278980714503482e-01
1.625000000000000000e+01,5.076256223431167003e-01,3.580362921739917992e-01,1.000255883839462068e-01,1.330896935356498390e-01,-1.109393973798684097e-01,1.686792559710755825e-06,-3.272659499172257160e-03,3.737228869505248175e-03,-2.605448444962048082e+00,6.571441914954947658e-03,-8.431555191305697278e-03,-2.734285586833226644e-01
1.650000000000000000e+01,5.240623240032258323e-01,3.438217316319332473e-01,1.000257848516895587e-01,1.297681352691700540e-01,-1.164395566134737714e-01,1.392371794796409139e-06,-3.395615899659500374e-03,4.977778157854995979e-03,-2.639627444147304214e+00,5.034309959936123478e-03,-7.783442483903775348e-03,-2.734266437214377121e-01
1.675000000000000000e+01,5.399928162060776415e-01,3.288758099872807206e-01,1.000259183178128231e-01,1.250550556482618869e-01,-1.225721057057733848e-01,7.098140597761109131e-07,-3.438619324871544994e-03,6.031464972203402254e-03,-2.673805765058427486e+00,3.490903286920343448e-03,-6.771426297004668783e-03,-2.734226082594389262e-01
1.700000000000000000e+01,5.552517391538204228e-01,3.131379663541395408e-01,1.000259463331907989e-01,1.190945014310976491e-01,-1.290518744300014065e-01,-2.734381321000222484e-07,-3.411405130764351770e-03,6.860488514268686319e-03,-2.707983049453961399e+00,1.957482220610970870e-03,-5.316999990732785945e-03,-2.734167350147846953e-01
1.725000000000000000e+01,5.696964976497784772e-01,2.965827475536845781e-01,1.000258357663896119e-01,1.121061965484940609e-01,-1.356028326037992393e-01,-1.485065785680312570e-06,-3.325671022796557706e-03,7.416806539536167225e-03,-2.742159055835152071e+00,4.616151709309895953e-04,-3.348220160168773052e-03,-2.734092356903404797e-01
1.750000000000000000e+01,5.832173995674946321e-01,2.792182502276173151e-01,1.000255659879291381e-01,1.043946563364274854e-01,-1.419654256536734549e-01,-2.784093935798912871e-06,-3.195225626442846269e-03,7.650244241623515955e-03,-2.776333669945335814e+00,-9.143603061560623283e-04,-9.025935054207265750e-04,-2.734005297889359754e-01
1.775000000000000000e+01,5.957480330147513214e-01,2.610831793952665958e-01,1.000251423376727344e-01,9.634195839221959545e-02,-1.479116971127013846e-01,-3.896978180627045959e-06,-3.036413735076152250e-03,7.528552153481184346e-03,-2.810506938118488840e+00,-2.028574994919202582e-03,1.794248274143966666e-03,-2.733914512345561598e-01
1.800000000000000000e+01,6.072729989978105092e-01,2.422414740000606304e-01,1.000246109963818242e-01,8.837226036641646076e-02,-1.532682647779160245e-01,-4.467036681678504030e-06,-2.868030762511653790e-03,7.062348530654736709e-03,-2.844679088360565711e+00,-2.717338422837093162e-03,4.314725960853178430e-03,-2.733832027714500623e-01
1.825000000000000000e+01,6.178291976656379303e-01,2.227738757868539532e-01,1.000240587810807963e-01,8.088583962146451978e-02,-1.579406749739330484e-01,-4.234323914408573526e-06,-2.710085718791546347e-03,6.324680076104171635e-03,-2.878850503116024306e+00,-2.860759021510593265e-03,6.102791804417757003e-03,-2.733770665869700855e-01
1.850000000000000000e+01,6.274974258224770285e-01,2.027669266930779979e-01,1.000235875358227999e-01,7.417362634858291892e-02,-1.619286393227897802e-01,-3.232797576589825766e-06,-2.581219957991703375e-03,5.455086371216015875e-03,-2.913021643411172423e+00,-2.447895836759516556e-03,6.625662981104939522e-03,-2.733740530435265770e-01
1.875000000000000000e+01,6.363832274866684235e-01,1.823012069004683600e-01,1.000232729123938513e-01,6.833514672950678770e-02,-1.653222577696665252e-01,-1.820253786524176208e-06,-2.495185200116054828e-03,4.642108644051406649e-03,-2.947192965495480710e+00,-1.610355396536455094e-03,5.561028080950929965e-03,-2.733746838394293666e-01
1.900000000000000000e+01,6.445892506841718328e-01,1.614415521259467412e-01,1.000231357564251161e-01,6.322831589662786245e-02,-1.682748444105807151e-01,-4.597238663652446151e-07,-2.457315221491005938e-03,4.085211315646507246e-03,-2.981364873751540578e+00,-6.037994687144659185e-04,2.954152837595889168e-03,-2.733789422711805916e-01
1.925000000000000000e+01,6.521847453184551613e-01,1.402319980206479799e-01,1.000231496531979319e-01,5.847510922764704439e-02,-1.709565661902564537e-01,5.926059257486500162e-07,-2.462185589606489481e-03,3.944901234122770439e-03,-3.015537705753035258e+00,2.624848397713168868e-04,-7.204385195652730778e-04,-2.733862496042170354e-01
1.950000000000000000e+01,6.591800018012137219e-01,1.186971154644437809e-01,1.000232772829870581e-01,5.353276469017873712e-02,-1.735013809030871990e-01,1.396629274336975958e-06,-2.493520076777736884e-03,4.295445762138712549e-03,-3.049711693552271896e+00,7.252287620451269411e-04,-4.630645800826909200e-03,-2.733953545855544176e-01
1.975000000000000000e+01,6.655134564955862420e-01,9.684950256670067648e-02,1.000234979218105474e-01,4.781989741580157383e-02,-1.759641082859975669e-01,2.093703980602533498e-06,-2.526870126451444439e-03,5.095628200166313695e-03,-3.083886857511795476e+00,6.590292687092555793e-04,-7.784749608472469121e-03,-2.734042650958527498e-01
2.000000000000000000e+01,6.710565652125006775e-01,7.470114312756069574e-02,1.000237934298558173e-01,4.086757889058602322e-02,-1.783026701622109356e-01,2.544685079792731512e-06,-2.534797875206812930e-03,6.188664522314561364e-03,-3.118062876870389744e+00,1.238977991250828753e-04,-9.301669589934471322e-03,-2.734105386064189513e-01
2.025000000000000000e+01,6.756369161904272058e-01,5.227491518919166053e-02,1.000296164036030278e-01,3.245292239813014207e-02,-1.803916442937337772e-01,1.105676213276971241e-04,-2.494527496254063739e-03,7.333971431776418332e-03,3.130108153879780364e+00,-6.084681817330655834e-04,-8.660485037894169458e-03,-2.646177738913167432e-01
2.050000000000000000e+01,6.790750090503434588e-01,2.961261036149400241e-02,1.000331317091677219e-01,2.268333027159251739e-02,-1.820690977593918680e-01,-9.381318754522861923e-06,-2.393196298151547066e-03,8.261636545324446343e-03,3.096547456029542289e+00,-1.349334280510897056e-03,-5.898512067764292294e-03,-2.709862193765373850e-01
2.075000000000000000e+01,6.812261870460409874e-01,6.774842585189852842e-03,1.000309813947326959e-01,1.198824075377110006e-02,-1.831966451557600628e-01,-1.993010702689077527e-05,-2.224844972922536065e-03,8.742558983885496612e-03,3.062537733157120190e+00,-1.694545097581130234e-03,-1.565338696145066825e-03,-2.727534597090152668e-01
2.100000000000000000e+01,6.820161536065498797e-01,-1.616372196805189454e-02,1.000285490512051872e-01,1.036917657846504314e-03,-1.836989619425002107e-01,-1.863573617602459707e-05,-2.008351948475649382e-03,8.639052055787202478e-03,3.028409148065873246e+00,-1.475250646542381697e-03,3.392108323781471268e-03,-2.732173773566953234e-01
2.125000000000000000e+01,6.814621485905055787e-01,-3.912601473241523325e-02,1.000263652446303914e-01,-9.405945277607918181e-03,-1.836113618127292457e-01,-1.629056723369501380e-05,-1.773819711101782756e-03,7.939615187431456333e-03,2.994249670828533993e+00,-7.136339269191623860e-04,7.868847688217864636e-03,-2.733349584540073485e-01
2.150000000000000000e+01,6.796739711570300990e-01,-6.204649067812181146e-02,1.000245197230815730e-01,-1.864957241901692500e-02,-1.830758915610901372e-01,-1.318932467348690091e-05,-1.556723156575557515e-03,6.761389462711249985e-03,2.960082196486915507e+00,3.842686726006401695e-04,1.088127345258534454e-02,-2.733627576425211592e-01
2.175000000000000000e+01,6.768345780952332857e-01,-8.488245002334540712e-02,1.000231160319242363e-01,-2.622831490513107336e-02,-1.823053862436100347e-01,-9.311850233000974026e-06,-1.390620844263510411e-03,5.322850633546563799e-03,2.925912361072906087e+00,1.490820938001452241e-03,1.179306207892496204e-02,-2.733692229928415540e-01
2.200000000000000000e+01,6.731649326430853009e-01,-1.076192726400519856e-01,1.000222107020793533e-01,-3.199948168598192033e-02,-1.815250961751130876e-01,-5.376951021900991097e-06,-1.300261610642599024e-03,3.895445450771159966e-03,2.891741449534116715e+00,2.253378369736057634e-03,1.044042569005642143e-02,-2.733719795536820873e-01
2.225000000000000000e+01,6.688812314114831459e-01,-1.302677776165474532e-01,1.000217501875866055e-01,-3.616815019070555859e-02,-1.809082604350334689e-01,-2.292550176473026371e-06,-1.296558791756738903e-03,2.746701048555509270e-03,2.857569777826791224e+00,2.394971925100756061e-03,7.138229199314125376e-03,-2.733751781374709200e-01
2.250000000000000000e+01,6.641539018441234843e-01,-1.528541042722637855e-01,1.000215939274368693e-01,-3.923781868597671363e-02,-1.805232495932605208e-01,-4.736807936482463931e-07,-1.374417619135725500e-03,2.087752365597141547e-03,2.823397419973478151e+00,1.791144609919871709e-03,2.579419050534116718e-03,-2.733797731874769710e-01
2.275000000000000000e+01,6.590767871143667911e-01,-1.754045196088688807e-01,1.000215964267555241e-01,-4.190243591883203306e-02,-1.803061946412240213e-01,3.776075110648067837e-07,-1.513757409239206448e-03,2.035726304972010608e-03,2.789224282653278930e+00,5.041988002619575849e-04,-2.336837618045089961e-03,-2.733860089759610479e-01
2.300000000000000000e+01,6.536521994137092229e-01,-1.979288631713593816e-01,1.000216793854415559e-01,-4.490654982787085914e-02,-1.800659285080179750e-01,9.364854185094161945e-07,-1.683389228250031051e-03,2.596989360974471736e-03,2.755050167787557847e+00,-1.230746063814500786e-03,-6.701507934088508575e-03,-2.733935637085067039e-01
2.325000000000000000e+01,6.477938479495121138e-01,-2.204066604367230786e-01,1.000218420075248971e-01,-4.890424422936354848e-02,-1.795198118889727856e-01,1.684332834859989380e-06,-1.846847634199069764e-03,3.672217479659776931e-03,2.720874961917518764e+00,-3.060637169415182136e-03,-9.771416575481887620e-03,-2.734012970840652978e-01
2.350000000000000000e+01,6.413459508895472672e-01,-2.427792708959627399e-01,1.000221091663271167e-01,-5.434438704794118669e-02,-1.783518060986453713e-01,2.542968689325695466e-06,-1.968949742815972580e-03,5.079822791302542918e-03,2.686698852627607881e+00,-4.593996901250965714e-03,-1.109117658173678668e-02,-2.734074108989210661e-01
2.375000000000000000e+01,6.341139010050587110e-01,-2.649500300661617458e-01,1.000224617515082237e-01,-6.140131306639314696e-02,-1.762796003501279074e-01,2.952591563442882932e-06,-2.021813453144252933e-03,6.591330980712643318e-03,2.652522409625716726e+00,-5.485090445031422061e-03,-1.054528679371525071e-02,-2.734101323989929777e-01
2.400000000000000000e+01,6.259001622190970560e-01,-2.867925827208934741e-01,1.000228019284527953e-01,-6.995906336362828215e-02,-1.731164049268837102e-01,2.300621893432044561e-06,-1.989285983672851865e-03,7.971103743554228821e-03,2.618346447788483911e+00,-5.503974773075299975e-03,-8.340810686066534030e-03,-2.734085505958822049e-01
2.425000000000000000e+01,6.165387805143927036e-01,-3.081659063479679217e-01,1.000229781001297225e-01,-7.964631864331432609e-02,-1.688150481557461335e-01,3.883600469865545992e-07,-1.869137647577365745e-03,9.013098614775868003e-03,2.584171729183868838e+00,-4.578306606416156742e-03,-4.933619765792734979e-03,-2.734031026816123866e-01
2.450000000000000000e+01,6.059228565608283379e-01,-3.289332483924838346e-01,1.000228535374321909e-01,-8.991024602067328175e-02,-1.634865009569546890e-01,-2.365520808786609576e-06,-1.672857516492388822e-03,9.568841869609689618e-03,2.549998660546498375e+00,-2.800441358459726613e-03,-9.202386215906556638e-04,-2.733954243640750459e-01
2.475000000000000000e+01,5.940211912881369072e-01,-3.489815791052854332e-01,1.000223765506197265e-01,-1.001120708814987742e-01,-1.573906421837687752e-01,-5.088010634386696442e-06,-1.423336373246276206e-03,9.563265895730583069e-03,2.515827142747127709e+00,-4.031154160946180762e-04,3.077387447766906023e-03,-2.733876576981810747e-01
2.500000000000000000e+01,5.808825823035237423e-01,-3.682382442549729240e-01,1.000216125218237606e-01,-1.096260653034393934e-01,-1.509023985820145131e-01,-6.855506822646858119e-06,-1.151047879828515910e-03,8.998152259012145646e-03,2.481656640057310348e+00,2.284271927074196101e-03,6.508063043489200651e-03,-2.733815980816505786e-01
2.525000000000000000e+01,5.666283851037128283e-01,-3.866821461467093712e-01,1.000207228431045509e-01,-1.179265700441863018e-01,-1.444599384527062436e-01,-7.099230505002755136e-06,-8.894898238575177233e-04,7.945691797162385966e-03,2.447486421387088384e+00,4.883969553009890642e-03,8.952463009582823164e-03,-2.733780995096866673e-01
2.550000000000000000e+01,5.514355399183750173e-01,-4.043477189082989032e-01,1.000199041760146956e-01,-1.246530910771025263e-01,-1.385028355598083294e-01,-5.818990539441654187e-06,-6.706191386906612886e-04,6.535972255329099145e-03,2.413315849393708579e+00,7.013225132808533803e-03,1.014905337015627879e-02,-2.733769681882355918e-01
2.575000000000000000e+01,5.355131402099240212e-01,-4.213209386596595274e-01,1.000193173872448993e-01,-1.296490614746495518e-01,-1.334077389925071022e-01,-3.544087192497373298e-06,-5.208505348617269593e-04,4.941441435681241494e-03,2.379144587022442803e+00,8.323527112574828635e-03,9.998365296223813217e-03,-2.733773141403406659e-01
2.600000000000000000e+01,5.190759087102506664e-01,-4.377275121870102259e-01,1.000190352654508064e-01,-1.329735033067287742e-01,-1.294285845379495037e-01,-1.093187761679909470e-06,-4.579702151389265113e-04,3.359197769080856256e-03,2.344972642627697113e+00,8.543751235865355495e-03,8.561644492273414939e-03,-2.733781453681054519e-01
2.625000000000000000e+01,5.023179369094308289e-01,-4.537142866534988883e-01,1.000190277863033383e-01,-1.348861670422963344e-01,-1.266488576455140069e-01,7.640785971487267991e-07,-4.891309708321126730e-04,1.990190838236664730e-03,2.310800251313663622e+00,7.531243266631410492e-03,6.058871946433909937e-03,-2.733789253142343556e-01
2.650000000000000000e+01,4.853899386424263551e-01,-4.694259277264727359e-01,1.000191894989725105e-01,-1.358072937969973526e-01,-1.249543981449214025e-01,1.621727122831492215e-06,-6.099984337237685395e-04,1.014764726003620533e-03,2.276627661005318881e+00,5.321905047348375259e-03,2.856594704396119185e-03,-2.733798438543676990e-01
2.675000000000000000e+01,4.683830272202003653e-01,-4.849799774662433838e-01,1.000193974410708148e-01,-1.362549850361093051e-01,-1.240349020984570921e-01,1.594750198601937969e-06,-8.051068479990959505e-04,5.664148033632026777e-04,2.242454934797922572e+00,2.159258676747612214e-03,-5.690760992061614718e-04,-2.733816580161503307e-01
2.700000000000000000e+01,4.513214232826427974e-01,-5.004442440906747835e-01,1.000195726726550022e-01,-1.367669833686359915e-01,-1.234189639846913489e-01,1.218764284020308374e-06,-1.049493374096932769e-03,7.084692093318049107e-04,2.208281878104706220e+00,-1.517583715100655423e-03,-3.700539066533279839e-03,-2.733851469006138846e-01
2.725000000000000000e+01,4.341653525134437364e-01,-5.158206947016207300e-01,1.000197127298907418e-01,-1.378182152261054338e-01,-1.225411182034065460e-01,1.109642986743389792e-06,-1.311625196398913265e-03,1.419686458430413504e-03,2.174108141247209414e+00,-5.134946786087922661e-03,-6.068306114807028341e-03,-2.733904484712862404e-01
2.750000000000000000e+01,4.168237545935989385e-01,-5.310393320610091727e-01,1.000198749072797461e-01,-1.397483915189056680e-01,-1.208316334715616169e-01,1.559474851363063939e-06,-1.557459276388205045e-03,2.593527068457137947e-03,2.139933452824457571e+00,-8.085019910838379259e-03,-7.339880116808675595e-03,-2.733966694752263393e-01
2.775000000000000000e+01,3.991746305221502422e-01,-5.459639418186481574e-01,1.000201187416139281e-01,-1.427134370515503181e-01,-1.178134374217499891e-01,2.321138641799965852e-06,-1.755201466349233606e-03,4.052672680799183740e-03,2.105757855457069727e+00,-9.842833101251434805e-03,-7.383306136243507865e-03,-2.734020568242979676e-01
2.800000000000000000e+01,3.810893774375235243e-01,-5.604094126664906916e-01,1.000204433218633560e-01,-1.466702014250523822e-01,-1.131876365306864751e-01,2.739223105981157889e-06,-1.880056382256910978e-03,5.576673388133590245e-03,2.071581799261363876e+00,-1.007260366499534293e-02,-6.288409868804436392e-03,-2.734047067771638861e-01
2.825000000000000000e+01,3.624567071390720763e-01,-5.741680587766898602e-01,1.000207611997106644e-01,-1.513970009060755795e-01,-1.068904540412993487e-01,2.165480860833494696e-06,-1.918108679658809233e-03,6.937697405284422823e-03,2.037406020506532300e+00,-8.700283950921768039e-03,-4.341363913057397043e-03,-2.734034537036718615e-01
2.850000000000000000e+01,3.432019143832024111e-01,-5.870405233934601341e-01,1.000209293701805613e-01,-1.565450520288038383e-01,-9.910950753850758521e-02,4.045806040263095392e-07,-1.868538993751330890e-03,7.937949805243043819e-03,2.003231255837095492e+00,-5.938615303730368500e-03,-1.960645838176504341e-03,-2.733984498450705014e-01
2.875000000000000000e+01,3.232982960290975982e-01,-5.988657964593629979e-01,1.000208220801318409e-01,-1.617097416412075772e-01,-9.025476939884145844e-02,-2.092945788323736818e-06,-1.743658961609390566e-03,8.442441828264002704e-03,1.969057940454638445e+00,-2.261064739921765914e-03,3.896147855416272842e-04,-2.733911156073834392e-01
2.900000000000000000e+01,3.027691597775984955e-01,-6.095448238113198025e-01,1.000204031790198206e-01,-1.665071965173436919e-01,-8.088771984082258892e-02,-4.420614573733315282e-06,-1.566674666472825167e-03,8.401845696924490139e-03,1.934886049005239750e+00,1.671836366040340294e-03,2.290649003586490550e-03,-2.733834995720324512e-01
2.925000000000000000e+01,2.816807392026275392e-01,-6.190531315003200419e-01,1.000197545322106113e-01,-1.706411574421378974e-01,-7.161990052511761629e-02,-5.684022327223117282e-06,-1.367539823922313269e-03,7.861634080635645019e-03,1.900715153870988772e+00,5.124410753229292556e-03,3.447328031407732255e-03,-2.733774141467302243e-01
2.950000000000000000e+01,2.601280798434150721e-01,-6.274397130187423510e-01,1.000190425966875352e-01,-1.739475422101872670e-01,-6.299831702762453967e-02,-5.469592941824820168e-06,-1.177628258570703485e-03,6.955460727923784732e-03,1.866544650265260730e+00,7.420921290213085796e-03,3.739714657780078121e-03,-2.733738129968577013e-01
2.975000000000000000e+01,2.382172553590825026e-01,-6.348118852635175058e-01,1.000184422883452079e-01,-1.764087757241671051e-01,-5.539896408276873130e-02,-4.031249453410947534e-06,-1.024170656388258445e-03,5.882789636838682730e-03,1.832374009135282256e+00,8.083423612514878398e-03,3.238489436228980233e-03,-2.733726978791734541e-01
3.000000000000000000e+01,2.160478725570167680e-01,-6.413085513027234619e-01,1.000180630357126038e-01,-1.781361788316626893e-01,-4.895028827181167191e-02,-2.084303317813980198e-06,-9.254436253623068293e-04,4.873099051090954911e-03,1.798202921030400692e+00,6.948079078960478147e-03,2.180721633452452866e-03,-2.733735004898532051e-01
3.025000000000000000e+01,1.936996037785489733e-01,-6.470668603653526585e-01,1.000179194547461681e-01,-1.793254116369716877e-01,-4.350504430693795388e-02,-3.491984023402775966e-07,-8.875869875152220430e-04,4.141427761470630950e-03,1.764031282123748268e+00,4.234385305412229593e-03,9.092995946213806944e-04,-2.733755955653141001e-01
3.050000000000000000e+01,1.712254593378035594e-01,-6.521891245189797015e-01,1.000179583015288337e-01,-1.801959672142900704e-01,-3.867157998319598056e-02,8.375599870838004068e-07,-9.036893700869137519e-04,3.842342897721065780e-03,1.729859086278283886e+00,5.441421391861498650e-04,-2.134359166095137054e-04,-2.733785563479368408e-01
3.075000000000000000e+01,1.486528495955270479e-01,-6.567175502916884344e-01,1.000181135650950320e-01,-1.809297714078306196e-01,-3.390453259211932691e-02,1.565881385823798024e-06,-9.554482294260901228e-04,4.031214884118408670e-03,1.695686344397020262e+00,-3.225717239155395915e-03,-9.004454998547916072e-04,-2.733820047108369566e-01
3.100000000000000000e+01,1.259915033343551038e-01,-6.606234875652958749e-01,1.000183416341662024e-01,-1.816249338111576017e-01,-2.864146484397443390e-02,2.028394389361833211e-06,-1.017294210302607544e-03,4.642363471401500345e-03,1.661513109606647776e+00,-6.057504491512166918e-03,-1.020383532760697027e-03,-2.733852756308839393e-01
3.125000000000000000e+01,1.032454473933188538e-01,-6.638153261154742246e-01,1.000186073719512431e-01,-1.822778049391946542e-01,-2.245846492781168949e-02,2.130561092546508919e-06,-1.062393295221623858e-03,5.492327053791088744e-03,1.627339573180176968e+00,-7.052890012755095618e-03,-6.394750325488182674e-04,-2.733873223640394534e-01
3.150000000000000000e+01,8.052329082141942984e-02,-6.661623744522612300e-01,1.000219057852609478e-01,-1.789625240322059718e-01,-1.510763651688287225e-02,9.521056409522675175e-05,1.274884115047938277e-02,6.091351628153530116e-03,1.612287819981333747e+00,-1.074288816600175479e-02,2.434308099262401104e-01,6.755677712954953618e-02
3.175000000000000000e+01,5.998247401944556412e-02,-6.674865405225830495e-01,1.000682225756035076e-01,-1.437309729034585981e-01,-6.049333020299526437e-03,6.501140481401554124e-04,4.755900768223651764e-02,5.358691454520013268e-03,1.632650915304515227e+00,-3.975313931975730380e-03,2.650678098990944531e-01,2.176125854462121201e-01
3.200000000000000000e+01,4.644267285040630522e-02,-6.675486820949404487e-01,1.001515708152291850e-01,-7.051310670083438259e-02,4.965776629473021321e-03,4.708190778492305135e-04,7.047388189558838334e-02,3.134107162779893856e-03,1.663060770277938527e+00,1.306452201680050225e-02,9.246962173087526493e-02,2.575179301042375135e-01
3.225000000000000000e+01,4.328195185001493944e-02,-6.661690065802491345e-01,1.001468935987247094e-01,1.684640862793773328e-02,1.662110095209401103e-02,-5.227798698057749488e-04,6.889045265230540893e-02,4.390646903420236950e-04,1.696107317130416625e+00,3.224255714969834902e-02,-9.735322725358461216e-02,2.685604556740207038e-01
3.250000000000000000e+01,5.039803958245169663e-02,-6.634345090466255979e-01,1.000462108078296469e-01,9.049642176804613414e-02,2.624699617349826944e-02,-8.999299614674601683e-04,4.876054939720642772e-02,-1.483443659534454699e-03,1.729937455716191952e+00,4.175828200073176955e-02,-1.943610941806787340e-01,2.717562273911229842e-01
3.275000000000000000e+01,6.493016843235270563e-02,-6.597537592750353230e-01,9.995818680295107117e-02,1.353949603497439091e-01,3.167493962229012139e-02,-4.487005256648940563e-04,2.381367302377401449e-02,-2.165188743197927861e-03,1.764031800992942545e+00,3.669582574808079312e-02,-1.814770234265038196e-01,2.727828939966641664e-01
3.300000000000000000e+01,8.321400496239038380e-02,-6.556927793304482277e-01,9.993615361188630530e-02,1.527525512436551103e-01,3.260469214515949316e-02,2.932304352084484991e-05,5.441489817956778573e-03,-1.994577964270331967e-03,1.798198842888957927e+00,2.095481573676786363e-02,-1.036139701248391942e-01,2.731927774709410617e-01
3.325000000000000000e+01,1.024765049474092166e-01,-6.517295174359991616e-01,9.995156445534933431e-02,1.538222557761949605e-01,3.057236275481037616e-02,1.629970155944650756e-04,-2.044028850704625918e-03,-1.636018030324043991e-03,1.832373985411365647e+00,2.920600461420420728e-03,-2.015284473444603139e-02,2.733530454452894887e-01
3.350000000000000000e+01,1.215151979429552054e-01,-6.480842301296855235e-01,9.997034918154872052e-02,1.510925912413086658e-01,2.793203846419873085e-02,1.312998574951455052e-04,-7.937058803972164107e-04,-1.429077487177366108e-03,1.866544829545129902e+00,-1.027199273745971718e-02,2.952538986215880873e-02,2.733983840459583980e-01
3.375000000000000000e+01,1.404180870037696482e-01,-6.446935374899550597e-01,9.998463837687938949e-02,1.522591390414864965e-01,2.672097732392767280e-02,1.019092922519620136e-04,4.094638370965503378e-03,-1.192352399036944368e-03,1.900714977174691622e+00,-1.605637431396307949e-02,3.719851654749770087e-02,2.734294161513138866e-01
3.400000000000000000e+01,1.598250076296416911e-01,-6.412967648182472669e-01,9.999594533899466842e-02,1.587738263260065341e-01,2.804436033148270321e-02,7.817509321921276087e-05,8.125177732761829433e-03,-4.617198170577242419e-04,1.934892922566276985e+00,-1.605577337476836106e-02,1.735817008224375957e-02,2.734774233061465498e-01
3.425000000000000000e+01,1.802519840376355376e-01,-6.375568304788246099e-01,1.000036258050334692e-01,1.678455999904742979e-01,3.209461187046826203e-02,4.545609869615596372e-05,9.238282104739649683e-03,1.099148586969915260e-03,1.969080527012169846e+00,-1.351714870727156736e-02,-8.669741539989183482e-03,2.735222286511793666e-01
3.450000000000000000e+01,2.017638092207090228e-01,-6.331517752497959339e-01,1.000076272085236723e-01,1.755844772161811174e-01,3.852689183245826959e-02,2.253807306965993171e-05,7.741299235149350609e-03,3.417801419142945437e-03,2.003268917123359749e+00,-1.083577432533688358e-02,-2.535466162567028350e-02,2.735463813096495889e-01
3.475000000000000000e+01,2.240044117263539081e-01,-6.278164813152761203e-01,1.000099956279359020e-01,1.793758558526166724e-01,4.682916722361012835e-02,1.776813195866090028e-05,5.143710697468605562e-03,6.011509087061877622e-03,2.037450315508557264e+00,-8.575500342940755444e-03,-2.775214870960763386e-02,2.735498854423307202e-01
3.500000000000000000e+01,2.464260384143396321e-01,-6.213505268627435019e-01,1.000122660656875273e-01,1.787086310251627397e-01,5.648704221157521688e-02,1.812356022137105212e-05,2.904260787960270471e-03,8.219262420470285074e-03,2.071627439010575777e+00,-6.042507842764912457e-03,-1.943636047721648136e-02,2.735363131271277282e-01
3.525000000000000000e+01,2.685322726019378492e-01,-6.136184961219250944e-01,1.000142717525316083e-01,1.747134489220882880e-01,6.696397325442933479e-02,1.310269359322291946e-05,1.730332595529040368e-03,9.504408215979072080e-03,2.105807379954784508e+00,-2.529289691787230468e-03,-7.399590674775137836e-03,2.735077001735429225e-01
3.550000000000000000e+01,2.900195411682632285e-01,-6.045569916644870645e-01,1.000153662727760739e-01,1.691497572261435878e-01,7.764177927165578919e-02,4.656464938035524443e-06,1.539674437111265360e-03,9.666278878464617391e-03,2.139991634790657127e+00,1.787130136359966343e-03,2.440777536986451710e-03,2.734704119636895414e-01
3.575000000000000000e+01,3.107945176326593617e-01,-5.941842701442535679e-01,1.000155118962378492e-01,1.635162062513691450e-01,8.784907427490960818e-02,-1.402432764153364804e-06,1.827805589157103583e-03,8.880936795354765420e-03,2.174175809398153358e+00,5.797218425550945860e-03,7.332337818019959465e-03,2.734362195202623691e-01
3.600000000000000000e+01,3.309080913323698137e-01,-5.825987404494087363e-01,1.000151926010149073e-01,1.586128361777336127e-01,9.700166591757976298e-02,-2.964456198104911684e-06,2.092335421154604535e-03,7.588535010571536253e-03,2.208356026120080084e+00,8.108214217778032459e-03,7.475948794560966990e-03,2.734153455355675111e-01
3.625000000000000000e+01,3.504643131924589095e-01,-5.699564061620238098e-01,1.000148970188583647e-01,1.545405319982370018e-01,1.047802028680407255e-01,-1.509489628699708692e-06,2.080760845113366515e-03,6.306101985825632653e-03,2.242532422328714414e+00,7.860260829526791865e-03,4.641576548302799553e-03,2.734103236317786956e-01
3.650000000000000000e+01,3.695472359411609564e-01,-5.564295938345045212e-01,1.000148558150154576e-01,1.509422015664786954e-01,1.112379364780759355e-01,7.711933012977444381e-07,1.810743241819615839e-03,5.452862340774931003e-03,2.276707474284430877e+00,5.202556560348021129e-03,7.800684975254899628e-04,2.734165689347674011e-01
3.675000000000000000e+01,3.881821236129610053e-01,-5.421607485397655912e-01,1.000150799573513993e-01,1.472822824515984674e-01,1.167711630291217439e-01,2.643703580229597656e-06,1.445135151689288470e-03,5.244972271402913687e-03,2.310883283528252452e+00,1.216013534046822770e-03,-2.739180834581129813e-03,2.734271835507856574e-01
3.700000000000000000e+01,4.063272943191432174e-01,-5.272287738919485545e-01,1.000154955263452827e-01,1.430496480199301423e-01,1.219598704615398876e-01,3.860200443210184372e-06,1.142972592900723004e-03,5.674477716244230412e-03,2.345060702147686360e+00,-2.597032218418841160e-03,-5.234658364618551170e-03,2.734368217640643084e-01
3.725000000000000000e+01,4.238849743704519168e-01,-5.116400729664368763e-01,1.000160220526053328e-01,1.378648978297251637e-01,1.273487146995102015e-01,4.424886265366349608e-06,9.712861724399725902e-04,6.554816235802224736e-03,2.379239693527962718e+00,-4.943644245635594840e-03,-6.471265038209739542e-03,2.734426655127111250e-01
3.750000000000000000e+01,4.407210740807202543e-01,-4.953458781091350516e-01,1.000165644055354686e-01,1.315248432426717462e-01,1.332585605865373446e-01,4.078873700822186000e-06,8.989219135989996289e-04,7.600962196073782380e-03,2.413419646336128377e+00,-5.189175886923339323e-03,-6.402415618089908091e-03,2.734438925613497662e-01
3.775000000000000000e+01,4.566885029012708319e-01,-4.782773426398230221e-01,1.000169852514915664e-01,1.240199647162917723e-01,1.396948977580682594e-01,2.491265013641723816e-06,8.446255301519017605e-04,8.513975700496691917e-03,2.447599551553091946e+00,-3.472783247785691391e-03,-5.064411342165462196e-03,2.734412073938700116e-01
3.800000000000000000e+01,4.716517843821644296e-01,-4.603845573239337408e-01,1.000171314685311535e-01,1.155383766249202665e-01,1.463716446096458013e-01,-1.947449355465625844e-07,7.354521329955967862e-04,9.049531808346609682e-03,2.481778441472517915e+00,-5.180546221356346730e-04,-2.610547868798738201e-03,2.734365178432804910e-01
3.825000000000000000e+01,4.855109800231244277e-01,-4.416664237771293910e-01,1.000169128311983180e-01,1.064494147491584913e-01,1.528233293170620510e-01,-3.157052571180162028e-06,5.430313590858661024e-04,9.060913639124616378e-03,2.515955960679185921e+00,2.714393285598521235e-03,6.204804231254529377e-04,2.734322000372147454e-01
3.850000000000000000e+01,4.982215965580424899e-01,-4.221835668974584510e-01,1.000163670257197546e-01,9.725546956844564883e-02,1.585537302812671245e-01,-5.282420318058429006e-06,2.879042824959541602e-04,8.515270413595255397e-03,2.550132565380854199e+00,5.363807203244980691e-03,4.097411110677506678e-03,2.734300058045275872e-01
3.875000000000000000e+01,5.098062720207406917e-01,-4.020531865424657458e-01,1.000156547129497087e-01,8.851075053026701001e-02,1.631692358222857353e-01,-5.803505064109236069e-06,2.076050115090877048e-05,7.486927685835874195e-03,2.584309163943798282e+00,6.882347431263256474e-03,7.180686158775036881e-03,2.734302978517200167e-01
3.900000000000000000e+01,5.203548298812246120e-01,-3.814301801119776014e-01,1.000149862053473782e-01,8.072036095187655469e-02,1.664631303523138595e-01,-4.697655997570388046e-06,-2.033037840472888189e-04,6.133798100000117763e-03,2.618486523075925998e+00,7.094822247898108052e-03,9.266586010972922491e-03,2.734321239852169905e-01
3.925000000000000000e+01,5.300116777652439382e-01,-3.604815726613234683e-01,1.000145275712737980e-01,7.424281196048213016e-02,1.684404539511146492e-01,-2.625921364405091518e-06,-3.443679676212764982e-04,4.663367767418177476e-03,2.652664892619309267e+00,6.141781154307605559e-03,9.933929807462786934e-03,2.734339901849519583e-01
3.950000000000000000e+01,5.389525577995218919e-01,-3.393612942730411253e-01,1.000143395935299828e-01,6.921978788840882357e-02,1.692917537533010497e-01,-5.180984170355421795e-07,-3.857231439580627351e-04,3.294165078353220120e-03,2.686844030606495792e+00,4.368294960944112473e-03,9.045715759452319787e-03,2.734347653634194852e-01
3.975000000000000000e+01,5.473552417466259756e-01,-3.181905964739973891e-01,1.000143766229591447e-01,6.554998651697704903e-02,1.693334796208281201e-01,9.173038124821099240e-07,-3.319589666245762621e-04,2.217843725543025557e-03,2.721023490766405484e+00,2.209690139229863581e-03,6.782930745921097841e-03,2.734342045554971068e-01
4.000000000000000000e+01,5.553701899056090463e-01,-2.970470290728350338e-01,1.000145362066655469e-01,6.291307781847899072e-02,1.689340960800509717e-01,1.484766716502955378e-06,-2.019979863541536381e-04,1.566668799496143995e-03,2.755202922394833109e+00,9.799043368363207190e-05,3.608336146622755352e-03,2.734329004318873935e-01
4.025000000000000000e+01,5.630972163778509287e-01,-2.759626805582649500e-01,1.000147239855594949e-01,6.083861138473949798e-02,1.684420560433650682e-01,1.459058953627981337e-06,-2.163162955987458597e-05,1.391348479255568107e-03,2.789382215854456337e+00,-1.609248934565771748e-03,1.689001388027486857e-04,2.734317904564966262e-01
4.050000000000000000e+01,5.705729039453051321e-01,-2.549306150472004373e-01,1.000148942411811653e-01,5.880491930577034371e-02,1.681279567756072679e-01,1.275320614842992936e-06,1.821019003001372806e-04,1.653976349921770740e-03,2.823561466876967518e+00,-2.681750489417163586e-03,-2.846773845677458108e-03,2.734315396860489966e-01
4.075000000000000000e+01,5.777711483415276517e-01,-2.339171333849112966e-01,1.000150466409563538e-01,5.634594970990225438e-02,1.681495711116840486e-01,1.185219463892147913e-06,3.845083508928849917e-04,2.239121623233253366e-03,2.857740831574718143e+00,-3.048334669620967382e-03,-4.868919292418736125e-03,2.734321552894431462e-01
4.100000000000000000e+01,5.846162155927658866e-01,-2.128766553357286095e-01,1.000151917043796967e-01,5.314112025689004398e-02,1.685443129520909911e-01,1.124382186091458967e-06,5.656170541747960806e-04,2.982250189546537412e-03,2.891920379634823846e+00,-2.798027659815754357e-03,-5.585794863668155051e-03,2.734330432486737350e-01
4.125000000000000000e+01,5.910047173037955570e-01,-1.917657872163824606e-01,1.000153185180767956e-01,4.906643877082742661e-02,1.692482568966847123e-01,8.627048253065004026e-07,7.120151427722398643e-04,3.709537143273359486e-03,2.926100032522082728e+00,-2.143290667794534466e-03,-5.019188217970271988e-03,2.734334360872191505e-01
4.150000000000000000e+01,5.968307491761173367e-01,-1.705536495705861355e-01,1.000153917183461000e-01,4.419475949852594981e-02,1.701346446499331089e-01,2.772539775791110245e-07,8.181150603522571643e-04,4.278890457216515987e-03,2.960279610295682318e+00,-1.350906268971562496e-03,-3.507578986088188879e-03,2.734328798160524099e-01
4.175000000000000000e+01,6.020078020390600138e-01,-1.492267679503286870e-01,1.000153767386763037e-01,3.874709070296727259e-02,1.710598637431047786e-01,-5.001072567192541576e-07,8.863258728062857776e-04,4.610813119892523057e-03,2.994458939127980113e+00,-6.609153827237476426e-04,-1.597317952631376568e-03,2.734314594064541915e-01
4.200000000000000000e+01,6.064822331067052374e-01,-1.277884720565820309e-01,1.000152681434707536e-01,3.301100973314888970e-02,1.719034029035305666e-01,-1.172331052176436295e-06,9.256455697458401384e-04,4.700512882108407592e-03,3.028637940234175652e+00,-2.211523306141068511e-04,1.255427199003269307e-04,2.734296696753191203e-01
4.225000000000000000e+01,6.102357672607152672e-01,-1.062542885223216188e-01,1.000150964472900361e-01,2.725158735493816986e-02,1.725912608355225364e-01,-1.495436007421820896e-06,9.487292604895723389e-04,4.608437448839242633e-03,3.062816650184674305e+00,-5.958818461949640707e-05,1.209688280103691322e-03,2.734280951438826657e-01
4.250000000000000000e+01,6.132778501162472473e-01,-8.464573585028575819e-02,1.000149104101529934e-01,2.164154372641036855e-02,1.730987522077610530e-01,-1.425478112024441940e-06,9.681611157560218901e-04,4.433023125436533034e-03,3.096995180503684608e+00,-1.017436970516734802e-04,1.464167730170089048e-03,2.734271368108009415e-01
4.275000000000000000e+01,6.156316339136527205e-01,-6.298494827460393575e-02,1.000147517387469792e-01,1.623020209856767745e-02,1.734361507847661799e-01,-1.097443774225166389e-06,9.930715308510604765e-04,4.274789555209962399e-03,3.131173658643318536e+00,-2.227656970949849389e-04,9.950426118561738181e-04,2.734269046294880434e-01
4.300000000000000000e+01,6.173189443256057451e-01,-4.129179679177874540e-02,1.000230369397209079e-01,1.095668837451461639e-02,1.736245387949039432e-01,3.325655393811512595e-05,1.028747704941002268e-03,4.203441974838803032e-03,-3.117316473120152587e+00,-3.275684961741198893e-04,1.433458893858065557e-04,2.678367928011339827e-01
4.325000000000000000e+01,6.183496582729590685e-01,-1.958359012145215530e-02,1.000227478517696222e-01,5.702132792613246251e-03,1.736838055641029555e-01,-1.711702440583978159e-05,1.070943942847097253e-03,4.239511464289818891e-03,-3.083517254112433825e+00,-3.070714264745407558e-04,-6.824880488202693081e-04,2.719354183903285316e-01
4.350000000000000000e+01,6.187181332466076267e-01,2.123640087894663325e-03,1.000204812068156146e-01,3.476737040889239946e-04,1.736111082943065098e-01,-1.710099876484458715e-05,1.113661055677495548e-03,4.356939587690109028e-03,-3.049439843096066305e+00,-2.270343578318749793e-04,-1.150091082078222695e-03,2.730298826481091790e-01
