time_total,x,y,z,vx,vy,vz,roll,pitch,yaw,roll_rate,pitch_rate,yaw_rate
e-01,9.990796200358924295e-02,-5.912434250263602642e-02,-1.086138163838451520e-01,3.696378132047781727e-04,-3.003658013432855935e-04,2.835074132801741753e-03,-4.950221702836243853e-01,1.450693705929136275e-02,-2.203985849466327460e-03,2.620279700925347011e-01
2.500000000000000000e-01,-4.110522280028203190e-01,2.546267051473292131e-01,9.994653049967973379e-02,-5.580131413940667834e-02,-1.103142662110162403e-01,2.580320548850166150e-04,1.575286672089916450e-03,3.210908852663073992e-03,-4.622635854196622263e-01,1.321010626929841614e-02,-4.956236985664189305e-03,2.620174038466151489e-01
5.000000000000000000e-01,-4.178462122958065406e-01,2.406220620958926804e-01,9.997343680088406626e-02,-5.307443150492245632e-02,-1.138728581183649918e-01,1.793914552584516958e-04,2.824710093046500434e-03,3.287121785897862032e-03,-4.295079328129907115e-01,5.093228857738845219e-03,-2.114643665190417757e-03,2.620092261208057938e-01
7.500000000000000000e-01,-4.243178860455951162e-01,2.261117952919781682e-01,9.999201435775414981e-02,-5.053346760121982945e-02,-1.181588254299618806e-01,1.229924420928269911e-04,2.895561656502553330e-03,3.343771023828866987e-03,-3.967567156618770352e-01,-2.992500011258639788e-03,2.241295893803250082e-03,2.620077226656344904e-01
1.000000000000000000e+00,-4.304491185133348941e-01,2.110862157968925179e-01,1.000047311712855130e-01,-4.754718023581027547e-02,-1.219681082759865171e-01,8.439470903940870746e-05,2.077923890193966467e-03,3.542919721019692578e-03,-3.640083612086948972e-01,-7.048412668935438719e-03,5.052271181241786875e-03,2.620114466143917964e-01
1.250000000000000000e+00,-4.361547826076478396e-01,1.956544868855085439e-01,1.000135272670457098e-01,-4.371844932645967824e-02,-1.246436249686102837e-01,5.890620568563121446e-05,1.007654278146209378e-03,3.869379047908086833e-03,-3.312605390927986226e-01,-6.664554484397612784e-03,5.270838448841040635e-03,2.620168051561082012e-01
1.500000000000000000e+00,-4.413250124085595361e-01,1.799646798031444284e-01,1.000196920435514336e-01,-3.903652639753983633e-02,-1.261779048014296800e-01,4.127773458286840849e-05,2.081669398221131439e-04,4.196604989502502117e-03,-2.985113966674617370e-01,-3.752894198997699503e-03,3.521546344222953057e-03,2.620203242791853127e-01
1.750000000000000000e+00,-4.458691576209121155e-01,1.641365908202482016e-01,1.000239745429339772e-01,-3.378049056303430303e-02,-1.269601334403926696e-01,2.831905451604841832e-05,-1.238427954319717657e-04,4.396952892782522368e-03,-2.657602333563093278e-01,-6.827766725974227001e-04,1.138666142688553231e-03,2.620205137131232376e-01
2.000000000000000000e+00,-4.497393860681350719e-01,1.482346061627044520e-01,1.000268722521893416e-01,-2.831936365976025702e-02,-1.274340729952696261e-01,1.889987353775071272e-05,-8.479783414160951209e-05,4.418989269661137073e-03,-2.330076302127656596e-01,1.048010630151032744e-03,-7.300281892711781278e-04,2.620181687674507098e-01
2.250000000000000000e+00,-4.529301532617626136e-01,1.322775109822314776e-01,1.000287891144787389e-01,-2.294233275479171455e-02,-1.278679874262017568e-01,1.241610420304243096e-05,9.939329873249753543e-05,4.298551315023455520e-03,-2.002547524006922375e-01,1.184839867047717942e-03,-1.582769777884631855e-03,2.620151504291925448e-01
2.500000000000000000e+00,-4.554624178878247664e-01,1.162655747044861604e-01,1.000300448210348081e-01,-1.778606745570829317e-02,-1.283022153620611006e-01,8.116810716268809569e-06,2.340496249902421309e-04,4.117206587652926311e-03,-1.675024442927409152e-01,3.394801846817014864e-04,-1.559460410609450230e-03,2.620129692449846837e-01
2.750000000000000000e+00,-4.573652076157759816e-01,1.002048600760448854e-01,1.000308638903014552e-01,-1.285697333014877188e-02,-1.286280116881953206e-01,5.274571544567587015e-06,2.362378561479011986e-04,3.946063105055490003e-03,-1.347508793812844941e-01,-6.497646363587463456e-04,-1.154878562501865857e-03,2.620121417338868164e-01
3.000000000000000000e+00,-4.586638453330256215e-01,8.411809991311598733e-02,1.000313914267703386e-01,-8.105005064493292846e-03,-1.287072161408707172e-01,3.346922835615369035e-06,1.284721321811294851e-04,3.809601246880170086e-03,-1.019997726922671211e-01,-1.206025739836994728e-03,-8.750535832067730078e-04,2.620123459631060192e-01
3.250000000000000000e+00,-4.593779224864172894e-01,6.804215343899812363e-02,1.000317161541056099e-01,-3.498152773457770953e-03,-1.284597265889287632e-01,1.962562953296155155e-06,-1.593014746217268266e-05,3.684118788229962752e-03,-6.924873358980765392e-02,-1.178204554922458649e-03,-9.971213251318397554e-04,2.620129301072812722e-01
3.500000000000000000e+00,-4.595266068892968625e-01,5.201835610045553449e-02,1.000318905222306876e-01,9.373935201704488305e-04,-1.278909457320824561e-01,9.082385577345725336e-07,-1.294430009927039936e-04,3.523922172949810368e-03,-3.649749642226911978e-02,-7.376419507367714627e-04,-1.492893988672096576e-03,2.620133625843403813e-01
3.750000000000000000e+00,-4.591360507574805960e-01,3.608281814881193067e-02,1.000319504039379193e-01,5.122124056339492568e-03,-1.270708916053085169e-01,1.211185026883050156e-07,-1.805288233482092762e-04,3.296425811957687246e-03,-3.745993703723614950e-03,-1.698895800760635713e-04,-2.094750706186040892e-03,2.620134283160991950e-01
4.000000000000000000e+00,-4.582437442769168867e-01,2.026091053233723682e-02,1.000319298865701839e-01,8.963091852749285535e-03,-1.260936797809737997e-01,-3.846283332937176329e-07,-1.737112332856743653e-04,3.007511855269181904e-03,2.900569164442408018e-02,2.932843067750398255e-04,-2.440624043557320690e-03,2.620131800195426020e-01
4.250000000000000000e+00,-4.568967597858913932e-01,4.566686629283055708e-03,1.000318640821227928e-01,1.240736151075340181e-02,-1.250419263680470905e-01,-6.199521598768475402e-07,-1.322181223575145015e-04,2.706947966456599124e-03,6.175743190795357496e-02,5.391392207223922976e-04,-2.229560723113900144e-03,2.620127790229114240e-01
4.500000000000000000e+00,-4.551436986295761544e-01,-1.099421345109790477e-02,1.000317825060864363e-01,1.548614496527189570e-02,-1.239666694711746425e-01,-6.597422743799360400e-07,-7.932171895453012805e-05,2.474098920634357907e-03,9.450913891934233091e-02,5.535573831039258472e-04,-1.336070677480345661e-03,2.620123712407496641e-01
4.750000000000000000e+00,-4.530226830958973272e-01,-2.642010470644096803e-02,1.000317033630498537e-01,1.833277807565227013e-02,-1.228812107614476734e-01,-5.978256986144172244e-07,-2.848083573270695799e-05,2.391712353528337946e-03,1.272607864218097129e-01,3.692659448281336684e-04,1.440006182240316230e-04,2.620120531250357265e-01
5.000000000000000000e+00,-4.505492174930522120e-01,-4.170858330673143238e-02,1.000316354020438225e-01,2.116771944259721386e-02,-1.217625197785120322e-01,-4.864143133602480369e-07,1.630141670825617701e-05,2.518332504564512429e-03,1.600123892400649173e-01,2.922010517084091302e-05,1.920375863100689650e-03,2.620118793484005337e-01
5.250000000000000000e+00,-4.477078926743293108e-01,-5.685225001024230007e-02,1.000315840203583884e-01,2.425450824841336728e-02,-1.205556770973076619e-01,-3.344905687703044894e-07,5.444856123337829106e-05,2.868584201627178473e-03,1.927639727693734040e-01,-4.194157484205612244e-04,3.594061663652641479e-03,2.620118476115839146e-01
5.500000000000000000e+00,-4.444508150181787909e-01,-7.183514203583724056e-02,1.000315532158812110e-01,2.783942668625811329e-02,-1.191808820436579403e-01,-1.665987885436547237e-07,8.295777532498026902e-05,3.406877028252698787e-03,2.255155437403671137e-01,-9.136219616530498206e-04,4.774163082144934622e-03,2.620118671962355372e-01
5.750000000000000000e+00,-4.407036893058350890e-01,-8.663029829763119194e-02,1.000315399293927460e-01,3.209237191325747807e-02,-1.175447177969578816e-01,-7.197764009046525168e-08,9.435093715874763468e-05,4.055537813144958169e-03,2.582670645675747001e-01,-1.367985447884296872e-03,5.189746213914024804e-03,2.620117764155021622e-01
6.000000000000000000e+00,-4.363782776262726815e-01,-1.011990521197144027e-01,1.000315267331860214e-01,3.706582895555431828e-02,-1.155562199719623734e-01,-1.785738599205041214e-07,7.874916908598291420e-05,4.714106298581234415e-03,2.910184475208132393e-01,-1.687052656062054375e-03,4.761824456305190252e-03,2.620114391938692666e-01
6.250000000000000000e+00,-4.313881773113981688e-01,-1.154925206244524494e-01,1.000314825106035088e-01,4.268294253368779684e-02,-1.131451895048678213e-01,-5.624431545846545975e-07,2.803932557326687013e-05,5.283514069555665486e-03,3.237695860418029481e-01,-1.793427327532133575e-03,3.613860371132172726e-03,2.620108595745763158e-01
6.500000000000000000e+00,-4.256640634081171326e-01,-1.294552599205071874e-01,1.000313744871161592e-01,4.875644997240584366e-02,-1.102776934503911788e-01,-1.171427478025927319e-06,-6.047176204963882292e-05,5.687911465610311947e-03,3.565204129042148784e-01,-1.656274709384491801e-03,2.021103721964885233e-03,2.620102130163511345e-01
6.750000000000000000e+00,-4.191649392411080366e-01,-1.430303919293617609e-01,1.000311847573758933e-01,5.503094469389220589e-02,-1.069636778896311952e-01,-1.833266956992558369e-06,-1.826436681104761696e-04,5.888292318837980155e-03,3.892709469838759873e-01,-1.304314960053385526e-03,3.210653796385028614e-04,2.620097550887159898e-01
7.000000000000000000e+00,-4.118833163796182806e-01,-1.561650182938528753e-01,1.000309201112229984e-01,6.123492145973494227e-02,-1.032541807701104764e-01,-2.344575901964949358e-06,-3.286265690710506930e-04,5.885259425665850114e-03,4.220212949012618897e-01,-8.165598794212615202e-04,-1.180872126225413063e-03,2.620096704504559781e-01
7.250000000000000000e+00,-4.038440528951665609e-01,-1.688146612223955234e-01,1.000306090336904735e-01,6.712814208144624040e-02,-9.922935732196162817e-02,-2.573262695385658638e-06,-4.856658182369374402e-04,5.711909109276627067e-03,4.547716071519554704e-01,-2.954935476052522386e-04,-2.280435320869870098e-03,2.620099696535336808e-01
7.500000000000000000e+00,-3.950981843170397467e-01,-1.809458347861639949e-01,1.000302888848286498e-01,7.253359809320217289e-02,-9.498157888168917706e-02,-2.507274270013978329e-06,-6.412683941668616532e-04,5.420472756002672754e-03,4.875220187232172653e-01,1.654618193118339198e-04,-2.902455474473944041e-03,2.620104961348506123e-01
7.750000000000000000e+00,-3.857140321359810997e-01,-1.925364804843180955e-01,1.000299916550029394e-01,7.734956879433214916e-02,-9.059903325680852826e-02,-2.233101515176850257e-06,-7.856151975077915132e-04,5.067289603415623019e-03,5.202726080732883451e-01,5.080820390678902855e-04,-3.089482921864086969e-03,2.620110226705970047e-01
8.000000000000000000e+00,-3.757680303890541529e-01,-2.035746433227423602e-01,1.000297353620380608e-01,8.154336861303829176e-02,-8.615441352006728004e-02,-1.875806775733092419e-06,-9.126681909848656689e-04,4.699987212783080306e-03,5.530233896014169481e-01,7.218963526517256125e-04,-2.964682819565008041e-03,2.620113664926953523e-01
8.250000000000000000e+00,-3.653372216734328548e-01,-2.140562092873368460e-01,1.000295230131064278e-01,8.513244952926496412e-02,-8.170116824435789959e-02,-1.543975540244300773e-06,-1.020004235122117658e-03,4.349087142253334724e-03,5.857743330196082399e-01,8.426126748904443813e-04,-2.686635806426113538e-03,2.620114609897298830e-01
8.500000000000000000e+00,-3.544945492468966619e-01,-2.239826806943705229e-01,1.000293467037157297e-01,8.815990388236887021e-02,-7.727745300061739098e-02,-1.303189883409566804e-06,-1.107779997973570244e-03,4.024457412660980421e-03,6.185253929187409794e-01,9.406109677844823628e-04,-2.410101626602792219e-03,2.620113642936141019e-01
8.750000000000000000e+00,-3.433072267170177438e-01,-2.333598617865545455e-01,1.000291932116049720e-01,9.067059377055824987e-02,-7.291616905606487786e-02,-1.175782347823928060e-06,-1.177335423914716971e-03,3.715831353170004694e-03,6.512765341971494815e-01,1.104566719511862602e-03,-2.258911360534273608e-03,2.620112215652181109e-01
9.000000000000000000e+00,-3.318378038569526067e-01,-2.421980556841021592e-01,1.000290487380822713e-01,9.269228308920940407e-02,-6.865851453412735728e-02,-1.151609516377967612e-06,-1.229847729008240334e-03,3.396310656180128503e-03,6.840277465130670809e-01,1.423067504895468615e-03,-2.309783421203484999e-03,2.620112084262004037e-01
9.250000000000000000e+00,-3.201471187931750340e-01,-2.505140198024848885e-01,1.000289023535903682e-01,9.422439253126918546e-02,-6.456801964717992504e-02,-1.196596341390226037e-06,-1.265276777254059799e-03,3.028192522112556611e-03,7.167790466674042182e-01,1.964096522907969773e-03,-2.582255720425525973e-03,2.620114730962987415e-01
9.500000000000000000e+00,-3.082980774581529082e-01,-2.583345245116547284e-01,1.000287487506862916e-01,9.523589786699895865e-02,-6.074165552144512870e-02,-1.255908493926884980e-06,-1.281700952734662197e-03,2.571057654564831447e-03,7.495304696609260686e-01,2.751624238208720801e-03,-3.031690198292566907e-03,2.620120815782548407e-01
9.750000000000000000e+00,-2.963590556537710752e-01,-2.657009054048031782e-01,1.000285905739734943e-01,9.567321441028404927e-02,-5.731418864763459381e-02,-1.259443117687232755e-06,-1.275076940790560026e-03,1.992083432843016599e-03,7.822820490436754870e-01,3.742244989558086554e-03,-3.548104105092091554e-03,2.620129683420005517e-01
1.000000000000000000e+01,-2.844056735668542557e-01,-2.726735156143416106e-01,1.000284392315588244e-01,9.547785535649973288e-02,-5.445201233961100007e-02,-1.141975524999975521e-06,-1.239453096531697735e-03,1.277614029115963596e-03,8.150337885883377487e-01,4.810257874786442144e-03,-3.967861514643498434e-03,2.620139073489980985e-01
1.025000000000000000e+01,-2.725198387006005363e-01,-2.793345826347231053e-01,1.000283119305960949e-01,9.461164465851489014e-02,-5.233400723491581086e-02,-8.819901903986559238e-07,-1.167675856054440839e-03,4.436361547046001157e-04,8.477856324745489669e-01,5.751364247356664794e-03,-4.102973354370279858e-03,2.620145334733204323e-01
1.050000000000000000e+01,-2.607853977345126473e-01,-2.857878388905875089e-01,1.000282234479808741e-01,9.308465626371546786e-02,-5.111985702302185991e-02,-5.421881504554751052e-07,-1.052601087898830372e-03,-4.580520764132857718e-04,8.805374486028233472e-01,6.311120944403010580e-03,-3.785274649378447646e-03,2.620144436006972000e-01
1.075000000000000000e+01,-2.492804887374868161e-01,-2.921535927288034240e-01,1.000281746575349823e-01,9.097895913834010140e-02,-5.091009344197648667e-02,-2.753856980954089356e-07,-8.887319806920947239e-04,-1.340831733465364410e-03,9.132890435739294821e-01,6.235671958446416772e-03,-2.914492180069821331e-03,2.620133756054291441e-01
1.100000000000000000e+01,-2.380675965676343209e-01,-2.985586800972267474e-01,1.000281443587473923e-01,8.846088087815690004e-02,-5.170568126716440505e-02,-2.653203631716082293e-07,-6.740680445056883036e-04,-2.092635310889694872e-03,9.460402207781467565e-01,5.333542117699630568e-03,-1.495336104153113105e-03,2.620114068532969354e-01
1.125000000000000000e+01,-2.271831253340237944e-01,-3.051218574626416991e-01,1.000280924644126601e-01,8.577640551945935055e-02,-5.337683352153439753e-02,-6.121804625573844209e-07,-4.118157216210188536e-04,-2.592717861687866485e-03,9.787908720827401821e-01,3.533147190966721973e-03,3.483672838529575035e-04,2.620090640825151751e-01
1.150000000000000000e+01,-2.166287487563374470e-01,-3.119364017803100131e-01,1.000279779170748229e-01,8.322803442444029476e-02,-5.565025759452824072e-02,-1.224892344835955329e-06,-1.115398282401525859e-04,-2.732944786700439339e-03,1.011541066482759321e+00,9.216035238856906935e-04,2.387451184554211826e-03,2.620072377395571972e-01
1.175000000000000000e+01,-2.063667236397886684e-01,-3.190526745697366828e-01,1.000277850209646963e-01,8.113585750221523341e-02,-5.812123927255798128e-02,-1.803926391992512039e-06,2.106306690943004806e-04,-2.439601342785180458e-03,1.044291083058173975e+00,-2.245223721009877854e-03,4.326366657256648304e-03,2.620068693654927783e-01
1.200000000000000000e+01,-1.963207446527855393e-01,-3.264639324319317248e-01,1.000275431650774621e-01,7.978949285680121684e-02,-6.029250841764532964e-02,-1.961310762501925932e-06,5.329846876973040690e-04,-1.691565413103585103e-03,1.077041347493506773e+00,-5.565125218734016770e-03,5.858433346545293026e-03,2.620085069272779510e-01
1.225000000000000000e+01,-1.863829097225720433e-01,-3.340985778836638720e-01,1.000273241833307541e-01,7.939999712740553051e-02,-6.163666952470267524e-02,-1.441320597731552009e-06,8.304187142039564772e-04,-5.313398009683878908e-04,1.109792274118187372e+00,-8.542012058066147245e-03,6.725449044832436905e-03,2.620119318725400714e-01
1.250000000000000000e+01,-1.764261741890733315e-01,-3.418213200092014015e-01,1.000272116547656492e-01,8.006135183007344336e-02,-6.167410461207201849e-02,-3.257288694885106542e-07,1.077604881234655145e-03,9.334395111544673777e-04,1.142544071014598206e+00,-1.066192087220333741e-02,6.769957248877682410e-03,2.620160780869920103e-01
1.275000000000000000e+01,-1.663205436635668277e-01,-3.494444399215549946e-01,1.000272531590935682e-01,8.172972499583543160e-02,-6.005438731762115928e-02,9.139340078253776587e-07,1.252684775487238229e-03,2.539192566171089623e-03,1.175296602505591537e+00,-1.148393316744003405e-02,5.970843842022875887e-03,2.620193545285906533e-01
1.300000000000000000e+01,-1.559504071009624460e-01,-3.567486866399706136e-01,1.000274205760541546e-01,8.422576537834795818e-02,-5.662680569208677211e-02,1.593204030121873489e-06,1.340882029926588823e-03,4.086279926270272242e-03,1.208049393573976671e+00,-1.073493604503397182e-02,4.455585676478810223e-03,2.620202861741177114e-01
1.325000000000000000e+01,-1.452300052470726632e-01,-3.635114682302076905e-01,1.000276053375623170e-01,8.726116130921560132e-02,-5.148500835784976942e-02,1.170845249544636471e-06,1.337371755741469364e-03,5.368107754688472739e-03,1.240801799087491553e+00,-8.391470996467352908e-03,2.484485812385252637e-03,2.620181942254994900e-01
1.350000000000000000e+01,-1.341141740801075621e-01,-3.695382316679248769e-01,1.000276604600206926e-01,9.048600728694056183e-02,-4.497287285873276946e-02,-3.970777517732184204e-07,1.248803193454696859e-03,6.205872303311098757e-03,1.273553272461185104e+00,-4.725809849147076525e-03,4.055594752500192406e-04,2.620135591689133903e-01
1.375000000000000000e+01,-1.226022445996918508e-01,-3.746916347693196037e-01,1.000274739032775834e-01,9.354879183593008130e-02,-3.764429661399680549e-02,-2.537678182629522211e-06,1.093043686997932423e-03,6.482920399088576077e-03,1.306303602250137974e+00,-2.929942850328696828e-04,-1.414916070970840102e-03,2.620078295709999394e-01
1.400000000000000000e+01,-1.107342608769772974e-01,-3.789127583309537250e-01,1.000270335477567579e-01,9.615710917979998495e-02,-3.017872022912594307e-02,-4.307666403526245113e-06,8.969876249044395240e-04,6.171039301081786797e-03,1.339052988275754918e+00,4.152528012711606022e-03,-2.672297899730755738e-03,2.620027353155082728e-01
1.425000000000000000e+01,-9.858028248774902691e-02,-3.822295306039720786e-01,1.000264418371099168e-01,9.812587492298170677e-02,-2.326504035921615754e-02,-4.905338472452991605e-06,6.926273672882627590e-04,5.341465340207293862e-03,1.371801912958509950e+00,7.800072507083982351e-03,-3.193219856242057904e-03,2.619994771546542145e-01
1.450000000000000000e+01,-8.622509344966808320e-02,-3.847497542521762237e-01,1.000258656221160863e-01,9.940189905229185330e-02,-1.747587055303766526e-02,-4.136030727174060244e-06,5.119591421482459553e-04,4.156457031124441252e-03,1.404550884783996478e+00,9.952880134524147784e-03,-2.974392786052305025e-03,2.619982687931527443e-01
1.475000000000000000e+01,-7.375171537002980782e-02,-3.866392177981838318e-01,1.000254490307684319e-01,1.000590439066903620e-01,-1.315846955407875066e-02,-2.510906302722119895e-06,3.816047736975063586e-04,2.842090492241035066e-03,1.437300209575621102e+00,1.018078674688005503e-02,-2.178309632032297827e-03,2.619984900037554132e-01
1.500000000000000000e+01,-6.122738331816295759e-02,-3.880885782000763617e-01,1.000252438189937199e-01,1.002654673627821624e-01,-1.036621463848040776e-02,-8.979686584316392440e-07,3.181704511664573275e-04,1.647742981223761964e-03,1.470049922196753123e+00,8.416072143396274158e-03,-1.087043253550217057e-03,2.619992985139090735e-01
1.525000000000000000e+01,-4.869499070311486544e-02,-3.892751839704635120e-01,1.000252007210819249e-01,1.002314113489597563e-01,-8.845918383094786286e-03,3.775373077831008886e-08,3.252765452170752573e-04,8.007418819165571400e-04,1.502799898004785861e+00,4.971944466574283392e-03,-2.786428337763181492e-05,2.620002424844391498e-01
1.550000000000000000e+01,-3.617162266418610939e-02,-3.903271666793816097e-01,1.000252232770845462e-01,1.001505897209880175e-01,-8.084352494831793107e-03,2.182046225064365715e-07,3.928877390887328905e-04,4.651142038121492111e-04,1.535550039422639346e+00,4.850682627444194406e-04,7.089287537840519406e-04,2.620014437536112850e-01
1.575000000000000000e+01,-2.365405460335777768e-02,-3.912967636866505616e-01,1.000252429933351228e-01,1.001493667494892242e-01,-7.405430666708989404e-03,1.047654602711028737e-07,4.991270794936500865e-04,7.117067557760866714e-04,1.568300387265300078e+00,-4.200246685128131673e-03,9.398642476679721757e-04,2.620032579673506334e-01
1.600000000000000000e+01,-1.112943266215550391e-02,-3.921481289514452961e-01,1.000252617617716083e-01,1.002556578069401377e-01,-6.100182214826563656e-03,2.694597233279574258e-07,6.142813204154197243e-04,1.504279953762225090e-03,1.601051070538778598e+00,-8.182246708235786647e-03,6.308696637272654707e-04,2.620057087003710428e-01
1.625000000000000000e+01,1.411849677094426060e-03,-3.927622530904841258e-01,1.000253321938290585e-01,1.003946958830855968e-01,-3.566045348671386360e-03,8.964911410353773492e-07,7.063006189783749408e-04,2.703540206681675617e-03,1.633802135153890056e+00,-1.066271262796806771e-02,-9.562806248438108603e-05,2.620081610649215853e-01
1.650000000000000000e+01,1.396456827967745666e-02,-3.929585253686587731e-01,1.000254912536135965e-01,1.004126531353548568e-01,5.697845298772512800e-04,1.574279133025263304e-06,7.468308624191677403e-04,4.088780213018554377e-03,1.666553391027965070e+00,-1.109627819068257845e-02,-9.906204449743746202e-04,2.620095348468743923e-01
1.675000000000000000e+01,2.650157632747246125e-02,-3.925293958932559724e-01,1.000256974720781511e-01,1.001227341119460407e-01,6.366329792601797995e-03,1.548735533054695808e-06,7.167189507486999064e-04,5.394588765222895974e-03,1.699304416883923308e+00,-9.304994342117322778e-03,-1.740468983710970544e-03,2.620089694388746948e-01
1.700000000000000000e+01,3.897335967548486158e-02,-3.912819965538645861e-01,1.000258234487851339e-01,9.936287865901051453e-02,1.354190925191976237e-02,2.944052829438958090e-07,6.099997145872186740e-04,6.357692483106741968e-03,1.732054757146121338e+00,-5.534687596657128159e-03,-2.049132611793296962e-03,2.620064985662775570e-01
1.725000000000000000e+01,5.131478763023332446e-02,-3.890789175529458799e-01,1.000257197684522176e-01,9.805075076465852302e-02,2.151285938066960918e-02,-1.985926008401750500e-06,4.355949242815728047e-04,6.766544507087465972e-03,1.764804202238754449e+00,-4.333181699650525852e-04,-1.722544730453633892e-03,2.620032215317260049e-01
1.750000000000000000e+01,6.345775416827380278e-02,-3.858700333479573863e-01,1.000253145667379939e-01,9.622128427371547110e-02,2.949422434640256233e-02,-4.323822375476267529e-06,2.163134653261604575e-04,6.504346701398083970e-03,1.797552962350045469e+00,5.057919160887883007e-03,-7.328942321573230900e-04,2.620007557308930979e-01
1.775000000000000000e+01,7.534673800811540756e-02,-3.817086020918397660e-01,1.000246801839217575e-01,9.403538026266666794e-02,3.664524554624119107e-02,-5.512375770597194577e-06,-1.478965264423641091e-05,5.575688371651231143e-03,1.830301593501620250e+00,9.891368495196395383e-03,7.586192424068746113e-04,2.620002596774258508e-01
1.800000000000000000e+01,8.695329887495908960e-02,-3.767478120691596377e-01,1.000240126135833046e-01,9.175528560637669084e-02,4.223058891462595776e-02,-4.883352898896333375e-06,-2.201155862078894702e-04,4.108865129184347854e-03,1.863050695174084614e+00,1.314385924214689708e-02,2.433783782235587195e-03,2.620016780055173244e-01
1.825000000000000000e+01,9.828555180831187454e-02,-3.712180805095627867e-01,1.000235276675312535e-01,8.969140708467815415e-02,4.576168848328932698e-02,-2.781318595026008317e-06,-3.642310404741818026e-04,2.330752795981077662e-03,1.895800564283577350e+00,1.423531144380197483e-02,3.901377307654267657e-03,2.620037723936772256e-01
1.850000000000000000e+01,1.093898511420420411e-01,-3.653898248310786245e-01,1.000233401978057601e-01,8.813422589826391818e-02,4.708477659291757100e-02,-3.574508994511345585e-07,-4.202350864190865449e-04,5.182831925549771963e-04,1.928551034788793084e+00,1.306931738759485248e-02,4.810693983946877535e-03,2.620049637754278682e-01
1.875000000000000000e+01,1.203440224490778254e-01,-3.595299164163980321e-01,1.000234087869189131e-01,8.729032528157200377e-02,4.639437359071464650e-02,1.185504829397003881e-06,-3.744302639764737414e-04,-1.061942780334450666e-03,1.961301609968398862e+00,1.004483193104037386e-02,4.956974408096469220e-03,2.620044004487181999e-01
1.900000000000000000e+01,1.312438792210563476e-01,-3.538614549872576287e-01,1.000235805018360874e-01,8.724078781297514573e-02,4.417080882337198755e-02,1.330897982662634852e-06,-2.282788795902669404e-04,-2.209590807868996951e-03,1.994051790191802676e+00,5.927335386191941863e-03,4.339510922378180327e-03,2.620024824383688222e-01
1.925000000000000000e+01,1.421866346555825111e-01,-3.485352768250750688e-01,1.000236958836209639e-01,8.793295349060199773e-02,4.106172598309572319e-02,4.351901382494688770e-07,2.749757917128963772e-06,-2.826171188450805893e-03,2.026801369415300869e+00,1.617265335092093505e-03,3.148483081712045648e-03,2.620004957679774038e-01
1.950000000000000000e+01,1.532554760718997100e-01,-3.436180176107295203e-01,1.000236757309132390e-01,8.920506834611996450e-02,3.774301719720515175e-02,-6.913830673465224982e-07,2.930616978169021405e-04,-2.920505747923569755e-03,2.059550516821486710e+00,-2.106965109430607944e-03,1.684411136088519601e-03,2.619996983133008883e-01
1.975000000000000000e+01,1.645087545403633167e-01,-3.390967385188321526e-01,1.000235377692809818e-01,9.083207263298492817e-02,3.479836553103565072e-02,-1.390976754580875564e-06,6.124626493094031520e-04,-2.584359594209966870e-03,2.092299630245814335e+00,-4.783750630415216365e-03,2.424183230707575875e-04,2.620005709945955608e-01
2.000000000000000000e+01,1.759752846794798986e-01,-3.348957128422507812e-01,1.000233524041817951e-01,9.257427879384262648e-02,3.264708024041399620e-02,-1.478923928861935981e-06,9.318187052207976134e-04,-1.948540322585359374e-03,2.125049100507740540e+00,-6.338640649443409193e-03,-9.914627511274246106e-04,2.620027224693549095e-01
2.025000000000000000e+01,1.876549482226219923e-01,-3.308984169211909854e-01,1.000231860555848701e-01,9.421163404314150669e-02,3.153101663686962153e-02,-1.149220204775721206e-06,1.227375720819049148e-03,-1.135808384846418708e-03,2.157799149392470639e+00,-7.017542826991552372e-03,-1.990172445002155472e-03,2.620053718083467098e-01
2.050000000000000000e+01,1.995220804246052582e-01,-3.269677886125934574e-01,1.000230722486373514e-01,9.555411055276498422e-02,3.155054360230168803e-02,-6.827738975180576525e-07,1.482750032512843239e-03,-2.267689364981239979e-04,2.190549809892031963e+00,-7.221517411364336905e-03,-2.863139950646085945e-03,2.620079370007360464e-01
2.075000000000000000e+01,2.115286542581391871e-01,-3.229601324301365484e-01,1.000230162836733966e-01,9.643006465059898724e-02,3.272454993728241002e-02,-2.342241325625601571e-07,1.688410295799771610e-03,7.510234297462028931e-04,2.223301004159631056e+00,-7.314018499114269267e-03,-3.773099757275997362e-03,2.620102933642191601e-01
2.100000000000000000e+01,2.236051904344367458e-01,-3.187315709502616112e-01,1.000230147755023502e-01,9.666439419387112819e-02,3.504528237935905510e-02,1.983686435352911495e-07,1.839319128302058497e-03,1.809597743460985729e-03,2.256052626353857171e+00,-7.473621308021897655e-03,-4.828206757724180960e-03,2.620125953264682561e-01
2.125000000000000000e+01,2.356591710283535701e-01,-3.141392478341037964e-01,1.000230697696370685e-01,9.606300120713293089e-02,3.850572855450997561e-02,6.762065514056873041e-07,1.931989349696245110e-03,2.970155205874788935e-03,2.288804563863130248e+00,-7.639097601034413286e-03,-5.993420047751798346e-03,2.620148672613246688e-01
2.150000000000000000e+01,2.475727258512882278e-01,-3.090414080768097982e-01,1.000231873992716985e-01,9.441786488239523045e-02,4.309135085331581433e-02,1.184042719742590473e-06,1.962323464326138928e-03,4.228153632918576176e-03,2.321556650331918714e+00,-7.554542389800032558e-03,-7.055878281268145730e-03,2.620166817870245857e-01
2.175000000000000000e+01,2.592026834702325644e-01,-3.033004997405140957e-01,1.000233609103965832e-01,9.153910735870617044e-02,4.874325753129134936e-02,1.525932280588881517e-06,1.925218154377798764e-03,5.526758393631483850e-03,2.354308597429548566e+00,-6.887788366907593440e-03,-7.659164718865982789e-03,2.620171676135109595e-01
2.200000000000000000e+01,2.703861977495625180e-01,-2.967917724606539132e-01,1.000235467102361386e-01,8.730976703149534446e-02,5.531103161248771688e-02,1.328085640686530199e-06,1.816188195247656848e-03,6.748116019019813686e-03,2.387059978383220482e+00,-5.375979523760196152e-03,-7.399147119179753755e-03,2.620154037401836167e-01
2.225000000000000000e+01,2.809539608362337515e-01,-2.894172333200670244e-01,1.000236516327135672e-01,8.174910514390634764e-02,6.251739672269208958e-02,2.157389034415054575e-07,1.634470476569467980e-03,7.726275374507230245e-03,2.419810321191615543e+00,-2.949459303325344638e-03,-5.955319125188608329e-03,2.620110286918984066e-01
2.250000000000000000e+01,2.907507991949532244e-01,-2.811222094856489773e-01,1.000235525117312979e-01,7.506424497529300133e-02,6.995326127849137154e-02,-1.870888184871703069e-06,1.386483704463516370e-03,8.279333833932329273e-03,2.452559306735792255e+00,2.046505992170593951e-04,-3.219376579353189476e-03,2.620047070555211466e-01
2.275000000000000000e+01,2.996608492441464322e-01,-2.719100198375450916e-01,1.000231542171296228e-01,6.766982668938785472e-02,7.711210902934317879e-02,-4.419326714609448152e-06,1.088321814785201498e-03,8.252915804438076472e-03,2.485306979603002731e+00,3.658407866198651673e-03,6.195059644528845381e-04,2.619980833176591140e-01
2.300000000000000000e+01,3.076323124744289039e-01,-2.618499286790895719e-01,1.000224614802584927e-01,6.016165007529248460e-02,8.346027696357456727e-02,-6.408124709145276586e-06,7.661885069353093804e-04,7.563651602978938709e-03,2.518053827509641796e+00,6.834110717432191791e-03,5.063825857558903326e-03,2.619931055329427494e-01
2.325000000000000000e+01,3.146957298995087249e-01,-2.510747619757350280e-01,1.000216153323997964e-01,5.324162785690850913e-02,8.852810206734640364e-02,-6.786223192818745210e-06,4.542470099219957503e-04,6.230837113118260773e-03,2.550800628777714962e+00,9.143830595610745113e-03,9.382289991730699552e-03,2.619910254898044633e-01
2.350000000000000000e+01,3.209702431059768823e-01,-2.397669710212491645e-01,1.000208536321359892e-01,4.760473339087274713e-02,9.199968121476269356e-02,-5.136923738159486381e-06,1.900829313080261949e-04,4.387225732991234355e-03,2.583548105355367941e+00,1.013649526146866500e-02,1.275503125821660783e-02,2.619916899864719317e-01
2.375000000000000000e+01,3.266544206211154378e-01,-2.281348295314879482e-01,1.000204012474543991e-01,4.380999223769619505e-02,9.377827672946068005e-02,-2.069855550592081309e-06,8.641782769968039718e-06,2.265312625031029765e-03,2.616296566569392912e+00,9.609944219071079458e-03,1.445190445672456941e-02,2.619936471892015950e-01
2.400000000000000000e+01,3.320014262432426366e-01,-2.163829973063992329e-01,1.000203493112831882e-01,4.216327485714486262e-02,9.401038947897609466e-02,1.004359902426930960e-06,-6.408100751606708582e-05,1.619438672285676084e-04,2.649045770788518883e+00,7.657700221245942497e-03,1.399560880144802913e-02,2.619950906893218079e-01
2.425000000000000000e+01,3.372817397094522995e-01,-2.046831498977995101e-01,1.000206013516741349e-01,4.263787337248998305e-02,9.306217047438285206e-02,2.649374440131467162e-06,-1.624824963418035955e-05,-1.610513950641485502e-03,2.681795116908909815e+00,4.642106070372559352e-03,1.126797569775697151e-02,2.619950788452611867e-01
2.450000000000000000e+01,3.427394019940396830e-01,-1.931503958555663147e-01,1.000209274874846316e-01,4.485046650936745649e-02,9.145361618871564180e-02,2.256326541178078017e-06,1.468046357572472206e-04,-2.775731954319057403e-03,2.714544069697533590e+00,1.108709912546954491e-03,6.539809513875482691e-03,2.619942316189069476e-01
2.475000000000000000e+01,3.485492144434536588e-01,-1.818298830241122099e-01,1.000210995677512094e-01,4.809835559296823937e-02,8.976524769031035689e-02,4.257139493166975687e-07,4.023618506488844536e-04,-3.138096606575549279e-03,2.747292561789851817e+00,-2.328749450702522795e-03,4.304982928753980573e-04,2.619944097869169042e-01
2.500000000000000000e+01,3.547823127271784727e-01,-1.706958126081167537e-01,1.000210276678562688e-01,5.145269258052453942e-02,8.853648910021424956e-02,-1.373424543375445913e-06,7.129865629147881132e-04,-2.614350975211785118e-03,2.780041111569266477e+00,-5.102944334447225005e-03,-6.181168176308974270e-03,2.619975157337486871e-01
2.525000000000000000e+01,3.613863127618026638e-01,-1.596626518688713803e-01,1.000208154509335673e-01,5.389424640307665521e-02,8.817468383044921310e-02,-1.679382782246627804e-06,1.031620589121564702e-03,-1.249638864030027828e-03,2.812790555942243920e+00,-6.787074228532873760e-03,-1.227416394554698906e-02,2.620041023925988588e-01
2.550000000000000000e+01,3.681606641439429395e-01,-1.486817882451823836e-01,1.000225276789139250e-01,5.363231552850675904e-02,8.617358632714987310e-02,4.013179079957824506e-05,-7.845974122863129743e-03,6.400008107523295822e-04,2.824483912963640098e+00,1.329683096703832279e-01,-5.959757012847078511e-02,-8.126722177175733919e-02
2.575000000000000000e+01,3.744172725072036356e-01,-1.389289449993060810e-01,1.000388505975666892e-01,4.504102315261580836e-02,6.674924261934317427e-02,2.191931533739253631e-04,-2.787300099529910896e-02,2.356947928133785834e-03,2.803957569436725361e+00,1.366923273006062090e-01,-6.059156403540172375e-02,-2.138702955692953211e-01
2.600000000000000000e+01,3.789560358599258771e-01,-1.329470561381678184e-01,1.000658578109507035e-01,2.683534455851534217e-02,2.790892051341602176e-02,1.443233632237254233e-04,-4.048672119284393162e-02,3.622660600041039628e-03,2.774426280600971406e+00,4.119084121843492874e-02,-2.524983058505124792e-02,-2.493149958808120181e-01
2.625000000000000000e+01,3.808195157191744395e-01,-1.323737053141028075e-01,1.000628990263120466e-01,3.405570939680269051e-03,-1.685774770494260361e-02,-1.804742745048498341e-04,-3.911903141031956854e-02,4.679921120550490678e-03,2.742527428452677274e+00,-5.877345600679857729e-02,1.547239561298873259e-02,-2.588276339962096162e-01
2.650000000000000000e+01,3.797459832575678651e-01,-1.369475196112880377e-01,1.000295424380603926e-01,-1.926659985651994408e-02,-5.273643629784763309e-02,-2.922452060706239485e-04,-2.743730215734143524e-02,5.794197529863905419e-03,2.710039219946356326e+00,-1.071925395628734318e-01,3.932802420600698540e-02,-2.613405607505187578e-01
2.675000000000000000e+01,3.761258831387011003e-01,-1.449772979418163799e-01,1.000013548697066962e-01,-3.707711061636381061e-02,-7.223410167519134228e-02,-1.412715665792342091e-04,-1.321377521408545301e-02,6.807641315539461439e-03,2.677410403824801222e+00,-9.701774978520885662e-02,4.124317584266385533e-02,-2.619961769540936625e-01
2.700000000000000000e+01,3.706624445459072437e-01,-1.544173467812636757e-01,9.999455291428509252e-02,-4.902329685097528422e-02,-7.659728094017125011e-02,1.002939261961352594e-05,-2.758387623541495078e-03,7.199076847557458678e-03,2.644721297051117137e+00,-5.284724140041826418e-02,2.942145736767554781e-02,-2.621643390073085667e-01
2.725000000000000000e+01,3.640230619953712665e-01,-1.637665137207577060e-01,9.999925254659144946e-02,-5.635414640425912697e-02,-7.233038048110909668e-02,4.795578499091467529e-05,1.627733330166610546e-03,6.480012311396572862e-03,2.611980306436998855e+00,-6.033013108116916726e-03,1.581427773023121389e-02,-2.621664289985770058e-01
2.750000000000000000e+01,3.566631612365689374e-01,-1.724190361779223413e-01,1.000045232182476956e-01,-6.092445087876913190e-02,-6.653061228299562979e-02,3.513139375345010582e-05,1.205803251277132865e-03,4.565988576053075891e-03,2.579211649287349140e+00,2.287864425992805831e-02,8.233566657864265989e-03,-2.621002414590592466e-01
2.775000000000000000e+01,3.488384752564757108e-01,-1.805116923647299976e-01,1.000083147435153613e-01,-6.396454339838651693e-02,-6.374077576384273858e-02,2.773005833565510714e-05,-1.202942826324060856e-03,1.876330499671928021e-03,2.546445878002679297e+00,2.930893447497373572e-02,7.624534964655740356e-03,-2.620352980053075043e-01
2.800000000000000000e+01,3.407122496989773430e-01,-1.885302690826493044e-01,1.000116475978693603e-01,-6.578025340023736789e-02,-6.516028446707509969e-02,2.533130731560294643e-05,-3.171204360612574474e-03,-8.511061725234686211e-04,2.513692482646914250e+00,2.012617352161793702e-02,1.007452777424520246e-02,-2.620067780898805987e-01
2.825000000000000000e+01,3.324475599880287180e-01,-1.969407791547873876e-01,1.000144157096618525e-01,-6.619230308017982900e-02,-6.959466197287314526e-02,1.839010066731924280e-05,-3.638769008634777386e-03,-2.876553064213903301e-03,2.480942351983015826e+00,5.723838595263389985e-03,1.080672700169906138e-02,-2.620088928766224345e-01
2.850000000000000000e+01,3.242256897637538215e-01,-2.059885202076577604e-01,1.000161386643526468e-01,-6.517846461578995221e-02,-7.498092492440000534e-02,9.697495750988167215e-06,-2.830561726947276781e-03,-3.725988816551882923e-03,2.448187652236747169e+00,-6.085197599400785605e-03,7.338829966317244810e-03,-2.620210250339113367e-01
2.875000000000000000e+01,3.161980204207300305e-01,-2.156721798808018953e-01,1.000169479751904511e-01,-6.324735294968188148e-02,-7.956579064981086913e-02,4.129317816317941273e-06,-1.587362995676336883e-03,-3.304754703976877251e-03,2.415429824265735270e+00,-1.227048410802938049e-02,3.989790055557965349e-04,-2.620313708193044988e-01
2.900000000000000000e+01,3.084195631204489363e-01,-2.258208163075012820e-01,1.000173192701653141e-01,-6.137238329591744590e-02,-8.238618022941122943e-02,2.424359829650813848e-06,-6.725425103221841817e-04,-1.854733137011438989e-03,2.382672882131060987e+00,-1.355617592867087128e-02,-7.163199267514572428e-03,-2.620393450426007909e-01
2.925000000000000000e+01,3.008135024382131428e-01,-2.361915866388421270e-01,1.000176587945760948e-01,-6.061035415804215398e-02,-8.318839251062318252e-02,3.260460265999543475e-06,-4.024043146827205601e-04,1.792910550372253621e-04,2.349917143167310485e+00,-1.210733087857983684e-02,-1.228748665858659349e-02,-2.620465891215494336e-01
2.950000000000000000e+01,2.931895774948177769e-01,-2.465393729965352498e-01,1.000181664583612851e-01,-6.166871525740846849e-02,-8.212428749342916279e-02,4.738240775708468530e-06,-6.502803678392152925e-04,2.297292820365557427e-03,2.317160587782857828e+00,-9.657888914104736239e-03,-1.323539712445548876e-02,-2.620514839447063982e-01
2.975000000000000000e+01,2.853069139290422274e-01,-2.566500441397771004e-01,1.000187861083019492e-01,-6.464916269704279461e-02,-7.950443824075813237e-02,4.806927377891054287e-06,-1.072676300889677595e-03,4.057245326021591790e-03,2.284402750868678389e+00,-6.835525214543010375e-03,-1.012044995208402805e-02,-2.620511425159331997e-01
3.000000000000000000e+01,2.769518361170741350e-01,-2.663531000734534193e-01,1.000192648921769539e-01,-6.905752503394975428e-02,-7.571193799593756157e-02,2.580137486911642404e-06,-1.358613300474721544e-03,5.142014445170612486e-03,2.251645370875184238e+00,-3.504654051603192048e-03,-4.491205640332857768e-03,-2.620454373643755219e-01
3.025000000000000000e+01,2.679994256168535816e-01,-2.755317453989738485e-01,1.000193670818111530e-01,-7.402944339188534395e-02,-7.122739120919385769e-02,-8.644604007973591978e-07,-1.371214827082846161e-03,5.390263542627336465e-03,2.218890136432557281e+00,5.074846234571544958e-04,1.561785852459504024e-03,-2.620375830696998198e-01
3.050000000000000000e+01,2.584397217999997443e-01,-2.841373591203413262e-01,1.000190722596840803e-01,-7.864404501167607253e-02,-6.665644426436849457e-02,-3.470992029765506961e-06,-1.154391890404198127e-03,4.804699785069199702e-03,2.186136984993772181e+00,4.887743641070158712e-03,6.253564057421605316e-03,-2.620313115975472784e-01
3.075000000000000000e+01,2.483661857154018660e-01,-2.922029390505846425e-01,1.000185867974767440e-01,-8.219726553551227888e-02,-6.268067062828855396e-02,-3.885606677493443371e-06,-8.527270610910558891e-04,3.542889246356586194e-03,2.153384577081180584e+00,8.777348906794924660e-03,8.588965497103695501e-03,-2.620281949951209222e-01
3.100000000000000000e+01,2.379371716828154459e-01,-2.998445861705482662e-01,1.000181880697337267e-01,-8.435671996914137494e-02,-5.992254437646116205e-02,-2.309265338888581509e-06,-6.147662964299133734e-04,1.888181050423750089e-03,2.120631784065550640e+00,1.110310032884056358e-02,8.432802504427178505e-03,-2.620274666901121763e-01
3.125000000000000000e+01,2.273268313064887858e-01,-3.072431088503837504e-01,1.000180420482395249e-01,-8.518233384715216683e-02,-5.877515824663707977e-02,-1.425835347674397545e-07,-5.298306567355476858e-04,1.978587881732662653e-04,2.087878451869515928e+00,1.104917343183626360e-02,6.298412496641250455e-03,-2.620277124068128294e-01
3.150000000000000000e+01,2.166806451420320856e-01,-3.146060380221057939e-01,1.000181194308884108e-01,-8.504247515109863986e-02,-5.926960603785049603e-02,1.096914540354999606e-06,-6.129183297722347497e-04,-1.167546569621880472e-03,2.055125007926494440e+00,8.418000529916383479e-03,3.035971631797792624e-03,-2.620284682213014915e-01
3.175000000000000000e+01,2.060855707331660513e-01,-3.221187473406966206e-01,1.000182535500651893e-01,-8.447420113881565218e-02,-6.103673351149849907e-02,8.292968675481488072e-07,-8.245389520982561232e-04,-1.920639284960377804e-03,2.022371683215898663e+00,3.738289361798306266e-03,-4.471505449843594525e-04,-2.620305033719079746e-01
3.200000000000000000e+01,1.955587095014643118e-01,-3.298981028520582282e-01,1.000182881387118305e-01,-8.403382051802879560e-02,-6.338158071264900217e-02,-2.745696483484256759e-07,-1.102362950510886322e-03,-1.910413297399686386e-03,1.989618165590161247e+00,-1.887981484239525812e-03,-3.380616981345601051e-03,-2.620348823573721564e-01
3.225000000000000000e+01,1.850533819647477707e-01,-3.379616836032165450e-01,1.000181994588792839e-01,-8.417139628110539840e-02,-6.544857965680500600e-02,-9.597573142465040148e-07,-1.386656520798411557e-03,-1.154854197135052069e-03,1.956863839454883403e+00,-7.111957906451228661e-03,-5.243116111966386605e-03,-2.620416813237298470e-01
3.250000000000000000e+01,1.744782066871167769e-01,-3.462209236950547497e-01,1.000180973776950005e-01,-8.514898245341631644e-02,-6.642821383513837497e-02,-4.966985863523497183e-07,-1.632731802883994644e-03,1.666974895321543895e-04,1.924108267883445800e+00,-1.071325152881714114e-02,-5.812832933475867332e-03,-2.620493237493572991e-01
3.275000000000000000e+01,1.637230737301193506e-01,-3.544996164011618989e-01,1.000181107724336244e-01,-8.701089239659250130e-02,-6.574735579716475820e-02,7.067652333012383086e-07,-1.812907225232874339e-03,1.759680718878120021e-03,1.891351534644654997e+00,-1.191219818995619545e-02,-5.168629850576159090e-03,-2.620550672014880789e-01
3.300000000000000000e+01,1.526854936585943512e-01,-3.625724146225092759e-01,1.000182606808245056e-01,-8.960478572807969999e-02,-6.319435385249998205e-02,1.499793933794328795e-06,-1.914016836033188363e-03,3.286709940042548215e-03,1.858594263486856857e+00,-1.054615822268086325e-02,-3.642506644629957702e-03,-2.620564124036560139e-01
3.325000000000000000e+01,1.412915225474740133e-01,-3.702130811251423403e-01,1.000184311329048170e-01,-9.264366123777659223e-02,-5.895037218301344556e-02,1.006240790422739264e-06,-1.935069674749994141e-03,4.447589236364457577e-03,1.825837336493963514e+00,-7.082068529764914619e-03,-1.724052477604074568e-03,-2.620525307202597465e-01
3.350000000000000000e+01,1.295072157783923317e-01,-3.772402878897868073e-01,1.000184585215506405e-01,-9.579117565378993115e-02,-5.352360996633454687e-02,-6.370086418930575460e-07,-1.886247468998623975e-03,5.047276748055508876e-03,1.793081482548688044e+00,-2.476382879931493183e-03,6.956788000612563431e-05,-2.620447431834813101e-01
3.375000000000000000e+01,1.173391127016215341e-01,-3.835499161707460747e-01,1.000182587589640293e-01,-9.874791672108036711e-02,-4.760675818831908851e-02,-2.422665149434430288e-06,-1.787859915096741154e-03,5.035979888653572059e-03,1.760326973595524036e+00,2.077320504053052890e-03,1.328326218687690035e-03,-2.620357597362569235e-01
3.400000000000000000e+01,1.048250936871194666e-01,-3.891265807560443379e-01,1.000178861963153532e-01,-1.013165458771288635e-01,-4.189579035896355552e-02,-3.302604312757946169e-06,-1.667399799714197172e-03,4.512738456117176659e-03,1.727573592497066990e+00,5.452845859409536158e-03,1.850640835549451210e-03,-2.620282779832839304e-01
3.425000000000000000e+01,9.201936346509348441e-02,-3.940325238909644368e-01,1.000174845452390937e-01,-1.034300656205812269e-01,-3.691673099998770552e-02,-2.952125680371599341e-06,-1.554081300729027960e-03,3.692576117345294437e-03,1.694820844159631523e+00,6.876813334832576445e-03,1.679338081125301193e-03,-2.620239060651728402e-01
3.450000000000000000e+01,7.897659660749162258e-02,-3.983778151654752131e-01,1.000171826275949166e-01,-1.051386595373192262e-01,-3.290459890762058998e-02,-1.856020762784226755e-06,-1.471988672032212677e-03,2.845864814808470727e-03,1.662068221718020045e+00,6.124672745258912150e-03,1.060238286086083231e-03,-2.620229530135574358e-01
3.475000000000000000e+01,6.574001977411904341e-02,-4.022805588176603941e-01,1.000170246839549165e-01,-1.065633267742197021e-01,-2.976532111578344270e-02,-7.563266533610623840e-07,-1.434066317282537816e-03,2.225292155857170728e-03,1.629315351757307573e+00,3.573679036463375033e-03,3.377730268794813134e-04,-2.620248703087056930e-01
3.500000000000000000e+01,5.233647539088742695e-02,-4.058283152647043091e-01,1.000169803099126287e-01,-1.078346444951586436e-01,-2.712958403558118556e-02,-4.671505286355801920e-08,-1.439128677788732930e-03,1.999205143314526038e-03,1.596561998525835024e+00,9.209492144228071547e-05,-1.754390501101322694e-04,-2.620287310926692204e-01
3.525000000000000000e+01,3.877889211689087429e-02,-4.090514398360772796e-01,1.000170019854068060e-01,-1.090388624692285591e-01,-2.448240898161569562e-02,3.469064997098660000e-07,-1.473026292238382258e-03,2.209021884779534609e-03,1.563808037648187099e+00,-3.212346972330011249e-03,-3.084651148855037340e-04,-2.620333829404238868e-01
3.550000000000000000e+01,2.507398137591110646e-02,-4.119155372800578085e-01,1.000170631756845119e-01,-1.101896884285339662e-01,-2.133048459426870741e-02,6.049312491939997499e-07,-1.513641004025465973e-03,2.762561597601167086e-03,1.531053488856041200e+00,-5.318121024820417729e-03,-8.211337508983861545e-05,-2.620374452068039983e-01
3.575000000000000000e+01,1.123129643239774086e-02,-4.143345999765740140e-01,1.000171455793403136e-01,-1.112338518153791200e-01,-1.735768142577303122e-02,6.564793565564772001e-07,-1.538110770575024447e-03,3.465519635647216524e-03,1.498298571761491393e+00,-5.594679691678084571e-03,3.178865367529514104e-04,-2.620395432271918068e-01
3.600000000000000000e+01,-2.730384635172364988e-03,-4.162002287695777958e-01,1.000172069140089631e-01,-1.120855314196242958e-01,-1.252210004299656940e-02,2.447713832719119507e-07,-1.530019180961480476e-03,4.082307374852617125e-03,1.465543675559172865e+00,-3.991084033703456470e-03,6.324235959043835766e-04,-2.620388610227142312e-01
3.625000000000000000e+01,-1.678202469952868106e-02,-4.174175001338109592e-01,1.000171818818921948e-01,-1.126738076790084891e-01,-7.065513141002390148e-03,-6.801866702305534697e-07,-1.484369643929839494e-03,4.408473907612549779e-03,1.432789201386654554e+00,-1.046382599408390759e-03,6.480926167703206491e-04,-2.620356254857751921e-01
3.650000000000000000e+01,-3.088894990896177625e-02,-4.179360907861791041e-01,1.000170273749849265e-01,-1.129825686981096172e-01,-1.433134238424485203e-03,-1.726327595010402344e-06,-1.408901738172302527e-03,4.333166179903617451e-03,1.400035370070086715e+00,2.282687174547163873e-03,2.961264909305250364e-04,-2.620310574830443384e-01
3.675000000000000000e+01,-4.501899186091445904e-02,-4.177668557646810332e-01,1.000167671516924428e-01,-1.130655306973682023e-01,3.870470676850913845e-03,-2.298369973200833326e-06,-1.321436186864064421e-03,3.873155347940213187e-03,1.367282137432493938e+00,4.920013341969977499e-03,-3.080124793696580412e-04,-2.620267568359042620e-01
3.700000000000000000e+01,-5.915043038898755434e-02,-4.169786649877199602e-01,1.000164852061815740e-01,-1.130289031989142046e-01,8.444127003713018664e-03,-2.094407003542923032e-06,-1.244112431830352635e-03,3.168940278854569075e-03,1.334529266680959170e+00,5.996740514312269392e-03,-8.995910822761835198e-04,-2.620239819700143635e-01
3.725000000000000000e+01,-7.327589591688396520e-02,-4.156764190944063908e-01,1.000162686813637763e-01,-1.129868534762443893e-01,1.212168088293342008e-02,-1.345138347008836803e-06,-1.196267656672412834e-03,2.445217870550341847e-03,1.301776470583997813e+00,5.102910334560102276e-03,-1.160056685629735082e-03,-2.620233244113331916e-01
3.750000000000000000e+01,-8.739976076045764819e-02,-4.139668120351762681e-01,1.000161538275743528e-01,-1.130054671023084378e-01,1.503396252541928588e-02,-5.466966273305866215e-07,-1.188049503435942072e-03,1.948507276292347221e-03,1.269023498288772478e+00,2.391301115714525825e-03,-8.364522208651604777e-04,-2.620248437303393518e-01
3.775000000000000000e+01,-1.015288839643859325e-01,-4.119218551335075973e-01,1.000161249188847024e-01,-1.130555292346934471e-01,1.758499337102435722e-02,2.964904262240223145e-08,-1.216577770714869899e-03,1.880524406651263398e-03,1.236270134368616214e+00,-1.486226956306810863e-03,1.588001607957930327e-04,-2.620283014573875358e-01
3.800000000000000000e+01,-1.156590164548764732e-01,-4.095505194920274761e-01,1.000161606526895341e-01,-1.129917936385738675e-01,2.035198574038071459e-02,5.432540204511017113e-07,-1.265690299396361957e-03,2.345487593351424250e-03,1.203516191703479787e+00,-5.574736652500513964e-03,1.701303537999203060e-03,-2.620331524800261769e-01
3.825000000000000000e+01,-1.297608784638787927e-01,-4.067862499005547861e-01,1.000162740472100992e-01,-1.125679122690017575e-01,2.393910737250605839e-02,1.300204656556170738e-06,-1.309289272850895029e-03,3.323710451998248411e-03,1.170761587810582371e+00,-8.873452107099789529e-03,3.473627206115276721e-03,-2.620383548264617057e-01
3.850000000000000000e+01,-1.437703662403571059e-01,-4.034936084387445443e-01,1.000164989896155376e-01,-1.114852556530143840e-01,2.882460370672207048e-02,2.269400939021705164e-06,-1.317356266207148551e-03,4.675325598914965505e-03,1.138006486075640034e+00,-1.057697785195218544e-02,5.039980125504609637e-03,-2.620423819862050530e-01
3.875000000000000000e+01,-1.575864686412034033e-01,-3.994923892308483437e-01,1.000168302755175820e-01,-1.094641664773377682e-01,3.523859556373597213e-02,2.883984571673651529e-06,-1.263080745693082561e-03,6.170062195001170188e-03,1.105251371649172976e+00,-1.024337169394253996e-02,5.952375520438731374e-03,-2.620437142294261834e-01
3.900000000000000000e+01,-1.710786156642371270e-01,-3.945935375682695923e-01,1.000171719876535303e-01,-1.063203230380707631e-01,4.309763275574141766e-02,2.356763650758678617e-06,-1.129377004216445754e-03,7.533939361313560582e-03,1.072496935047399624e+00,-7.863751676762113785e-03,5.860019454007599909e-03,-2.620416439345878423e-01
3.925000000000000000e+01,-1.841028918213674370e-01,-3.886389210300107422e-01,1.000173488465678773e-01,-1.020277210794191119e-01,5.200673087361282892e-02,2.953428080001748773e-07,-9.133350119914162516e-04,8.502045300035673131e-03,1.039743766262840152e+00,-3.836696638148939190e-03,4.597466535886255215e-03,-2.620368651373753410e-01
3.950000000000000000e+01,-1.965243937457643031e-01,-3.815366493484444455e-01,1.000171886401435006e-01,-9.675282168251166104e-02,6.132463372778707011e-02,-2.849756251336489796e-06,-6.277294357668665404e-04,8.867413422054338731e-03,1.006992017392792871e+00,1.131741219018871309e-03,2.234401689475441159e-03,-2.620313561175472428e-01
3.975000000000000000e+01,-2.082414476796400071e-01,-3.732849741547685229e-01,1.000166288178520879e-01,-9.085049045664334022e-02,7.027627838451726283e-02,-5.863042036725999606e-06,-2.994093213813869901e-04,8.518138918889348044e-03,9.742412486953089257e-01,6.174496029623982758e-03,-9.220515146774015125e-04,-2.620274912522052024e-01
4.000000000000000000e+01,-2.192067221508631480e-01,-3.639803249764658744e-01,1.000157772487977603e-01,-8.482012751254555671e-02,7.808910289365679491e-02,-7.368202979355584361e-06,3.496910982915188009e-05,7.457472949893188124e-03,9.414905822237261690e-01,1.042735918920956184e-02,-4.373415359282206705e-03,-2.620268308812122027e-01
4.025000000000000000e+01,-2.294405983749593925e-01,-3.538081785181698136e-01,1.000148814379560047e-01,-7.922849569944041825e-02,8.412716201989055287e-02,-6.604218378071361446e-06,3.349441919282340990e-04,5.804364567382765995e-03,9.087391049978065238e-01,1.318295630133698750e-02,-7.517142897593538653e-03,-2.620292851677644141e-01
4.050000000000000000e+01,-2.390334490440505499e-01,-3.430186430947347875e-01,1.000142159756543664e-01,-7.461282885729142444e-02,8.799877170081647770e-02,-3.894011289273341857e-06,5.628376086280102459e-04,3.774709766420997203e-03,8.759863075916611841e-01,1.401098931476373564e-02,-9.760307305101592612e-03,-2.620331642547928386e-01
4.075000000000000000e+01,-2.481355096919357073e-01,-3.318913468557712076e-01,1.000139494345307078e-01,-7.138252347577650481e-02,8.961905168772549279e-02,-5.024149997995734123e-07,6.897881754189059533e-04,1.646373495442857767e-03,8.432323136791529672e-01,1.282597592303653597e-02,-1.063860595249733684e-02,-2.620361197336987247e-01
4.100000000000000000e+01,-2.569354373406608771e-01,-3.206960138528221482e-01,1.000140669207893740e-01,-6.973899628318144805e-02,8.921738210740810804e-02,2.050186339151883990e-06,7.002748587022096776e-04,-2.863321644276407016e-04,8.104777718346944937e-01,9.891460868903823381e-03,-9.916466394196273362e-03,-2.620364545913214660e-01
4.125000000000000000e+01,-2.656309663330773119e-01,-3.096557049008105689e-01,1.000143927889531464e-01,-6.963059297310872364e-02,8.729006035333709834e-02,2.814823057904420939e-06,5.944711499021418681e-04,-1.761060377869144667e-03,7.777234740034603133e-01,5.760363761915133531e-03,-7.645920869279006042e-03,-2.620340494961072020e-01
4.150000000000000000e+01,-2.743968038222530104e-01,-2.989190003391794526e-01,1.000146983837199438e-01,-7.075305827114615476e-02,8.450853929083754212e-02,1.886531963606987482e-06,3.881229368168477513e-04,-2.590328352508546473e-03,7.449699204793277518e-01,1.163482246040894444e-03,-4.169591459426365276e-03,-2.620303707105178792e-01
4.175000000000000000e+01,-2.833556662681468996e-01,-2.885455577789771686e-01,1.000148291396227573e-01,-7.259722061235408808e-02,8.160159939678154895e-02,2.479163137180079969e-07,1.100066317286137055e-04,-2.691337480418286993e-03,7.122170765807491755e-01,-3.131248752611344444e-03,-6.484743170008126561e-05,-2.620275678802843622e-01
4.200000000000000000e+01,-2.925579468894943802e-01,-2.785068643020394141e-01,1.000147759618846000e-01,-7.453603246518406000e-02,7.923406485590306358e-02,-8.964809764379963278e-07,-2.026229347589693244e-04,-2.097486305876736668e-03,6.794644475277158424e-01,-6.460476052364900329e-03,3.961174018986227119e-03,-2.620272090350555527e-01
4.225000000000000000e+01,-3.019739703300673428e-01,-2.687011445625577255e-01,1.000146531473952993e-01,-7.593493840048930188e-02,7.790442711168124590e-02,-8.627489237566458799e-07,-5.098758191575112654e-04,-9.496635757296869110e-04,6.467114086995893185e-01,-8.380760158757279144e-03,7.205921670808052015e-03,-2.620294014603852251e-01
4.250000000000000000e+01,-3.115004168667689366e-01,-2.589788437789170561e-01,1.000146044225984632e-01,-7.626440189969098393e-02,7.787919311869083427e-02,1.538150090323440168e-07,-7.754161530410612867e-04,5.310163999762008546e-04,6.139575841017561597e-01,-8.736472609810858395e-03,9.109403344977696007e-03,-2.620327901549943106e-01
4.275000000000000000e+01,-3.209797395600251235e-01,-2.491733553717301042e-01,1.000147015326233041e-01,-7.519238615950819826e-02,7.917396519931753363e-02,1.299313535056503733e-06,-9.719546666987758559e-04,2.084148927355254730e-03,5.812030521426119201e-01,-7.669206794736852309e-03,9.368809380453818267e-03,-2.620353815604892223e-01
4.300000000000000000e+01,-3.302287947690533687e-01,-2.391310159673043223e-01,1.000148996255678657e-01,-7.263794418032923361e-02,8.158179243336043107e-02,1.678021292809479545e-06,-1.085075742462708083e-03,3.457410471266025073e-03,5.484482770307794741e-01,-5.569233846912293590e-03,8.006250930350032602e-03,-2.620356568421813859e-01
4.325000000000000000e+01,-3.390709830874269470e-01,-2.287349324274617623e-01,1.000150726591622491e-01,-6.877431860172603106e-02,8.474007975559744166e-02,9.405973612454041865e-07,-1.114696082282382386e-03,4.451899866894777798e-03,5.156938352273144899e-01,-2.980161106105076382e-03,5.372761071188220452e-03,-2.620333124667369451e-01
4.350000000000000000e+01,-3.473653740198036077e-01,-2.179187946005383680e-01,1.000150987851308737e-01,-6.397998246067027051e-02,8.822004043935109674e-02,-5.345804760533846148e-07,-1.073884734093575851e-03,4.956954042213556830e-03,4.829401191903285318e-01,-4.763958477622652361e-04,2.081409198441447513e-03,-2.620292525572642250e-01
4.375000000000000000e+01,-3.550268147498292781e-01,-2.066691268775075196e-01,1.000149356531658540e-01,-5.874729635801494848e-02,9.161868538745636392e-02,-1.950877079765111099e-06,-9.852960364577624617e-04,4.967173569808977854e-03,4.501871887005927109e-01,1.461565534103996446e-03,-1.124982367882244698e-03,-2.620249470930492430e-01
4.400000000000000000e+01,-3.620329270008378342e-01,-1.950169685486567162e-01,1.000146378165220618e-01,-5.356888145685803626e-02,9.463349091594755458e-02,-2.639175464993444295e-06,-8.759680251543165361e-04,4.577082595315142347e-03,4.174348234113974265e-01,2.546720407593028486e-03,-3.549551786749648250e-03,-2.620216330758092238e-01
4.425000000000000000e+01,-3.684169122642907968e-01,-1.830222063718354442e-01,1.000143125294784135e-01,-4.882883638932560000e-02,9.710443197653681469e-02,-2.441054478957334480e-06,-7.716047199243098982e-04,3.953161611334107643e-03,3.846826980846934640e-01,2.735461222209169697e-03,-4.721218310890901680e-03,-2.620198453834011176e-01
4.450000000000000000e+01,-3.742486128028555958e-01,-1.707551899483708835e-01,1.000140529260716837e-01,-4.472685897358680274e-02,9.901643179732889932e-02,-1.686912122330839876e-06,-6.915975510030371006e-04,3.288547849191169811e-03,3.519305463365163256e-01,2.212761865209540019e-03,-4.527027882826059960e-03,-2.620194505446380440e-01
4.475000000000000000e+01,-3.796094150347809615e-01,-1.582804601063366456e-01,1.000138968236383707e-01,-4.125627040714820171e-02,1.004657920760549245e-01,-8.602494708426302025e-07,-6.458923941359322402e-04,2.751393013267297832e-03,3.191782263946179587e-01,1.313972947902046192e-03,-3.245986184488416915e-03,-2.620199853630363895e-01
4.500000000000000000e+01,-3.845683128253215566e-01,-1.456463104782725893e-01,1.000138306238639724e-01,-3.824198791689002036e-02,1.016041027813136960e-01,-2.687365584006372842e-07,-6.343744200142993226e-04,2.441741686421930024e-03,2.864256978399790099e-01,4.051522726231015972e-04,-1.454667243438247841e-03,-2.620209645158327327e-01
