time_total,x,y,z,vx,vy,vz,roll,pitch,yaw,roll_rate,pitch_rate,yaw_rate
e-01,9.990741576988992900e-02,-1.735987845688923004e-02,-1.297482708989991795e-01,3.708373074877112916e-04,-1.188770512182425612e-03,5.630228551970161560e-03,2.829154283222822475e+00,1.144977300306152315e-02,-2.089662930058359264e-03,-2.620619449733063155e-01
2.500000000000000000e-01,4.996286541546957061e-01,-1.293590708756055252e-01,9.994607661367549412e-02,-2.434793993696008144e-02,-1.290808440829877834e-01,2.582209315176658233e-04,-2.804784389734853167e-03,5.199612961011385211e-03,2.796390769511172270e+00,1.320325670389055697e-02,5.897948820945349323e-04,-2.620172742453917292e-01
5.000000000000000000e-01,4.961365665348181353e-01,-1.455461778563248709e-01,9.997293498465761874e-02,-3.123404410508271584e-02,-1.301100690278591543e-01,1.785654811731138270e-04,-3.879208899314299120e-03,4.424442798522941131e-03,2.763635288915857746e+00,6.799800371779858577e-03,4.911997518072098654e-03,-2.619905533449559676e-01
7.500000000000000000e-01,4.918215030955130906e-01,-1.619276895084266754e-01,9.999138304639001995e-02,-3.743574796430721580e-02,-1.319763905422543793e-01,1.218825999728906199e-04,-3.876755348795002387e-03,3.489931584861536307e-03,2.730887064357895966e+00,-5.025512313741734623e-04,8.505249988912602296e-03,-2.619829595064419592e-01
1.000000000000000000e+00,4.868049556149099399e-01,-1.785382903851060465e-01,1.000039771440793812e-01,-4.243544215350292942e-02,-1.336367676034748986e-01,8.360110008713863802e-05,-3.069561639558326602e-03,2.593011931259049576e-03,2.698141348024019059e+00,-4.482091695725102208e-03,9.339749810679174452e-03,-2.619882762410419841e-01
1.250000000000000000e+00,4.812515489446569927e-01,-1.953086169374058934e-01,1.000127113377070887e-01,-4.608673206718643528e-02,-1.345119972650349882e-01,5.872168355661773752e-05,-2.065219985859735510e-03,1.933371201665748905e-03,2.665394422554261400e+00,-4.745893239747056569e-03,6.813065462224195644e-03,-2.619984609733936876e-01
1.500000000000000000e+00,4.753127795766597941e-01,-2.121335920983288270e-01,1.000189020993763472e-01,-4.872867362798006391e-02,-1.345652793388700530e-01,4.188200591902104772e-05,-1.364943279686630165e-03,1.686886151210975019e-03,2.632645204105563241e+00,-3.251434345932690574e-03,1.848835867608156821e-03,-2.620084454168723487e-01
1.750000000000000000e+00,4.690716710678820567e-01,-2.289240630701994406e-01,1.000233215827926875e-01,-5.107029167157599303e-02,-1.340193465885853863e-01,2.990662549021528446e-05,-1.151354449601026597e-03,1.965156094571987849e-03,2.599893957583380821e+00,-2.214559907420115669e-03,-3.748209525068777262e-03,-2.620168795945617690e-01
2.000000000000000000e+00,4.625125555009502731e-01,-2.456168478910485120e-01,1.000264899050121586e-01,-5.392919835199424389e-02,-1.330239446644325141e-01,2.161440050105793294e-05,-1.314809466220558587e-03,2.774952314227174029e-03,2.567140979491838060e+00,-2.696722259096913550e-03,-8.155026885164687322e-03,-2.620239303181540746e-01
2.250000000000000000e+00,4.555259206316399911e-01,-2.621526783912981884e-01,1.000288142465293045e-01,-5.795355759052476380e-02,-1.314916697101293497e-01,1.612804520140474830e-05,-1.609879613157369320e-03,3.995792165170509828e-03,2.534386635026613988e+00,-4.320277739454323265e-03,-1.016786411799737964e-02,-2.620291358056228703e-01
2.500000000000000000e+00,4.479431897552584863e-01,-2.784480399917269033e-01,1.000305648721255408e-01,-6.343095236721053853e-02,-1.291522828960776637e-01,1.214284679050510494e-05,-1.815869339101532781e-03,5.389695499927371104e-03,2.501631873303951537e+00,-5.838761846383194037e-03,-9.435209677197752692e-03,-2.620312030525014380e-01
2.750000000000000000e+00,4.395870769635126796e-01,-2.943839016155410104e-01,1.000318388373082068e-01,-7.022806791223659695e-02,-1.257438779633269499e-01,8.303840694031665941e-06,-1.824783998115988692e-03,6.645913311509040605e-03,2.468878026591531327e+00,-5.983987789124831959e-03,-6.347879470974045202e-03,-2.620292194767254723e-01
3.000000000000000000e+00,4.303214433535496597e-01,-3.098202095120756727e-01,1.000325979504791962e-01,-7.784966422208637604e-02,-1.212130026531231947e-01,3.887129386161571637e-06,-1.645672984890958436e-03,7.450120336909388588e-03,2.436125985234248947e+00,-4.098323815195972428e-03,-1.759106937775172267e-03,-2.620236597055621841e-01
3.250000000000000000e+00,4.200883030718821076e-01,-3.246303098679779175e-01,1.000327809551415370e-01,-8.557448599283441759e-02,-1.158248679005511733e-01,-7.546702145550451287e-07,-1.357870703619990568e-03,7.558315447047037755e-03,2.403375674725382716e+00,-3.400065491584551569e-04,3.307219419696864633e-03,-2.620163067457391692e-01
3.500000000000000000e+00,4.089254935459276652e-01,-3.387410823418681716e-01,1.000324356575243850e-01,-9.262034104486066566e-02,-1.101482400249699789e-01,-4.348768767150867233e-06,-1.055603532702796814e-03,6.854404134404422193e-03,2.370626301303367711e+00,4.484590585363168631e-03,7.877364653374560599e-03,-2.620093323203955271e-01
3.750000000000000000e+00,3.969639587683032045e-01,-3.521640721014689390e-01,1.000317850913146206e-01,-9.830033650006987644e-02,-1.049370930443279393e-01,-5.547445862664635577e-06,-8.120215225436306630e-04,5.376994360309494438e-03,2.337877001468686267e+00,9.271075482918934157e-03,1.116578218521296385e-02,-2.620042419243425180e-01
4.000000000000000000e+00,3.844074569780622230e-01,-3.650079175403914133e-01,1.000311675233482300e-01,-1.021459635988640341e-01,-1.009608663948078633e-01,-3.968896257557616717e-06,-6.691168239626749809e-04,3.311591207544475543e-03,2.305127326845151980e+00,1.296041130586370396e-02,1.265306712316110332e-02,-2.620012949326309681e-01
4.250000000000000000e+00,3.714997793155811467e-01,-3.774691750139853585e-01,1.000308768155703104e-01,-1.039839201957990789e-01,-9.883629427669940459e-02,-6.546009709339652853e-07,-6.446862981699661484e-04,9.542492194144574190e-04,2.272377351643910970e+00,1.476786187256277048e-02,1.212647218225374433e-02,-2.619997260566256925e-01
4.500000000000000000e+00,3.584856833424830969e-01,-3.898043338542743208e-01,1.000310074420321937e-01,-1.039611602796394058e-01,-9.889780216320376294e-02,2.432801505678575121e-06,-7.432696036859704229e-04,-1.341581861912573758e-03,2.239627501241848062e+00,1.428041394343488625e-02,9.690181126104275428e-03,-2.619986865853580760e-01
4.750000000000000000e+00,3.455720544069458833e-01,-4.022891563892351252e-01,1.000314092352943829e-01,-1.025184175584995805e-01,-1.011239138212162991e-01,3.536853859873465443e-06,-9.622259684315833360e-04,-3.222535341927743394e-03,2.206878228937442898e+00,1.146055117650103192e-02,5.740451724030490657e-03,-2.619983528581453780e-01
5.000000000000000000e+00,3.328954138781722860e-01,-4.151726431871968215e-01,1.000317838127920550e-01,-1.003181350593242011e-01,-1.051225354225663738e-01,2.124002655254598103e-06,-1.291127143190643790e-03,-4.387348365620143652e-03,2.174129623731298810e+00,6.604664989852544223e-03,9.004135137248776063e-04,-2.620004180777651404e-01
5.250000000000000000e+00,3.205007680100874778e-01,-4.286327241224667239e-01,1.000318661645034357e-01,-9.813865786233756661e-02,-1.101703427151648901e-01,-8.135257712944785395e-07,-1.707745460386196493e-03,-4.627466697914640360e-03,2.141381094952831798e+00,2.861229288065881551e-04,-4.081527446157881198e-03,-2.620074653403682841e-01
5.500000000000000000e+00,3.083349623106932946e-01,-4.427399465929676703e-01,1.000315876539776272e-01,-9.675166252189387750e-02,-1.152983155758253997e-01,-3.310176326461203059e-06,-2.175280109697991932e-03,-3.853389530758876552e-03,2.108631357045665400e+00,-6.711180520484401855e-03,-8.454500289313746780e-03,-2.620214073796656717e-01
5.750000000000000000e+00,2.962553712946912610e-01,-4.574342977328510473e-01,1.000311303164759108e-01,-9.680262747456029604e-02,-1.194132131900668553e-01,-3.513622624976456645e-06,-2.643843356478770869e-03,-2.105617073973261276e-03,2.075878853074808905e+00,-1.347735372159789870e-02,-1.158732365755920334e-02,-2.620418253209977899e-01
6.000000000000000000e+00,2.840522704368375617e-01,-4.725188166998154915e-01,1.000308412914168027e-01,-9.871370124885930908e-02,-1.214413687690395482e-01,-7.366753649073854948e-07,-3.056518708351484929e-03,4.503167906580629772e-04,2.043122501041788386e+00,-1.908775541126867328e-02,-1.306820930629517923e-02,-2.620652153629406400e-01
6.250000000000000000e+00,2.714810324428737487e-01,-4.876716654802502604e-01,1.000310482272554619e-01,-1.026244853063304902e-01,-1.204767058257393691e-01,4.064558632033109547e-06,-3.358167924073052462e-03,3.544831349624978298e-03,2.010362401998419202e+00,-2.273834693447443836e-02,-1.276512263623529909e-02,-2.620857425378524397e-01
6.500000000000000000e+00,2.582987524087754228e-01,-5.024758014375497739e-01,1.000318685649941308e-01,-1.083796587637813197e-01,-1.159111143712952818e-01,8.655648192625334871e-06,-3.504355493478045983e-03,6.840237239111806623e-03,1.977600105130260300e+00,-2.388607399969284312e-02,-1.083666742804623162e-02,-2.620973284515644708e-01
6.750000000000000000e+00,2.442993124630812307e-01,-5.164625777182093591e-01,1.000331134565301677e-01,-1.155641257283427648e-01,-1.075247188036698581e-01,1.058987746588121827e-05,-3.468151218777803645e-03,9.978108029549372787e-03,1.944838229018268638e+00,-2.236085817956259478e-02,-7.690775360172427862e-03,-2.620961658548519591e-01
7.000000000000000000e+00,2.293413687049246918e-01,-5.291630239458089413e-01,1.000343430373856618e-01,-1.235778058874634350e-01,-9.551813912647218185e-02,8.447827695838971754e-06,-3.243574094244645444e-03,1.263123023408474661e-02,1.912079570437718479e+00,-1.841181785469734114e-02,-3.897418452551535458e-03,-2.620824428290614572e-01
7.250000000000000000e+00,2.133652214396968838e-01,-5.401589280307594887e-01,1.000350511429150130e-01,-1.317348938586985485e-01,-8.047905459738921574e-02,2.582593441946300426e-06,-2.845459700375894269e-03,1.455049737448336003e-02,1.879326098703225867e+00,-1.266285402299045446e-02,-7.225065172246629853e-05,-2.620603807281626230e-01
7.500000000000000000e+00,1.963967446142308171e-01,-5.491257574493823013e-01,1.000348859968859111e-01,-1.393680985327550303e-01,-6.328930850735435543e-02,-5.049349289817350003e-06,-2.306248549279499814e-03,1.559671760607893830e-02,1.846578287196560364e+00,-5.979971770363893928e-03,3.242573076258903168e-03,-2.620365314112394484e-01
7.750000000000000000e+00,1.785390342304659927e-01,-5.558611457373879849e-01,1.000337938758921186e-01,-1.459183960491997056e-01,-4.499240982540976541e-02,-1.185848330045646778e-05,-1.670583125525147358e-03,1.575029324458942365e-02,1.813835052470342601e+00,7.162676929939335371e-04,5.671333602286369839e-03,-2.620171892590263951e-01
8.000000000000000000e+00,1.599546141081978068e-01,-5.602957858734775032e-01,1.000320200047471186e-01,-1.509954635481695617e-01,-2.664999059260731579e-02,-1.581082704930974689e-05,-9.887903225827363723e-04,1.509746665895043451e-02,1.781094265866165260e+00,6.639682150281375067e-03,7.049395701956926580e-03,-2.620061957708483269e-01
8.250000000000000000e+00,1.408423971736519065e-01,-5.624872792805086785e-01,1.000299834897990653e-01,-1.544019916525406488e-01,-9.216520571302412243e-03,-1.617970281842178273e-05,-3.104008150258992646e-04,1.379814939533053654e-02,1.748353547677478526e+00,1.127662431158908858e-02,7.412900605219737218e-03,-2.620040883186056102e-01
8.500000000000000000e+00,1.214138646593261039e-01,-5.626007581340786157e-01,1.000281056010756536e-01,-1.561240776716992795e-01,6.545628959696899590e-03,-1.355611898892031862e-05,3.212064457709094844e-04,1.204472305127394713e-02,1.715610980126540897e+00,1.444255083182290587e-02,6.944126798740504411e-03,-2.620087249511545702e-01
8.750000000000000000e+00,1.018721507761517486e-01,-5.608821023253324212e-01,1.000266774632870836e-01,-1.562971647566793465e-01,2.010087739231047888e-02,-9.286544599300135583e-06,8.722155027944139289e-04,1.002215261620553396e-02,1.682865491676607705e+00,1.625563982678643674e-02,5.894825154421420334e-03,-2.620167695789378248e-01
9.000000000000000000e+00,8.239626033428225360e-02,-5.576299642635478282e-01,1.000258121584007565e-01,-1.551606132224823686e-01,3.112783760141613759e-02,-4.763721789525516996e-06,1.319486662019047143e-03,7.877595127209650189e-03,1.650116869555801502e+00,1.704890646950052782e-02,4.511888134147718464e-03,-2.620251699543433288e-01
9.250000000000000000e+00,6.313099948026722197e-02,-5.531717627733762077e-01,1.000254741771519212e-01,-1.530135616152435152e-01,3.947228850514356013e-02,-9.337748485641967743e-07,1.649556317220780832e-03,5.704067353815419836e-03,1.617365522879871564e+00,1.725019413804362509e-02,2.983684375896036422e-03,-2.620320142088247151e-01
9.500000000000000000e+00,4.418182145966238067e-02,-5.478468005049559331e-01,1.000255482911112243e-01,-1.501811932008528250e-01,4.508404151492476780e-02,1.851957878772531211e-06,1.856156436173930389e-03,3.539458215641463120e-03,1.584612177338039052e+00,1.725462023999514705e-02,1.416353905146775644e-03,-2.620366142123025655e-01
9.750000000000000000e+00,2.561297383847069287e-02,-5.419972369283238001e-01,1.000259079781964655e-01,-1.469953644589836461e-01,4.795751966900019259e-02,3.712510853724731037e-06,1.937137733929703920e-03,1.380074375340482450e-03,1.551857644743966480e+00,1.730640369475908158e-02,-1.582457674484834525e-04,-2.620390332301805181e-01
1.000000000000000000e+01,7.447194070356876437e-03,-5.359652368130445321e-01,1.000264582789015949e-01,-1.437880913130739347e-01,4.809444152098808767e-02,4.979065804703169849e-06,1.891715189860684876e-03,-7.935245226344225973e-04,1.519102728041632044e+00,1.740645603704416011e-02,-1.746620505148035974e-03,-2.620394357925434625e-01
1.025000000000000000e+01,-1.033429050342070214e-02,-5.300925532709735988e-01,1.000271437339526753e-01,-1.408915944492970251e-01,4.550281208281429374e-02,5.908640527463002404e-06,1.718814934024410481e-03,-2.982641579841845830e-03,1.486348239227933021e+00,1.726992366931931477e-02,-3.338919110990383205e-03,-2.620376372700298773e-01
1.050000000000000000e+01,-2.779168758710245934e-02,-5.247174956983653438e-01,1.000279225156505136e-01,-1.386354415627281678e-01,4.023850226309366035e-02,6.440046782470204764e-06,1.417039794769856843e-03,-5.135937240599612423e-03,1.453595044776897272e+00,1.636409159105153832e-02,-4.852063492633763853e-03,-2.620331405259260227e-01
1.075000000000000000e+01,-4.502548045072192473e-02,-5.201642017961620734e-01,1.000287178554783996e-01,-1.373310270808222877e-01,3.248334505351363477e-02,6.092207336364500532e-06,9.864169487853989299e-04,-7.125098624232569129e-03,1.420844021290843306e+00,1.404705106735440814e-02,-6.094576118931690004e-03,-2.620257639789017601e-01
1.100000000000000000e+01,-6.217214935250106600e-02,-5.167208606506881186e-01,1.000293742692198035e-01,-1.372373424370809947e-01,2.263853232505889934e-02,4.158764493854190108e-06,4.316597406227636199e-04,-8.742518961091523544e-03,1.388095824442558524e+00,9.794267774960625783e-03,-6.777435484122673430e-03,-2.620166438862113201e-01
1.125000000000000000e+01,-7.939444871723765063e-02,-5.146070812828714702e-01,1.000296626840796871e-01,-1.385097563632133322e-01,1.139911830638371676e-02,2.773298461017549478e-07,-2.337982901518282502e-04,-9.729058756671477709e-03,1.355350473918022436e+00,3.453933508368400504e-03,-6.583193378431616977e-03,-2.620089865711235921e-01
1.150000000000000000e+01,-9.686476082990549963e-02,-5.139352618367502012e-01,1.000293704217321555e-01,-1.411433533393885442e-01,-2.285872475833421050e-04,-4.860870484576721432e-06,-9.841690840177467689e-04,-9.830996181384351815e-03,1.322606927561623236e+00,-4.562397549209017827e-03,-5.281761093160812666e-03,-2.620077235666738447e-01
1.175000000000000000e+01,-1.147420481806721015e-01,-5.146751034491108268e-01,1.000284573791738046e-01,-1.449303475073624725e-01,-1.099495717134552596e-02,-9.262903138866029377e-06,-1.779492729558398425e-03,-8.873776023400212210e-03,1.289862968231981988e+00,-1.324562442645744152e-02,-2.855260896844804674e-03,-2.620175713987862864e-01
1.200000000000000000e+01,-1.331455646745264843e-01,-5.166325234757312979e-01,1.000271804280091215e-01,-1.494528821292245291e-01,-1.956473538293404535e-02,-1.040967900421373363e-05,-2.566945511249014208e-03,-6.830934088883362787e-03,1.257115700966661365e+00,-2.115757375965675313e-02,4.202177434013291751e-04,-2.620400322025745465e-01
1.225000000000000000e+01,-1.521308002498338030e-01,-5.194528049779200130e-01,1.000260577926451316e-01,-1.541256943443763405e-01,-2.473810407366945976e-02,-6.900175960296680549e-06,-3.285975588735182140e-03,-3.864201896669604720e-03,1.224362658853982877e+00,-2.677429228036026093e-02,3.981366402182065500e-03,-2.620710413863898691e-01
1.250000000000000000e+01,-1.716740733261457597e-01,-5.226527070978078671e-01,1.000256281690463100e-01,-1.582887070256615292e-01,-2.568232404518872719e-02,1.388921733352771235e-07,-3.876879801453589434e-03,-3.172726256543866507e-04,1.191603060371953848e+00,-2.890506199745908680e-02,7.089838434240330542e-03,-2.621012249816208062e-01
1.275000000000000000e+01,-1.916710649053696147e-01,-5.256787414010827275e-01,1.000261232003837181e-01,-1.613321485797430399e-01,-2.211005219368578772e-02,7.193307022350922865e-06,-4.291171650853700670e-03,3.340698836177442409e-03,1.158838483797762775e+00,-2.705114312282524969e-02,9.026418143223330359e-03,-2.621194249145769595e-01
1.300000000000000000e+01,-2.119514383998261642e-01,-5.279812439484701247e-01,1.000272815576895430e-01,-1.628227983286011926e-01,-1.435022466737036727e-02,1.033850731898125449e-05,-4.501172814805502916e-03,6.609798486501885714e-03,1.126072431489321790e+00,-2.158195432800967539e-02,9.307850238431903886e-03,-2.621179182772986893e-01
1.325000000000000000e+01,-2.323073438594779883e-01,-5.290887810889554066e-01,1.000284663897652859e-01,-1.625952992779218509e-01,-3.285684839597093759e-03,7.783828651514298688e-06,-4.506120926755535772e-03,9.067499525319889717e-03,1.093308905044725554e+00,-1.366561573842977641e-02,7.851633036318743375e-03,-2.620962855011331749e-01
1.350000000000000000e+01,-2.525294513461490697e-01,-5.286665924974770503e-01,1.000290310513335251e-01,-1.607798869239676076e-01,9.830688311459780462e-03,1.060341553976420723e-06,-4.332834323422411066e-03,1.046057004947488142e-02,1.060550758081526102e+00,-4.972563980157929803e-03,5.027258349497670115e-03,-2.620615211287654067e-01
1.375000000000000000e+01,-2.724416351869812791e-01,-5.265465647533899007e-01,1.000286855432684779e-01,-1.577555527160097448e-01,2.363517515046415982e-02,-6.084108579251022241e-06,-4.030387544598531060e-03,1.075555583552128755e-02,1.027798733709011092e+00,2.755259989297032669e-03,1.569991923495811254e-03,-2.620244156888194564e-01
1.400000000000000000e+01,-2.919254815495029298e-01,-5.227234952660448908e-01,1.000276166784770243e-01,-1.540398263359033237e-01,3.692138762500531829e-02,-1.019186092447501344e-05,-3.659897827649508453e-03,1.013495244702647576e-02,9.950516110561953287e-01,8.136851714247725700e-03,-1.618885585372761143e-03,-2.619946105820076809e-01
1.425000000000000000e+01,-3.109284931815993192e-01,-5.173209137676629821e-01,1.000263091285931855e-01,-1.501454489871004438e-01,4.885115805882923878e-02,-1.007219517739706075e-05,-3.281898551525541056e-03,8.942117178237785069e-03,9.623071647039397325e-01,1.045926836256882986e-02,-3.721943729393143233e-03,-2.619772327509904963e-01
1.450000000000000000e+01,-3.294543872047975275e-01,-5.105369300762604423e-01,1.000252325929735786e-01,-1.464437252528335842e-01,5.906131311923559779e-02,-6.934918472033331136e-06,-2.944439784715245992e-03,7.592240738642382601e-03,9.295632326326165318e-01,9.780370270495965940e-03,-4.226059528673321158e-03,-2.619724711155757002e-01
1.475000000000000000e+01,-3.475387892934373446e-01,-5.025844670313724949e-01,1.000246237947944594e-01,-1.430712783376206221e-01,6.765104394370997920e-02,-2.966618089592685868e-06,-2.674781172485433262e-03,6.474840080488743210e-03,8.968183336170713060e-01,6.818114520012632900e-03,-3.046381485938499424e-03,-2.619773377193579944e-01
1.500000000000000000e+01,-3.652173965890884721e-01,-4.936399772526919305e-01,1.000244732176594209e-01,-1.399027589140183214e-01,7.506753090618872859e-02,2.620940242591838484e-07,-2.476430549706129525e-03,5.873122139459317076e-03,8.640717445459035195e-01,2.683836570145383803e-03,-5.223427431487056259e-04,-2.619878326694984327e-01
1.525000000000000000e+01,-3.824952340720078059e-01,-4.838108449779167097e-01,1.000246535269481013e-01,-1.365920668617826295e-01,8.193155721037290173e-02,2.389619898062717635e-06,-2.331741875857693685e-03,5.917946393072942568e-03,8.313233114017324343e-01,-1.442826751887811045e-03,2.701111726105656034e-03,-2.620002477183867029e-01
1.550000000000000000e+01,-3.993246875217294489e-01,-4.731257085848248334e-01,1.000250469374153461e-01,-1.326658591008156030e-01,8.885378968551720102e-02,3.768085949578839588e-06,-2.208848004258193859e-03,6.582181856368657727e-03,7.985732886555731991e-01,-4.596803964062342110e-03,5.857622388870491192e-03,-2.620115272444799581e-01
1.575000000000000000e+01,-4.155971222516651742e-01,-4.615458877850600050e-01,1.000255800593078254e-01,-1.276415158001746042e-01,9.628577092890848454e-02,4.643489654793278165e-06,-2.070791286689117536e-03,7.709401902344374842e-03,7.658222841776116674e-01,-6.198975514320709083e-03,8.245474388158811549e-03,-2.620193222535161515e-01
1.600000000000000000e+01,-4.311492011364946864e-01,-4.489916418070172832e-01,1.000261794335656207e-01,-1.211399505486674966e-01,1.044322937989195094e-01,4.778675535120780508e-06,-1.884509860710825236e-03,9.063109699533422256e-03,7.330711945292689435e-01,-6.096359188978881134e-03,9.364556541177274443e-03,-2.620222339795501010e-01
1.625000000000000000e+01,-4.457816699531947369e-01,-4.353749828434752001e-01,1.000267216178860191e-01,-1.129702216504834406e-01,1.132313325972147955e-01,3.697179895490782284e-06,-1.627771349005566279e-03,1.038097163451250776e-02,7.003210081079461746e-01,-4.496407968731959241e-03,8.981815499049181084e-03,-2.620201932786840326e-01
1.650000000000000000e+01,-4.592861727185735266e-01,-4.206311405767254596e-01,1.000270361192870799e-01,-1.031736375729266214e-01,1.223910325216010647e-01,1.194781856884273404e-06,-1.292976402932021450e-03,1.142194349893812036e-02,6.675724872340192961e-01,-1.844025716067798594e-03,7.131033319426148889e-03,-2.620145891445638253e-01
1.675000000000000000e+01,-4.714748186725175594e-01,-4.047427621603981729e-01,1.000269642281659543e-01,-9.202551806949627045e-02,1.314640896743327902e-01,-2.332459442694186438e-06,-8.876728603308188959e-04,1.199989321630505479e-02,6.348258675915596783e-01,1.311275657931585716e-03,4.068525348461768908e-03,-2.620078728428507087e-01
1.700000000000000000e+01,-4.822075143762208360e-01,-3.877535700569427202e-01,1.000264339843789929e-01,-8.000027687006124044e-02,1.399381094561729100e-01,-5.953178537960166468e-06,-4.323571075931387383e-04,1.200244506436749618e-02,6.020807323612545892e-01,4.427708599613560878e-03,2.067458079978814524e-04,-2.620027142925070995e-01
1.725000000000000000e+01,-4.914130825578215123e-01,-3.697707086558393863e-01,1.000255048605828284e-01,-6.770967586625148416e-02,1.473236551385794790e-01,-8.578588737460062161e-06,4.345677413606267256e-05,1.139652105825652260e-02,5.693361325854660038e-01,7.052822252781202478e-03,-3.961930079923246632e-03,-2.620010603106777136e-01
1.750000000000000000e+01,-4.991015705846706951e-01,-3.509569836702718937e-01,1.000243573315703211e-01,-5.582621431472094969e-02,1.532266346692317260e-01,-9.421205105572224005e-06,5.058519328009776061e-04,1.022247402988233321e-02,5.365909049598983627e-01,8.876116441953412969e-03,-7.947486397918434448e-03,-2.620034925601696374e-01
1.775000000000000000e+01,-5.053667340168530586e-01,-3.315155472611920340e-01,1.000232328496210715e-01,-4.500485966602314758e-02,1.573965634170031713e-01,-8.301888503257345964e-06,9.209276341017143741e-04,8.578383649089658947e-03,5.038440534000372395e-01,9.754816869972969887e-03,-1.134503615160261346e-02,-2.620091367017764461e-01
1.800000000000000000e+01,-5.103793589873867331e-01,-3.116703395768822826e-01,1.000223532559413042e-01,-3.581646917250694284e-02,1.597468944017496340e-01,-5.670520523387530466e-06,1.258412480913730265e-03,6.596860600095897850e-03,4.710950458915439398e-01,9.709959791895482126e-03,-1.390112627787434309e-02,-2.620161257061752180e-01
1.825000000000000000e+01,-5.143736289404249318e-01,-2.916457567215326452e-01,1.000218561078578955e-01,-2.870371398925087789e-02,1.603485927823114499e-01,-2.355570855499985967e-06,1.494135483421667882e-03,4.419034064191383615e-03,4.383439304334379449e-01,8.889774451165699878e-03,-1.553792284997352821e-02,-2.620223704808947729e-01
1.850000000000000000e+01,-5.176297181919610191e-01,-2.716485302718300576e-01,1.000217708216803170e-01,-2.396389106491062654e-02,1.594033111499381927e-01,8.004905188184317313e-07,1.611257963023905899e-03,2.172777917800728948e-03,4.055912620993020745e-01,7.506581353635199266e-03,-1.631648671788725816e-02,-2.620262597626987766e-01
1.875000000000000000e+01,-5.204557588900408094e-01,-2.518537318628349397e-01,1.000220364006097346e-01,-2.175373729306804074e-02,1.572064435617538947e-01,3.213920581405394904e-06,1.600388253704667632e-03,-3.767936003651134268e-05,3.728379103646881076e-01,5.766896845263971318e-03,-1.634489303969796289e-02,-2.620269943611829300e-01
1.900000000000000000e+01,-5.231711370196148181e-01,-2.323954447071597540e-01,1.000225398950398831e-01,-2.210287910381485144e-02,1.541110362687525270e-01,4.617840518702914404e-06,1.458915214814997035e-03,-2.127119221432511014e-03,3.400848414146053211e-01,3.821584591645153708e-03,-1.566711112462893657e-02,-2.620245274081551279e-01
1.925000000000000000e+01,-5.260911219325924426e-01,-2.133614526424225666e-01,1.000231492702448877e-01,-2.491938094616188634e-02,1.505000887435579970e-01,4.938698803150056795e-06,1.190075998507237037e-03,-4.012290192892161399e-03,3.073329359699317753e-01,1.756754765903623637e-03,-1.418708679367520695e-02,-2.620193509721958636e-01
1.950000000000000000e+01,-5.295110000846739995e-01,-1.947907544197901575e-01,1.000237270726358485e-01,-2.997584471295722600e-02,1.467683141820856629e-01,4.143938445057042433e-06,8.023342900567744223e-04,-5.591489363105459597e-03,2.745828413030593773e-01,-3.721478426456386766e-04,-1.167682800874565024e-02,-2.620124326578496254e-01
1.975000000000000000e+01,-5.336871813630171824e-01,-1.766730181056655746e-01,1.000241326275124326e-01,-3.687690961923876382e-02,1.433078749135146546e-01,2.229099814379054797e-06,3.094961319499649308e-04,-6.733214130536099677e-03,2.418348189144944038e-01,-2.482670425274686316e-03,-7.885531413186246813e-03,-2.620053938744146826e-01
2.000000000000000000e+01,-5.388138351900927381e-01,-1.589500349574034799e-01,1.000242360291261345e-01,-4.502411473094924954e-02,1.404893653609069204e-01,-5.911246427453087034e-07,-2.683915150201472287e-04,-7.284480705633551018e-03,2.090885746966321679e-01,-4.418214814094103063e-03,-2.719422003012387633e-03,-2.620006688990284549e-01
2.025000000000000000e+01,-5.449963856058464007e-01,-1.415202420256733706e-01,1.000239631660570921e-01,-5.360481699122186805e-02,1.386314898409080898e-01,-3.620004492537451146e-06,-9.038334675609158110e-04,-7.102154355399246770e-03,1.763431398682225593e-01,-5.943744369749632758e-03,3.580129953306345793e-03,-2.620011684126790086e-01
2.050000000000000000e+01,-5.522266623912608363e-01,-1.242477826828323750e-01,1.000233618091253412e-01,-6.163180456646703831e-02,1.379599754391913902e-01,-5.654742769580406321e-06,-1.561298222697740049e-03,-6.100484492594412944e-03,1.435969473710338729e-01,-6.797377281571767051e-03,1.034663195914015121e-02,-2.620091540017217002e-01
2.075000000000000000e+01,-5.603671170590605044e-01,-1.069769317604430947e-01,1.000226395212702180e-01,-6.804714107333138806e-02,1.385650896636105300e-01,-5.466100841883606179e-06,-2.198328339267555716e-03,-4.299327352165985966e-03,1.108482293109930156e-01,-6.782717715746332601e-03,1.654757154617011311e-02,-2.620246337558308491e-01
2.100000000000000000e+01,-5.691518128498471718e-01,-8.955109642790018420e-02,1.000221127572692437e-01,-7.188130071273496347e-02,1.403732250395615666e-01,-2.662431578965065829e-06,-2.769109696866921440e-03,-1.854335196960378920e-03,7.809569692522799755e-02,-5.863839060984855217e-03,2.099777353607510180e-02,-2.620442460017449737e-01
2.125000000000000000e+01,-5.782092250684636170e-01,-7.183360820817377701e-02,1.000220543273962343e-01,-7.243520987761992158e-02,1.431478092221731835e-01,1.668758759907126143e-06,-3.230482984653231578e-03,9.456134742085231309e-04,4.533922483409728171e-02,-4.218908404054583575e-03,2.267087641275799745e-02,-2.620617045185796856e-01
2.150000000000000000e+01,-5.871067402770575594e-01,-5.372601971544626459e-02,1.000225143832590008e-01,-6.943778434912634134e-02,1.465274791791575382e-01,5.233556918905279125e-06,-3.549389248523648292e-03,3.718727486453081606e-03,1.258013062331520687e-02,-2.222568148232412309e-03,2.101231453141328559e-02,-2.620700984498992026e-01
2.175000000000000000e+01,-5.954106262464441413e-01,-3.517937721672980550e-02,1.000232447824741799e-01,-6.313121505101945696e-02,1.500974155979214741e-01,5.819341180193648045e-06,-3.709930677900684978e-03,6.061478075613894838e-03,-2.017921605801372559e-02,-3.547373792563024040e-04,1.615167908697323976e-02,-2.620650575760832268e-01
2.200000000000000000e+01,-6.027501130961567810e-01,-1.619526685603084673e-02,1.000238109886935900e-01,-5.425150897062012284e-02,1.534775119559669554e-01,2.809875937756588295e-06,-3.717954844993611417e-03,7.633799232478707432e-03,-5.293633390650246545e-02,9.374527697926112423e-04,8.941508071056789714e-03,-2.620469719562220634e-01
2.225000000000000000e+01,-6.088717923993098857e-01,3.183964497540903941e-03,1.000238434945264071e-01,-4.389823474467864639e-02,1.564034000707393568e-01,-2.240427083559131383e-06,-3.601485825039131821e-03,8.236490562296208684e-03,-8.568962701065156728e-02,1.378845798875031952e-03,8.011276208077561158e-04,-2.620208678707982020e-01
2.250000000000000000e+01,-6.136717209484033875e-01,2.289332874464480513e-02,1.000232634865835663e-01,-3.331724042129369234e-02,1.587763615655155280e-01,-6.543237441109378278e-06,-3.406329468114901917e-03,7.860171578409081913e-03,-1.184388876941047108e-01,9.583558094352304666e-04,-6.599564316001644594e-03,-2.619940213539920237e-01
2.275000000000000000e+01,-6.171972712226944102e-01,4.286661907050613729e-02,1.000223210685919351e-01,-2.364470284163740915e-02,1.606662107529661099e-01,-7.915106999300861352e-06,-3.187477843911447860e-03,6.691952851210796437e-03,-1.511850846366478152e-01,-5.984280967294442757e-05,-1.173519656250821691e-02,-2.619728498091937752e-01
2.300000000000000000e+01,-6.196177619727616381e-01,6.305495727360371783e-02,1.000214194447289345e-01,-1.567310034722119855e-02,1.622649795138177420e-01,-6.142217416267694495e-06,-2.998135271613706649e-03,5.076680553381688644e-03,-1.839296914627907287e-01,-1.213349933399120433e-03,-1.359293690583459474e-02,-2.619609285170479418e-01
2.325000000000000000e+01,-6.211703920560073255e-01,8.343700296721712206e-02,1.000208600419764254e-01,-9.695679927752866301e-03,1.638043161276253046e-01,-2.848517593436169978e-06,-2.878907393924928261e-03,3.441495226838909779e-03,-2.166740614384791985e-01,-1.984023075909601211e-03,-1.191185452932828903e-02,-2.619589322167630296e-01
2.350000000000000000e+01,-6.220939558330174091e-01,1.040177346942721265e-01,1.000207568011843851e-01,-5.468372321205579485e-03,1.654530311835781531e-01,6.012975046159987765e-06,-2.322483252645168861e-03,2.198645191531499368e-03,-2.487517017203347558e-01,4.788596882618115225e-02,-2.030795508650455952e-02,-1.933629884983794622e-01
2.375000000000000000e+01,-6.226787394831515554e-01,1.244063730075915530e-01,1.000287945300331049e-01,-5.256252980196067862e-03,1.565422353041068249e-01,2.086088077630900779e-04,2.148577927991414047e-02,1.214878307112724539e-03,-2.469201648982052577e-01,2.563015861557263464e-01,-7.305830564084264678e-02,1.400167233056691662e-01
2.400000000000000000e+01,-6.238470433410556737e-01,1.415085143155414560e-01,1.000873227882587702e-01,-1.469200981688603691e-02,1.122332149729233647e-01,6.341911965220704134e-04,5.288074374703546909e-02,1.540224822196533110e-04,-2.224707754082581312e-01,1.969708962041969991e-01,-5.318729373889201362e-02,2.289085566532032268e-01
2.425000000000000000e+01,-6.266690163945941583e-01,1.509679860784914895e-01,1.001453178563389002e-01,-3.036392979886015295e-02,3.853927595117571242e-02,1.484233930088730701e-04,6.700423012234617282e-02,-5.790589564690587108e-04,-1.919801169479287140e-01,2.149755650779676050e-02,-6.455503515241632802e-03,2.531663933916805109e-01
2.450000000000000000e+01,-6.314480123997402439e-01,1.506388863816368884e-01,1.001087591826111955e-01,-4.484651203502277445e-02,-3.978361964572305065e-02,-6.384976366619601537e-04,5.906528402068404043e-02,-6.457388058423592077e-05,-1.598000841263985949e-01,-1.274734762204108307e-01,3.148363845723312765e-02,2.600371146185228577e-01
2.475000000000000000e+01,-6.376393390096636304e-01,1.414924569390421938e-01,1.000171872266751305e-01,-5.256956349052455124e-02,-1.003800043243917861e-01,-6.852312834603947094e-04,3.811840879904673796e-02,2.156951711362232408e-03,-1.271665709325359994e-01,-1.801404330735276726e-01,4.700125077813175484e-02,2.619542343946925089e-01
2.500000000000000000e+01,-6.442452922336490140e-01,1.264744520190212440e-01,9.995991826142108794e-02,-5.177263007678638979e-02,-1.343959605107401811e-01,-2.257058139243168691e-04,1.671783002073250896e-02,5.574935620791391863e-03,-9.446249147489936548e-02,-1.440162244784281287e-01,4.303539705041584812e-02,2.624635296897144254e-01
2.525000000000000000e+01,-6.502603814117351444e-01,1.087302962414909840e-01,9.995554114542337665e-02,-4.373384820821100971e-02,-1.462604439466111683e-01,9.307012600422768340e-05,3.187422220611203436e-03,9.022815156955804258e-03,-6.174284801314465498e-02,-6.792319050616817122e-02,2.883782894142589495e-02,2.625504328959772926e-01
2.550000000000000000e+01,-6.549434806451590596e-01,9.035247276195694510e-02,9.997224681134485313e-02,-3.108202639557485283e-02,-1.468280654929127460e-01,1.415648702804964056e-04,-8.309825427459947064e-04,1.137539036104932844e-02,-2.896967028920295270e-02,-1.354827698019586864e-03,1.278627504659192969e-02,2.624357894923309287e-01
2.575000000000000000e+01,-6.578918491414311731e-01,7.207346958384734659e-02,9.998745611364256991e-02,-1.643540768062826812e-02,-1.460217045718021633e-01,1.012969174442746175e-04,1.414340506049028895e-03,1.209899540993402030e-02,3.848429963389932065e-03,2.998012879769956784e-02,-3.751671130753206265e-04,2.622240490221430798e-01
2.600000000000000000e+01,-6.589912704860351189e-01,5.368586458250470400e-02,9.999790986587153707e-02,-1.764381913647100446e-03,-1.488057145114194124e-01,6.914491854421742707e-05,5.252397272759831010e-03,1.135878512656005382e-02,3.665861055645546623e-02,2.728025476448037515e-02,-9.229432077550959665e-03,2.620291112074939477e-01
2.625000000000000000e+01,-6.583262693004219290e-01,3.470221480477209131e-02,1.000047971220760640e-01,1.168003829220092167e-02,-1.551186988195744076e-01,4.197009016924627578e-05,7.365529277276415369e-03,9.743662957988681594e-03,6.942700459736207697e-02,7.321181440062874551e-03,-1.414777892068681299e-02,2.619215239293279929e-01
2.650000000000000000e+01,-6.561000587917262816e-01,1.484571904032811092e-02,1.000084755471131598e-01,2.319846900749262739e-02,-1.622162698044102014e-01,1.944483967674667064e-05,6.799023258743241635e-03,7.875235101690140210e-03,1.021607440714910192e-01,-1.185447867714643083e-02,-1.602856114998846282e-02,2.619053253857189234e-01
2.675000000000000000e+01,-6.525774359345225539e-01,-5.792169003243758350e-03,1.000102185563825352e-01,3.246869038293774545e-02,-1.673294213675724507e-01,1.122574039731420163e-05,4.430544504137637687e-03,6.141810213154032770e-03,1.348846415605095550e-01,-2.009647755295486740e-02,-1.575535081144682770e-02,2.619433352774973023e-01
2.700000000000000000e+01,-6.480452663185545248e-01,-2.686484835039194483e-02,1.000116915093334502e-01,3.943797060198791365e-02,-1.692311046569646427e-01,1.294264010866251930e-05,1.777186620034385640e-03,4.650735415414073391e-03,1.676164658117075545e-01,-1.682721561027827883e-02,-1.408820149563520287e-02,2.619922323234755157e-01
2.725000000000000000e+01,-6.427830768118846239e-01,-4.798671873259482273e-02,1.000134206683129523e-01,4.426080557514935898e-02,-1.683955127716802447e-01,1.406380602426522271e-05,-1.677969530950709011e-05,3.344791025806282628e-03,2.003605873387630243e-01,-7.448170728026385322e-03,-1.165118705830120796e-02,2.620254828282528869e-01
2.750000000000000000e+01,-6.370405290056735392e-01,-6.890250264673378200e-02,1.000150565607604569e-01,4.724640232397259859e-02,-1.662392100918482774e-01,1.181690581713009973e-05,-5.973362022141234448e-04,2.158927809262484437e-03,2.331130762629515796e-01,1.663373299436849339e-03,-8.892079603419342920e-03,2.620382770354253155e-01
2.775000000000000000e+01,-6.310216236886356800e-01,-8.954258241170087729e-02,1.000163408117224900e-01,4.880369224085173707e-02,-1.641769610440887428e-01,8.929408063551687519e-06,-2.649313893420953358e-04,1.114437729357314584e-03,2.658684436638861781e-01,6.601803380588180600e-03,-6.055954873873248615e-03,2.620386706818883527e-01
2.800000000000000000e+01,-6.248756012369064416e-01,-1.099787571489873467e-01,1.000173143206314758e-01,4.939069614166338718e-02,-1.630183256240579082e-01,6.826293967617177858e-06,4.228816261234691039e-04,3.166413408488007826e-04,2.986235675357444830e-01,6.815925175402888850e-03,-3.240798767296960807e-03,2.620359400090590540e-01
2.825000000000000000e+01,-6.186934916487857317e-01,-1.303366843353979676e-01,1.000180500447638982e-01,4.947463577526016454e-02,-1.628574814896575629e-01,5.003745548965956055e-06,1.011382292355974839e-03,-1.139713351918962900e-04,3.313780096977841927e-01,4.055898655628236218e-03,-5.263534364023846274e-04,2.620348087617528354e-01
2.850000000000000000e+01,-6.125091379055422891e-01,-1.507197046382625361e-01,1.000185584310321202e-01,4.949853774252452321e-02,-1.633155431866928908e-01,3.224189991797494425e-06,1.312543240413804966e-03,-1.200281700614637008e-04,3.641323681665762368e-01,6.762155075268623094e-04,1.909604864149047317e-03,2.620359311545714665e-01
2.875000000000000000e+01,-6.063045007235805528e-01,-1.711722800944542322e-01,1.000188689072504800e-01,4.984488087653010657e-02,-1.638881958857821008e-01,1.896422853203557433e-06,1.374098065951371347e-03,2.513101128849706627e-04,3.968870041311258756e-01,-1.644918474086917715e-03,3.776318135614896345e-03,2.620383154722717434e-01
2.900000000000000000e+01,-6.000199036102766836e-01,-1.916825786676413790e-01,1.000190562832899283e-01,5.079373735736435885e-02,-1.642045503201966794e-01,1.219230448808746241e-06,1.349074826135521991e-03,8.595952855702456178e-04,4.296419413853647118e-01,-2.351397980162242031e-03,4.776330258539332810e-03,2.620407305381747820e-01
2.925000000000000000e+01,-5.935693534620133383e-01,-2.122070688239058867e-01,1.000191869411840712e-01,5.248600922251561718e-02,-1.641236312814226272e-01,9.063931728323343024e-07,1.370372026442919378e-03,1.521942965199357158e-03,4.623971660352606539e-01,-1.773379017635873288e-03,4.770079975376480090e-03,2.620420804865525866e-01
2.950000000000000000e+01,-5.868591164566901996e-01,-2.326978976103925567e-01,1.000192806143309354e-01,5.491049416789516024e-02,-1.636972545598776030e-01,5.811380646563170663e-07,1.489526672391551206e-03,2.076086107973967865e-03,4.951526400588713850e-01,-6.172134666591354074e-04,3.896603563461029356e-03,2.620416761080520129e-01
2.975000000000000000e+01,-5.798055214866350004e-01,-2.531209051776841523e-01,1.000193245175150930e-01,5.792928397778111804e-02,-1.630719438111485342e-01,1.193612844514689087e-07,1.683019556699330739e-03,2.429657320924311862e-03,5.279081703773439438e-01,4.644184555100000782e-04,2.572389589349130708e-03,2.620396010781082530e-01
3.000000000000000000e+01,-5.723470561975594340e-01,-2.734610478612258255e-01,1.000193079399860213e-01,6.134073180145899890e-02,-1.623935650344388304e-01,-3.544556071294923967e-07,1.894737045766206433e-03,2.580673297523298441e-03,5.606634723399764875e-01,1.070904408622492957e-03,1.357376082897373193e-03,2.620367728413537378e-01
3.025000000000000000e+01,-5.644471015697638538e-01,-2.937179282284337889e-01,1.000192413717425344e-01,6.496128391214898989e-02,-1.617456108818608462e-01,-6.620118270811879956e-07,2.078022271699614312e-03,2.606996092727267150e-03,5.934183870608122913e-01,1.055786443880523664e-03,7.461805121478482612e-04,2.620345203732698525e-01
3.050000000000000000e+01,-5.560867994818133875e-01,-3.138959990348781925e-01,1.000191521093980601e-01,6.869673199602044367e-02,-1.611233136293598045e-01,-7.230274893132921623e-07,2.215744245658223324e-03,2.632231961927493456e-03,6.261730046075592027e-01,4.487238364902633881e-04,9.779973813616707392e-04,2.620339652172194445e-01
3.075000000000000000e+01,-5.472512267358304872e-01,-3.339933138633988108e-01,1.000190700510198566e-01,7.257568418261381438e-02,-1.604336142172346769e-01,-5.636301679463451736e-07,2.316550588007412845e-03,2.780593653903814383e-03,6.589276028331413348e-01,-6.084688174502646263e-04,1.947281624166684842e-03,2.620355723674230308e-01
3.100000000000000000e+01,-5.379146245475946442e-01,-3.539914635189971848e-01,1.000190186856800001e-01,7.673236656127475908e-02,-1.595127012602262917e-01,-2.487209723106300620e-07,2.398368828867593599e-03,3.134369966157782381e-03,6.916824958878239338e-01,-1.886411483432692479e-03,3.250563522505054998e-03,2.620389912707354885e-01
3.125000000000000000e+01,-5.280307715652350353e-01,-3.738486690157130088e-01,1.000190123678203480e-01,8.134577661227877787e-02,-1.581583065001743171e-01,1.365538232699543629e-07,2.472629151163759087e-03,3.705915366239969505e-03,7.244378899322496679e-01,-3.083757424756485531e-03,4.347194794183611641e-03,2.620431370699916607e-01
3.150000000000000000e+01,-5.175325429653220288e-01,-3.934977810764280215e-01,1.000190508668022116e-01,8.655916427190629703e-02,-1.561748855951999582e-01,4.375055988577332211e-07,2.537472126292818035e-03,4.432025194364819405e-03,7.571937777108780354e-01,-3.874569106971531042e-03,4.767288312069522735e-03,2.620464949500908025e-01
3.175000000000000000e+01,-5.063411157480494085e-01,-4.128504138263740519e-01,1.000191092897215056e-01,9.241094291979573550e-02,-1.534245809374492064e-01,4.268829462331418096e-07,2.580802784921211891e-03,5.192451658645795727e-03,7.899498994190915502e-01,-3.998757755643964421e-03,4.285159391888789839e-03,2.620476491981134637e-01
3.200000000000000000e+01,-4.943816037093199389e-01,-4.318070847389723355e-01,1.000191361783221988e-01,9.880295397706038985e-02,-1.498698534821207851e-01,-6.357958900175233472e-08,2.588828216123688873e-03,5.847222275682508949e-03,8.227058147091746987e-01,-3.366744811191430507e-03,2.995235796525047046e-03,2.620458900491910437e-01
3.225000000000000000e+01,-4.815995494084046036e-01,-4.502712265082312593e-01,1.000190730891821339e-01,1.055172072789049564e-01,-1.455910302546743751e-01,-9.613536907444436592e-07,2.554336331704461140e-03,6.281457312748292381e-03,8.554610824983039929e-01,-2.127839066798278139e-03,1.269182182455601401e-03,2.620415857901907120e-01
3.250000000000000000e+01,-4.679724833228928738e-01,-4.681630938904315364e-01,1.000188895481512880e-01,1.122741121680872062e-01,-1.407672191842329057e-01,-1.914116947380986294e-06,2.480693524617592384e-03,6.443734969338977582e-03,8.882154573930631791e-01,-6.604852964574707032e-04,-3.816346308985385429e-04,2.620360688270979010e-01
3.275000000000000000e+01,-4.535126345561335537e-01,-4.854288645831801308e-01,1.000186078872959544e-01,1.188107965612271721e-01,-1.356209494909918489e-01,-2.478205718161573691e-06,2.380499913261591681e-03,6.365850603592990847e-03,9.209689863739356497e-01,5.252822148923934472e-04,-1.482969891698702504e-03,2.620310814835104529e-01
3.300000000000000000e+01,-4.382600338882978730e-01,-5.020411792163511633e-01,1.000182965309405619e-01,1.249522558626931373e-01,-1.303406634713589474e-01,-2.393231672448957876e-06,2.270346925258897187e-03,6.157547848008595830e-03,9.537219625327033601e-01,9.451251116843095886e-04,-1.750788630411359266e-03,2.620281037273887170e-01
3.325000000000000000e+01,-4.222684988869135903e-01,-5.179898305464550878e-01,1.000180365752828954e-01,1.306520069546946439e-01,-1.250049498622964050e-01,-1.706116861489430806e-06,2.164314198566621127e-03,5.977544395026542293e-03,9.864747897830803414e-01,3.036953984671427842e-04,-1.172374561694295792e-03,2.620278992738152013e-01
3.350000000000000000e+01,-4.055892263523537267e-01,-5.332644987893142563e-01,1.000178886867743311e-01,1.359903273104681731e-01,-1.195340338401553459e-01,-6.566052381981831958e-07,2.068721063199195371e-03,5.989325609867020804e-03,1.019227843263750710e+00,-1.392689242618238340e-03,3.593189689448126950e-06,2.620303923267480739e-01
3.375000000000000000e+01,-3.882572875311894878e-01,-5.478342365979519402e-01,1.000178824492496121e-01,1.411324489655856884e-01,-1.136868196527800051e-01,5.253629814326734834e-07,1.979714552792657175e-03,6.314385993557916112e-03,1.051981366622247727e+00,-3.811679561689074701e-03,1.355626302019781546e-03,2.620347672471073919e-01
3.400000000000000000e+01,-3.702851916581489933e-01,-5.616298728777662230e-01,1.000180241311451335e-01,1.462613080560321022e-01,-1.071084171957867315e-01,1.687260001655072186e-06,1.884120712651744670e-03,6.995796564991938957e-03,1.084735397248241640e+00,-6.366459521781425018e-03,2.421984511258262144e-03,2.620396622633020534e-01
3.425000000000000000e+01,-3.516653598519914881e-01,-5.745351474214474008e-01,1.000182999166646935e-01,1.515060981241185545e-01,-9.941814832005568814e-02,2.632687941762169557e-06,1.763023214080721530e-03,7.981611334017984713e-03,1.117489712681809744e+00,-8.361773484608044094e-03,2.834462224224990837e-03,2.620434591493193688e-01
3.450000000000000000e+01,-3.323806375619273723e-01,-5.863903162563395277e-01,1.000186606025236097e-01,1.568876847902513638e-01,-9.031610891477380443e-02,2.988204878533084152e-06,1.596938859200843722e-03,9.132054876968085516e-03,1.150243834093768180e+00,-9.173071732866586517e-03,2.415918081380950561e-03,2.620447410146378164e-01
3.475000000000000000e+01,-3.124196863115357714e-01,-5.970087857279311461e-01,1.000190017286294031e-01,1.622958034176988362e-01,-7.968069741525857230e-02,2.283434565017658462e-06,1.371236560583029935e-03,1.024833126366244546e-02,1.182997142387398393e+00,-8.410568069588062953e-03,1.218459898287091057e-03,2.620428678462922156e-01
3.500000000000000000e+01,-2.917928358985277248e-01,-6.062039251868057699e-01,1.000191705552559013e-01,1.675032374186709028e-01,-6.763135407789690190e-02,2.732590191635016992e-07,1.080526040731436075e-03,1.111569837037393142e-02,1.215749113894044386e+00,-6.025020434194599400e-03,-5.028538531495717594e-04,2.620384022636784160e-01
3.525000000000000000e+01,-2.705440073468372009e-01,-6.138204859624685206e-01,1.000190172805434513e-01,1.722117962600895613e-01,-5.453941105185945715e-02,-2.730498840482316203e-06,7.310509766956024488e-04,1.155018075783991599e-02,1.248499589133467591e+00,-2.327299246103444168e-03,-2.368617324383880812e-03,2.620330466578007500e-01
3.550000000000000000e+01,-2.487555318645888469e-01,-6.197637369835359289e-01,1.000184710583398306e-01,1.761166657810879776e-01,-4.098312913708401090e-02,-5.826076032787576622e-06,3.405930031828492579e-04,1.143760461532418102e-02,1.281248926770761187e+00,2.084018015276066418e-03,-3.980825219763565320e-03,2.620289726698866173e-01
3.575000000000000000e+01,-2.265446824736605524e-01,-6.240198673671553120e-01,1.000175933108871512e-01,1.789716424788847515e-01,-2.765727062125616226e-02,-7.895350186336550934e-06,-6.404715102499787852e-05,1.075572656363434423e-02,1.313997930251688429e+00,6.467574175051771929e-03,-5.024597348658043847e-03,2.620278208171664125e-01
3.600000000000000000e+01,-2.040529080549786378e-01,-6.266632892292357537e-01,1.000165681328384903e-01,1.806387860233366616e-01,-1.525900915142907113e-02,-8.172970110625893533e-06,-4.513839799025019394e-04,9.574850911377306290e-03,1.346747558104185449e+00,1.011449223562327013e-02,-5.337378718723784742e-03,2.620299186461301222e-01
3.625000000000000000e+01,-1.814304968507136073e-01,-6.278496084592978255e-01,1.000156294313338107e-01,1.811116082780236114e-01,-4.377079715623025981e-03,-6.634955583134358405e-06,-7.903980482299126755e-04,8.038426496437232893e-03,1.379498558296297750e+00,1.250135148994214497e-02,-4.928964485525210402e-03,2.620341706315450492e-01
3.650000000000000000e+01,-1.588202417481664463e-01,-6.277962873951496992e-01,1.000149659162596488e-01,1.805090886567748409e-01,4.591867402994726476e-03,-3.962042046135655487e-06,-1.055373020732362516e-03,6.330671028175933329e-03,1.412251210177553284e+00,1.337740112114812162e-02,-3.953205811072076255e-03,2.620386587376891119e-01
3.675000000000000000e+01,-1.363434895114387646e-01,-6.267554447081548075e-01,1.000146562839190900e-01,1.790457205822531539e-01,1.148547432605009043e-02,-1.140649262238807291e-06,-1.229455653758209201e-03,4.641196347863421438e-03,1.445005286965294511e+00,1.276871477907085169e-02,-2.648198168450322312e-03,2.620415668557334876e-01
3.700000000000000000e+01,-1.140909376101675310e-01,-6.249842058526309252e-01,1.000146625940973311e-01,1.769878882559321187e-01,1.637484946748188341e-02,1.012806410504687669e-06,-1.306381706034273702e-03,3.135869459795426455e-03,1.477760223535281581e+00,1.091329189942672959e-02,-1.269306408606640704e-03,2.620419088156432652e-01
3.725000000000000000e+01,-9.211914320911911147e-02,-6.227174790695620965e-01,1.000148726090393791e-01,1.746079496760934435e-01,1.952988320164901134e-02,2.134030669898568546e-06,-1.290316326247963443e-03,1.939295268592532498e-03,1.510515376792729958e+00,8.164315285075220488e-03,-3.624614477309383412e-05,2.620397483328011368e-01
3.750000000000000000e+01,-7.045241347810571320e-02,-6.201464755237990900e-01,1.000151592505252457e-01,1.721450036342163925e-01,2.136516562764798760e-02,2.315544417270466278e-06,-1.194194251419527326e-03,1.129088297376094115e-03,1.543270250048604408e+00,4.904361125616749084e-03,8.956284043509153648e-04,2.620359424506413237e-01
3.775000000000000000e+01,-4.908888009712503858e-02,-6.174044982883393207e-01,1.000154272207136319e-01,1.697772666521310814e-01,2.237980296731024998e-02,1.926783858539123783e-06,-1.037183034365469787e-03,7.378531241348906377e-04,1.576024604769665549e+00,1.498563651090410818e-03,1.442448664796829386e-03,2.620316623100072406e-01
3.800000000000000000e+01,-2.800919274568967193e-02,-6.145601925987052017e-01,1.000156331781979491e-01,1.676073568710957640e-01,2.309891780776727674e-02,1.393674922848241424e-06,-8.418878185641355668e-04,7.573911266419499104e-04,1.608778452224323363e+00,-1.712472990818713790e-03,1.587653092647021199e-03,2.620279486621083787e-01
3.825000000000000000e+01,-7.186250279865741622e-03,-6.116178732801843543e-01,1.000157810841330597e-01,1.656598203487195109e-01,2.401876492574493704e-02,1.028844440251392238e-06,-6.317234397585695617e-04,1.141521827286426805e-03,1.641531963125350657e+00,-4.403848643836976058e-03,1.375975731237930651e-03,2.620254329638633806e-01
3.850000000000000000e+01,1.340549055985882330e-02,-6.085245134751954277e-01,1.000159011816068866e-01,1.638898204357399913e-01,2.555487792013820536e-02,9.379703805765313637e-07,-4.286228626254565566e-04,1.807692388466043470e-03,1.674285347127675072e+00,-6.273142775459869709e-03,9.078579954302916670e-04,2.620242420490085933e-01
3.875000000000000000e+01,3.378245601392250441e-02,-6.051829626773627124e-01,1.000160224000243014e-01,1.622018910246413592e-01,2.799471347929341838e-02,1.006775660689236902e-06,-2.510661589951938941e-04,2.640850257919582968e-03,1.707038749208880768e+00,-7.081076873663028591e-03,3.290245231935720973e-04,2.620240658449466964e-01
3.900000000000000000e+01,5.394729379641105549e-02,-6.014704817220378752e-01,1.000161489085877736e-01,1.604768150821865580e-01,3.146101510997368483e-02,9.788500554612016523e-07,-1.123858066865367179e-04,3.503803043740838855e-03,1.739792197907909177e+00,-6.718330288766258089e-03,-1.919457715303701426e-04,2.620243594823759570e-01
3.925000000000000000e+01,7.388789607844233054e-02,-5.972606356633471947e-01,1.000162519779509152e-01,1.586027014745209351e-01,3.589578592975695842e-02,6.141213377857498773e-07,-1.942353882584535853e-05,4.255909005395909842e-03,1.772545620713745995e+00,-5.267864597886783191e-03,-4.997533181521093913e-04,2.620246135169042034e-01
3.950000000000000000e+01,9.358025116252997877e-02,-5.924453440564229068e-01,1.000162834093582809e-01,1.565040512890787106e-01,4.107395480565585733e-02,-1.418594537752231372e-07,2.821482278574698269e-05,4.777700461577878525e-03,1.805298912446711812e+00,-3.026373412432032707e-03,-4.946056718552916277e-04,2.620245714506467816e-01
3.975000000000000000e+01,1.129944024415847209e-01,-5.869531013273777686e-01,1.000162047329547083e-01,1.541615323181289299e-01,4.664964656505972418e-02,-1.089608611251891840e-06,3.797016929738117178e-05,4.995259419172533646e-03,1.838052013881246394e+00,-4.629635459213704931e-04,-1.659428189476303364e-04,2.620242773903505573e-01
4.000000000000000000e+01,1.321019399576828235e-01,-5.807596103448878777e-01,1.000160142471986230e-01,1.516164908085525231e-01,5.222852645519062559e-02,-1.875111461170660006e-06,2.295995117046793836e-05,4.896793108281363022e-03,1.870804951520166570e+00,1.880959727315582950e-03,3.971326543414960449e-04,2.620239379331324447e-01
4.025000000000000000e+01,1.508829263228971540e-01,-5.738884876462357898e-01,1.000157531122260052e-01,1.489580229259030442e-01,5.745083407326305458e-02,-2.201926169509721979e-06,-5.424729076334017848e-07,4.535507729384657960e-03,1.903557816565649263e+00,3.522652157021284678e-03,1.026523259737668111e-03,2.620237153870248470e-01
4.050000000000000000e+01,1.693302160107811039e-01,-5.664019792870252923e-01,1.000154856971114808e-01,1.462956214231974916e-01,6.206508341052468375e-02,-2.004931339883329084e-06,-1.637826714807199971e-05,4.016775332334402392e-03,1.936310705174762559e+00,4.159987383265018220e-03,1.523770310714402587e-03,2.620236145480089873e-01
4.075000000000000000e+01,1.874498285246634921e-01,-5.583841019391282412e-01,1.000152680435869162e-01,1.437252241361867133e-01,6.597383784900606729e-02,-1.460563289100017191e-06,-1.181171410288446465e-05,3.472194725288232746e-03,1.969063668051956428e+00,3.747233902336970322e-03,1.723027940206887845e-03,2.620235335132662935e-01
4.100000000000000000e+01,2.052572161208749135e-01,-5.499205379074070255e-01,1.000151259676798909e-01,1.412991508970776189e-01,6.924010588133616695e-02,-8.415508751978902025e-07,1.994580839374883552e-05,3.027036226952101953e-03,2.001816703477313997e+00,2.501017594579117622e-03,1.548096444149360843e-03,2.620234011554969378e-01
4.125000000000000000e+01,2.227705729182026806e-01,-5.410803731997995136e-01,1.000150546048531874e-01,1.390097645386204894e-01,7.205364672555467087e-02,-3.462085945007123661e-07,7.866640818412249747e-05,2.769719053218430444e-03,2.034569787490398518e+00,8.329722696539055074e-04,1.042937865937882888e-03,2.620232559946247264e-01
4.150000000000000000e+01,2.400033303569180099e-01,-5.319041192001383589e-01,1.000150333571296069e-01,1.367926110417974905e-01,7.466768980756882668e-02,-3.378278440609437187e-08,1.577817738589879437e-04,2.731745005287974752e-03,2.067322905323698112e+00,-7.722362622892159920e-04,3.623990915909921801e-04,2.620231926153723245e-01
4.175000000000000000e+01,2.569583050314422357e-01,-5.224005639969305781e-01,1.000150403821511158e-01,1.345484042121111168e-01,7.732484731356856211e-02,1.163457299320252900e-07,2.466103134999010865e-04,2.883747637558112080e-03,2.100076054786771618e+00,-1.896966915981154571e-03,-2.767052559281487105e-04,2.620232379622930430e-01
4.200000000000000000e+01,2.736254502037460123e-01,-5.125524138404591312e-01,1.000150565778822886e-01,1.321766485924798507e-01,8.019363882074431737e-02,1.170670198770953259e-07,3.335016938000288120e-04,3.148663475752759133e-03,2.132829225004821083e+00,-2.305638571188234343e-03,-6.691947160740205174e-04,2.620232868749644561e-01
4.225000000000000000e+01,2.899839461981172373e-01,-5.023281969092026067e-01,1.000150625523041070e-01,1.296093432818090363e-01,8.333309102772888666e-02,-4.336593644513105917e-08,4.090074703905010960e-04,3.427884594986707004e-03,2.165582378686157661e+00,-1.999334735714925794e-03,-6.944219795818785826e-04,2.620231636408146825e-01
4.250000000000000000e+01,3.060078497026512689e-01,-4.916962786133273755e-01,1.000150387344277136e-01,1.268328379979424547e-01,8.669354203404538994e-02,-3.457377717601160760e-07,4.681908346714263778e-04,3.632247645301739901e-03,2.198335459962306171e+00,-1.194193086618433857e-03,-3.613948180167835043e-04,2.620227539587428045e-01
4.275000000000000000e+01,3.216732472964167200e-01,-4.806365708698557837e-01,1.000149727197731930e-01,1.238899162695151906e-01,9.015010299158622564e-02,-6.953728313091257972e-07,5.114584785460456803e-04,3.708180347875116023e-03,2.231088422634950330e+00,-2.327865918442273982e-04,1.925903091926728188e-04,2.620220923382104994e-01
4.300000000000000000e+01,3.369643088572056855e-01,-4.691466537256228087e-01,1.000148674351073186e-01,1.208613444976775753e-01,9.355505293698214431e-02,-9.551089876824199940e-07,5.437563481893118583e-04,3.650847239817323585e-03,2.263841254774121126e+00,5.400533901887096585e-04,7.521928372369810758e-04,2.620213420178466590e-01
4.325000000000000000e+01,3.518760543361057480e-01,-4.572411487353023607e-01,1.000147410797821157e-01,1.178339247673895335e-01,9.679016057995872002e-02,-1.030502032326397882e-06,5.724781848211247300e-04,3.500419842094090912e-03,2.296593981941675189e+00,8.931012356610373284e-04,1.106121102273432619e-03,2.620207014010719759e-01
4.350000000000000000e+01,3.664129141215152208e-01,-4.449455379102709718e-01,1.000146175465564669e-01,1.148674528297436159e-01,9.980138040107899844e-02,-9.245686758996309250e-07,6.048264997746092154e-04,3.323465624647559211e-03,2.329346651787116418e+00,7.747729430939367815e-04,1.128693501400668438e-03,2.620203143650856048e-01
4.375000000000000000e+01,3.805838012588326769e-01,-4.322873715215606039e-01,1.000145148458161659e-01,1.119734284799410173e-01,1.026060982087229206e-01,-7.169343935989427167e-07,6.455055957942274240e-04,3.186947435723638464e-03,2.362099314547926987e+00,3.064933980649175299e-04,8.254263382047926029e-04,2.620202280098691272e-01
4.400000000000000000e+01,3.943957434486432545e-01,-4.192883337943794642e-01,1.000144394752307264e-01,1.091132823985165173e-01,1.052741705813850931e-01,-5.014155250584758383e-07,6.954647717928487275e-04,3.135091916414332013e-03,2.394852009009692306e+00,-2.892638423630872137e-04,3.215428970312199939e-04,2.620203907940425458e-01
4.425000000000000000e+01,4.078485573043907353e-01,-4.059598073608163826e-01,1.000143878544716564e-01,1.062153163636672532e-01,1.078938290759357821e-01,-3.426699465324463929e-07,7.520055609204735151e-04,3.177807362577031707e-03,2.427604753777866442e+00,-7.904039117631747949e-04,-2.003489377782229281e-04,2.620206735417545119e-01
4.450000000000000000e+01,4.209324027472603480e-01,-3.923028407657659922e-01,1.000143506452512848e-01,1.032015895077769280e-01,1.105378624285949379e-01,-2.704686824617304140e-07,8.100710351824878808e-04,3.293811529002850860e-03,2.460357542294060895e+00,-1.058953693383327382e-03,-5.812036830676167633e-04,2.620209126359394070e-01
4.475000000000000000e+01,4.336286806502932523e-01,-3.783116047697518414e-01,1.000143165907507736e-01,1.000126309197689745e-01,1.132427319432796342e-01,-2.876885094916673633e-07,8.641357641168435086e-04,3.444868224668495849e-03,2.493110344592934791e+00,-1.073174071358295447e-03,-7.445773852203660869e-04,2.620209726686296703e-01
4.500000000000000000e+01,4.459133398927176417e-01,-3.639783151368389258e-01,1.000142756183924619e-01,9.662060361416803522e-02,1.160054451426041772e-01,-3.735613143640986144e-07,9.099618147435141208e-04,3.593104526638070569e-03,2.525863118652351247e+00,-9.039109824150188665e-04,-7.083276552394997261e-04,2.620208009256946302e-01
