time_total,x,y,z,vx,vy,vz,roll,pitch,yaw,roll_rate,pitch_rate,yaw_rate
7e-02,9.990320226421604832e-02,-1.664988307929545289e-02,-1.798930562771015873e-01,3.917348831579651352e-04,3.295051431976654330e-03,1.187075761341762833e-02,1.779101474888374890e-01,1.289303410472575871e-02,6.659741297688336926e-03,3.495155764898960071e-01
2.500000000000000000e-01,-5.311224548845909776e-01,-5.298778761388005937e-02,9.994393920727195901e-02,-1.179796657997728235e-03,-1.809304595693995432e-01,2.708650458854816286e-04,5.191198591382136136e-03,1.203522296254790590e-02,2.216138453246563056e-01,1.366384182784341830e-02,2.151477781308776087e-03,3.493917076378531550e-01
5.000000000000000000e-01,-5.302468272317726328e-01,-7.574623474703706671e-02,9.997187142057352427e-02,1.467234776185130651e-02,-1.832529474018964599e-01,1.835038397027956129e-04,6.275747527766281988e-03,1.174922851991935802e-02,2.652956217572736142e-01,3.786996063882781816e-03,-2.357122131422672347e-03,3.493208296787908007e-01
7.500000000000000000e-01,-5.274003516017000681e-01,-9.880737904579552089e-02,9.999052896057215867e-02,3.024791864946438369e-02,-1.854982483650705893e-01,1.209835634134819423e-04,5.890801257914773069e-03,1.126203689185913820e-02,3.089545305524235008e-01,-6.493700830886179123e-03,-6.697390022444868994e-03,3.492995363436768863e-01
1.000000000000000000e+00,-5.226623945666445392e-01,-1.220605858154148460e-01,1.000028190011293117e-01,4.485737626111202525e-02,-1.861839870176855705e-01,8.029181905893462926e-05,4.432004399998965179e-03,1.063953981662956599e-02,3.526014874494460272e-01,-1.099672484969091771e-02,-9.978040335444613579e-03,3.493101866443735215e-01
1.250000000000000000e+00,-5.161931695641175377e-01,-1.452580466909835499e-01,1.000111330297964729e-01,5.792078602703011614e-02,-1.846600362660488770e-01,5.555101060331128987e-05,2.720545878419516807e-03,9.840618483997016705e-03,3.962490363166036866e-01,-8.947689789143533495e-03,-1.157190624444818551e-02,3.493310373703902849e-01
1.500000000000000000e+00,-5.082105602261128841e-01,-1.681363656819155339e-01,1.000169752761428804e-01,6.910162191806043519e-02,-1.812618361640331854e-01,3.943241093042919505e-05,1.429285389637426247e-03,8.812076550567230979e-03,4.399043909881569792e-01,-3.127676148151748055e-03,-1.159939819696234088e-02,3.493464174298743230e-01
1.750000000000000000e+00,-4.989569684711728237e-01,-1.905177953957533366e-01,1.000211201719368725e-01,7.832840925387944686e-02,-1.769156211014327462e-01,2.789787077215909102e-05,8.172730715490753462e-04,7.550209377732023178e-03,4.835680073394938994e-01,2.945479454574357302e-03,-1.074495267591064548e-02,3.493509708994884111e-01
2.000000000000000000e+00,-4.886708165456946640e-01,-2.123494521505159272e-01,1.000240554198593007e-01,8.571122980658560375e-02,-1.726114760333617437e-01,1.987849565380926092e-05,7.738559591789605924e-04,6.113374856705690308e-03,5.272363594174741541e-01,7.010687346070720513e-03,-9.728281450222824381e-03,3.493475028892825685e-01
2.250000000000000000e+00,-4.775712409193398900e-01,-2.336858196178389080e-01,1.000261826560973899e-01,9.142982677851060891e-02,-1.690505543406766176e-01,1.472673443071001322e-05,1.023440938139619834e-03,4.601623102627718821e-03,5.709057341136449804e-01,8.583147425295090116e-03,-8.861735387619768672e-03,3.493416154352660952e-01
2.500000000000000000e+00,-4.658542960881264516e-01,-2.546443209951338993e-01,1.000277959580005704e-01,9.566920304272669151e-02,-1.665556720423249926e-01,1.141544286448294649e-05,1.325269421685862457e-03,3.131041078660824154e-03,6.145742995225239591e-01,8.350683552792880285e-03,-7.943566361320517771e-03,3.493373326961659586e-01
2.750000000000000000e+00,-4.536923227815370940e-01,-2.753627699567645082e-01,1.000290625396639821e-01,9.863066364439401768e-02,-1.651624443615265225e-01,9.027409720565180893e-06,1.572762766122444899e-03,1.821690968658870070e-03,6.582419590250119246e-01,7.221113960917666975e-03,-6.474258440622450081e-03,3.493358921396435557e-01
3.000000000000000000e+00,-4.412282160133343956e-01,-2.959721596051190229e-01,1.000300593871620153e-01,1.005931884580270053e-01,-1.647498825422583080e-01,7.026168197151285485e-06,1.784611581930760056e-03,7.999691419711362200e-04,7.019092667761938076e-01,5.665926297162609572e-03,-4.012581867031895372e-03,3.493370606011788060e-01
3.250000000000000000e+00,-4.285615889581961269e-01,-3.165824655012919320e-01,1.000308173677509072e-01,1.019726042334629379e-01,-1.651097852184313930e-01,5.185246178316310411e-06,2.035373343364421141e-03,2.022325121607603329e-04,7.455767307945951883e-01,3.607177601489275527e-03,-4.667091122325972867e-04,3.493409796734734951e-01
3.500000000000000000e+00,-4.157303411696036677e-01,-3.372716845379017947e-01,1.000313574600430050e-01,1.033316605338322758e-01,-1.659350414873105861e-01,3.570683719025202075e-06,2.383278431565644725e-03,1.643611701494198025e-04,7.892448595530628941e-01,7.255820335833156054e-04,3.799935264235216985e-03,3.493488977978058130e-01
3.750000000000000000e+00,-4.026953638182653727e-01,-3.580704100219651020e-01,1.000317296296912850e-01,1.053215741005134876e-01,-1.667717937312210019e-01,2.562555715420976869e-06,2.831242462147671134e-03,7.909289498937843851e-04,8.329144683878902944e-01,-3.107033291758970212e-03,8.058370301698970090e-03,3.493623056730624232e-01
4.000000000000000000e+00,-3.893364564038960807e-01,-3.789416963547569961e-01,1.000320429105745479e-01,1.085672971605195630e-01,-1.670011411226419717e-01,2.662907659411270381e-06,3.327216298448544118e-03,2.111193742881609017e-03,8.765866185221741214e-01,-7.540400732332305962e-03,1.143318706678052646e-02,3.493811322007584486e-01
4.250000000000000000e+00,-3.754644149192720159e-01,-3.997631778901398758e-01,1.000324517217935083e-01,1.135310641089539302e-01,-1.658952922953763620e-01,4.011973959183541835e-06,3.789609343056896465e-03,4.039298777129413098e-03,9.202620191579453657e-01,-1.173179947739932949e-02,1.315991231897963888e-02,3.494023028286527000e-01
4.500000000000000000e+00,-3.608492991497342373e-01,-4.203214250103232685e-01,1.000330757837292611e-01,1.203961059607677325e-01,-1.627515468809383192e-01,5.883913799430808032e-06,4.138259502907588872e-03,6.357957454014260233e-03,9.639402925487352558e-01,-1.458219897050194204e-02,1.280213092494262954e-02,3.494198734703995446e-01
4.750000000000000000e+00,-3.452599433019626907e-01,-4.403262934294335240e-01,1.000338834401959670e-01,1.290059885280598617e-01,-1.570684054891601789e-01,6.676389543257331164e-06,4.317253380903290742e-03,8.738157004478639550e-03,1.007619698369733419e+00,-1.510350420680656169e-02,1.037738172353620987e-02,3.494271273716938464e-01
5.000000000000000000e+00,-3.285062858777536010e-01,-4.594469539917888090e-01,1.000346260503731377e-01,1.388793448474526238e-01,-1.487067654727448895e-01,4.719048139009330359e-06,4.305156862955408607e-03,1.079539367478748492e-02,1.051297622863674563e+00,-1.277225313434032956e-02,6.367777125311851853e-03,3.494197859171417342e-01
5.250000000000000000e+00,-3.104748882975256197e-01,-4.773639988634428288e-01,1.000349115267626793e-01,1.492998950581569673e-01,-1.379801570534277266e-01,-4.484623758962908972e-07,4.114926829146794279e-03,1.217042581947085610e-02,1.094971630053833467e+00,-7.751691171085295894e-03,1.614659426943239502e-03,3.493985299609962958e-01
5.500000000000000000e+00,-2.911493109495653098e-01,-4.938261286080506962e-01,1.000344163466799080e-01,1.594621418843156779e-01,-1.256376719310060841e-01,-7.303353212484714954e-06,3.787912863489881210e-03,1.261379188606532448e-02,1.138640506770140615e+00,-9.172821033699207543e-04,-2.879983612876728990e-03,3.493691332619777712e-01
5.750000000000000000e+00,-2.706105002725971431e-01,-5.086972813206208643e-01,1.000331125153491596e-01,1.686381873413641541e-01,-1.127336392611706234e-01,-1.290295401032014351e-05,3.385183097353743065e-03,1.205105338159106684e-02,1.182304718260101195e+00,6.319317163732699784e-03,-6.198866246672568581e-03,3.493398894155065881e-01
6.000000000000000000e+00,-2.490171902228987544e-01,-5.219814105546428662e-01,1.000313402296267168e-01,1.763244978178544198e-01,-1.004099452633063633e-01,-1.462117411166728290e-05,2.977405835437803381e-03,1.061035782401184221e-02,1.225966031314257521e+00,1.233907740639278959e-02,-7.737957759667544316e-03,3.493178493272622864e-01
6.250000000000000000e+00,-2.265713194630324112e-01,-5.338170676743931864e-01,1.000296501734074250e-01,1.823315442230233618e-01,-8.964167516321007445e-02,-1.184990350757423238e-05,2.633527975295110821e-03,8.603759606556326753e-03,1.269626571840983154e+00,1.571115593882606992e-02,-7.354187239252056411e-03,3.493062512121601904e-01
6.500000000000000000e+00,-2.034772588048750497e-01,-5.444411849114573210e-01,1.000285105521819956e-01,1.867937426345259999e-01,-8.100832677496257184e-02,-6.344667437293541745e-06,2.408913211680991685e-03,6.465556293520577542e-03,1.313287938061797444e+00,1.555515890605775609e-02,-5.388659094730045493e-03,3.493046014483082717e-01
6.750000000000000000e+00,-1.799051330915542868e-01,-5.541291268255513769e-01,1.000280823828158389e-01,1.900984013479984081e-01,-7.454858537886892289e-02,-9.112322144839479585e-07,2.334700908176283191e-03,4.661320727628956266e-03,1.356950909871072142e+00,1.178003729476078537e-02,-2.557464667043466647e-03,3.493108112724210845e-01
7.000000000000000000e+00,-1.559672329392959023e-01,-5.631242431998447762e-01,1.000282158240852481e-01,1.927544234660835409e-01,-6.973780670590623565e-02,2.545527274199285745e-06,2.410880284257076872e-03,3.587994117393212504e-03,1.400615802660728271e+00,5.138418181424121017e-03,2.589463664431416968e-04,3.493232875087806666e-01
7.250000000000000000e+00,-1.317127719545110043e-01,-5.715732531477923928e-01,1.000286469051192284e-01,1.952378887034752764e-01,-6.559838259599638788e-02,4.078588597967233105e-06,2.605305007164595340e-03,3.487474313068912764e-03,1.444282987999713663e+00,-2.924520235353271925e-03,2.267255630205252271e-03,3.493411741389260694e-01
7.500000000000000000e+00,-1.071410978564287103e-01,-5.794829551822250346e-01,1.000292190779250578e-01,1.978575509061148707e-01,-6.092054454217427084e-02,5.078459142879121069e-06,2.859599555169594753e-03,4.393603066531495856e-03,1.487952991232206701e+00,-1.060145096029412731e-02,2.980567095483254922e-03,3.493627818056995737e-01
7.750000000000000000e+00,-8.222837306932009871e-02,-5.867090189572056191e-01,1.000299457671338654e-01,2.006768921279814821e-01,-5.454250352621616699e-02,6.594680901466322774e-06,3.101106378754342734e-03,6.125550671777384160e-03,1.531625993968160238e+00,-1.615793243041889482e-02,2.340690220179575832e-03,3.493840318381267740e-01
8.000000000000000000e+00,-5.695917172596989125e-02,-5.929799739098072786e-01,1.000308757258195902e-01,2.035123022208954469e-01,-4.562188352525492485e-02,8.103333502636797430e-06,3.258333029310312400e-03,8.330019456892406859e-03,1.575301168049257905e+00,-1.836035124407687721e-02,7.071743376695065891e-04,3.493988920766585848e-01
8.250000000000000000e+00,-3.135344226453270350e-02,-5.979508451434931704e-01,1.000318990495664834e-01,2.060041334641065369e-01,-3.383103627555542753e-02,7.822291906554650428e-06,3.276326565231130541e-03,1.056251836659322096e-02,1.618976515095948310e+00,-1.677760253035555718e-02,-1.280962997169958440e-03,3.494020936103003350e-01
8.500000000000000000e+00,-5.481133489057111660e-03,-6.012735311731265408e-01,1.000326859711704458e-01,2.077358541399433045e-01,-1.942820646062633216e-02,4.312302172114549380e-06,3.128332845759985211e-03,1.238766001053954492e-02,1.662649538523467641e+00,-1.186944590228997468e-02,-2.922953870662052273e-03,3.493923196073651649e-01
8.750000000000000000e+00,2.053914547723287298e-02,-6.026670566829870346e-01,1.000328356040387084e-01,2.083631904983330452e-01,-3.189663263400263106e-03,-2.029030984342491553e-06,2.821004863388648122e-03,1.347347155834167400e-02,1.706318408840455492e+00,-4.838260510468488269e-03,-3.679977267196388353e-03,3.493734011215513524e-01
9.000000000000000000e+00,4.655609874697969053e-02,-6.019713832413192689e-01,1.000321294612166595e-01,2.077141970851952568e-01,1.377507500860729664e-02,-8.873379344432339236e-06,2.392052452378252460e-03,1.365691633988955038e-02,1.749982860116375383e+00,2.706056966057963746e-03,-3.332383146906815231e-03,3.493524610139471798e-01
9.250000000000000000e+00,7.241075292379549333e-02,-5.991732658574085990e-01,1.000306940693986013e-01,2.058324766554595064e-01,3.027326360550625442e-02,-1.335432423124841327e-05,1.901127497243103965e-03,1.296656073472032648e-02,1.793644229023120706e+00,9.162757725592437369e-03,-2.024973036829081675e-03,3.493362305842799831e-01
9.500000000000000000e+00,9.796261775868524146e-02,-5.944001596125414455e-01,1.000289507889588897e-01,2.029548755881063760e-01,4.527919045897377953e-02,-1.382620084632736359e-05,1.416387363326353016e-03,1.160064571933701327e-02,1.837304660522016242e+00,1.331551977147846753e-02,-1.962528966022986489e-04,3.493280129876429330e-01
9.750000000000000000e+00,1.231093541592102325e-01,-5.878861248367359682e-01,1.000273959222811732e-01,1.994350712652906421e-01,5.812545710442228175e-02,-1.068455107388644880e-05,1.000111440459126129e-03,9.870558779378445224e-03,1.880966050088862307e+00,1.456855461471377386e-02,1.573751809035461640e-03,3.493270626514400345e-01
1.000000000000000000e+01,1.477947560045870246e-01,-5.799198276199063473e-01,1.000263688400984952e-01,1.956390048850199237e-01,6.859739989505668489e-02,-5.808371938321586864e-06,6.967150753548678396e-04,8.127145204181266194e-03,1.924629369969289350e+00,1.300039720057585661e-02,2.741006790268035731e-03,3.493302669124379034e-01
1.025000000000000000e+01,1.720035339241484940e-01,-5.707876490212596687e-01,1.000259492340067335e-01,1.918432564335882662e-01,7.692129848487035126e-02,-1.240452399688547617e-06,5.255870001716370045e-04,6.688664742250789892e-03,1.968294652882735196e+00,9.252848902531788169e-03,2.945569551062037026e-03,3.493345514162501941e-01
1.050000000000000000e+01,1.957450845167213738e-01,-5.607243240034871512e-01,1.000260128418745120e-01,1.881631447310021521e-01,8.366323676981175794e-02,1.883143374760055181e-06,4.797415873880807205e-04,5.785076172727864237e-03,2.011961433003055522e+00,4.316144984194461229e-03,2.095304105597846963e-03,3.493383605037506667e-01
1.075000000000000000e+01,2.190311309384476712e-01,-5.498802128279797197e-01,1.000263684662698188e-01,1.845266663835894438e-01,8.957237928585330689e-02,3.551287065962908510e-06,5.298234012133649527e-04,5.526211160348931672e-03,2.055629220445125416e+00,-7.153942486361553402e-04,3.764590504121603895e-04,3.493416113852859661e-01
1.100000000000000000e+01,2.418533166117176059e-01,-5.383096308226242854e-01,1.000268697842420923e-01,1.806977288791508374e-01,9.540768691488475672e-02,4.349659743882406123e-06,6.319394142947037767e-04,5.894490808944764966e-03,2.099297700050514859e+00,-4.858705417219190241e-03,-1.797687603331150517e-03,3.493446794421884438e-01
1.125000000000000000e+01,2.641654031589744100e-01,-5.259807024905225337e-01,1.000279222620128472e-01,1.762213599740244385e-01,1.017047873921767542e-01,2.984033210163509754e-05,-1.535798249577250687e-03,6.724939801344350342e-03,2.139502079977564808e+00,5.867128759840706947e-02,-1.035317925153037694e-01,1.603645124831249436e-01
1.150000000000000000e+01,2.852425399909326864e-01,-5.132270433274949140e-01,1.000496755244395380e-01,1.562486148322205226e-01,9.906088521285051629e-02,4.429884591076343504e-04,-3.346334928350379323e-02,6.863860619493437724e-03,2.130186342402131228e+00,1.739271762137270805e-01,-2.683326988821528869e-01,-2.129953630884669213e-01
1.175000000000000000e+01,3.014333744278364646e-01,-5.022805861313101028e-01,1.001447199074926575e-01,9.846971334195166181e-02,7.321804775838583468e-02,8.859163999568555508e-04,-6.852712280794309718e-02,5.399956205833619273e-03,2.095651114262216730e+00,1.195212261554708943e-01,-1.720959292451874068e-01,-3.116448092154697758e-01
1.200000000000000000e+01,3.084221787777052803e-01,-4.957001946765170475e-01,1.002076161548050987e-01,1.385485014113121104e-02,3.231734322471897791e-02,-3.603850032059685847e-05,-8.029692677690630775e-02,3.095096672490980742e-03,2.054556305685699247e+00,8.055704524029764363e-03,2.170359975145619291e-02,-3.385536704503067096e-01
1.225000000000000000e+01,3.045747669553759418e-01,-4.942882844444903556e-01,1.001286722835842552e-01,-7.027029449399978256e-02,-6.864224812891886116e-03,-1.043763869164252359e-03,-6.630160124457040727e-02,1.673258004942097463e-03,2.011671532012629271e+00,-7.475508324274030003e-02,1.686577609925975219e-01,-3.462651190637656695e-01
1.250000000000000000e+01,2.915303068474000003e-01,-4.969623127722530564e-01,9.999663474246270334e-02,-1.314869217961512626e-01,-3.226744513612781612e-02,-8.907213778083360742e-04,-3.911653839565110841e-02,2.112459534371417466e-03,1.968259806498478204e+00,-9.783291036465847912e-02,2.060525053712650156e-01,-3.485701403788645791e-01
1.275000000000000000e+01,2.727816337466343333e-01,-5.017267345505156406e-01,9.993049208729097577e-02,-1.626995101536731769e-01,-4.113474650556118994e-02,-1.950307230645326271e-04,-1.373836152797213404e-02,3.898126444573827426e-03,1.924703140104814247e+00,-7.334656667612469982e-02,1.518763657920909615e-01,-3.493612942012437883e-01
1.300000000000000000e+01,2.517509772132364154e-01,-5.067515577176689989e-01,9.993506170866922611e-02,-1.706668657415265911e-01,-3.793875957231155477e-02,1.757132773495421530e-04,9.250356732077757082e-04,5.606538462406808476e-03,1.881081025985422928e+00,-3.044682141858011740e-02,6.290339251223847628e-02,-3.496227013173967002e-01
1.325000000000000000e+01,2.305416293462771438e-01,-5.109795469845692661e-01,9.995978055452890698e-02,-1.680487895173659318e-01,-2.969809721861422364e-02,1.860065379160929697e-04,4.073817063064787310e-03,6.005890899446230009e-03,1.837396873640270378e+00,5.725871314897046371e-03,-8.332694627201601284e-03,-3.495833305760694398e-01
1.350000000000000000e+01,2.097352054424697354e-01,-5.141742825740029943e-01,9.997900260689444873e-02,-1.655586870844698855e-01,-2.209806877437176312e-02,1.277900535052398925e-04,2.833339790954462448e-04,4.804729192633971913e-03,1.793688118815093047e+00,2.353445332890725591e-02,-3.773521864243231660e-02,-3.494303626661531270e-01
1.375000000000000000e+01,1.889358400162464702e-01,-5.166221143407475624e-01,9.999302181640408460e-02,-1.680607122686522403e-01,-1.782917404025077465e-02,1.005011825869565732e-04,-4.779912833759470195e-03,2.661741892104667936e-03,1.749997974561902314e+00,2.390670215777267182e-02,-3.042924199333340782e-02,-3.493214403054412109e-01
1.400000000000000000e+01,1.675132892483651714e-01,-5.187609631818204114e-01,1.000039236915158530e-01,-1.749636855422321002e-01,-1.687571166637800990e-02,7.290234070286477955e-05,-7.460849567599609974e-03,6.479065690512311173e-04,1.706330302263948884e+00,1.415746876190701782e-02,-6.729876203040425706e-03,-3.492966265484971911e-01
1.425000000000000000e+01,1.451161784721229087e-01,-5.209166978081809507e-01,1.000109160903161903e-01,-1.830217426773695366e-01,-1.773459755735034421e-02,4.111081251311360520e-05,-6.993466624717275572e-03,-3.810452925755194163e-04,1.662666751628150585e+00,2.028344504480045045e-03,1.372154563080911667e-02,-3.493199974087107806e-01
1.450000000000000000e+01,1.218082511327659295e-01,-5.231987691933407403e-01,1.000147264586411788e-01,-1.892240177034271442e-01,-1.862277146384674203e-02,2.347076310201352204e-05,-4.630732297065849601e-03,-1.385072896780141949e-04,1.618998742208323405e+00,-7.511891996622221956e-03,2.117922495666692273e-02,-3.493533062740615813e-01
1.475000000000000000e+01,9.792229981020419971e-02,-5.255177401521492486e-01,1.000173291096717182e-01,-1.923337007158630874e-01,-1.819977151107598362e-02,1.961853590208632227e-05,-2.156801265110439535e-03,1.115415225692150325e-03,1.575328753153344641e+00,-1.272056037358885311e-02,1.651455817081704663e-02,-3.493796037812839650e-01
1.500000000000000000e+01,7.382547743763283321e-02,-5.276586881891998093e-01,1.000197172603533025e-01,-1.928745901725277545e-01,-1.577823397167319938e-02,1.841179643348505313e-05,-7.561049476494371762e-04,2.843270182734093654e-03,1.531657772491486824e+00,-1.400931295717382057e-02,6.461637889557569209e-03,-3.493944656025297912e-01
1.525000000000000000e+01,4.975396134406454007e-02,-5.293583367600382950e-01,1.000218358146983261e-01,-1.922074887540849153e-01,-1.122334341152846429e-02,1.530539901865797907e-05,-6.452633286424373522e-04,4.531781225621393447e-03,1.487983396326188590e+00,-1.262328481200063364e-02,-2.101900064070412900e-03,-3.493976339543169995e-01
1.550000000000000000e+01,2.577575214442727122e-02,-5.303616703478252203e-01,1.000234926870820912e-01,-1.915303636815715027e-01,-4.758251539899807821e-03,1.129201727060359040e-05,-1.336800797873841833e-03,5.868770493883386161e-03,1.444305344739694963e+00,-9.766655512048220619e-03,-5.663597005998985412e-03,-3.493914198324721831e-01
1.575000000000000000e+01,1.851829020862280802e-03,-5.304555433112597695e-01,1.000246361205804485e-01,-1.913413216493001778e-01,3.198466452580289721e-03,7.122690257469657034e-06,-2.148638915595909877e-03,6.758098357075153877e-03,1.400626960546369038e+00,-6.279899931828239815e-03,-4.541432421070886252e-03,-3.493804811082308892e-01
1.600000000000000000e+01,-2.207274167723405692e-02,-5.294860518192443521e-01,1.000252568642300971e-01,-1.914609626397695830e-01,1.213295798198370593e-02,2.999140783603305605e-06,-2.609782059393008901e-03,7.231543181612171481e-03,1.356951880296141999e+00,-2.670821438132648957e-03,-1.282983519029260453e-03,-3.493700506506187686e-01
1.625000000000000000e+01,-4.600565927045994347e-02,-5.273663677244565529e-01,1.000254015683488540e-01,-1.913955868484312761e-01,2.149519102052594929e-02,-3.792771213042421422e-07,-2.604881287847304015e-03,7.347457378286976343e-03,1.313281140255763590e+00,7.349620482923031276e-04,1.412574387539265210e-03,-3.493633734146860959e-01
1.650000000000000000e+01,-6.989494225216648371e-02,-5.240781895274203572e-01,1.000252074198415275e-01,-1.907374217864578336e-01,3.074643500601548229e-02,-2.425494740871683603e-06,-2.291428033779512475e-03,7.138568250591963496e-03,1.269613213205763591e+00,3.665983747822250133e-03,2.064000779670919269e-03,-3.493604391582291746e-01
1.675000000000000000e+01,-9.365674420009627299e-02,-5.196670599157697801e-01,1.000248420841496899e-01,-1.893925121388868593e-01,3.941097965654108415e-02,-3.213234777550100305e-06,-1.920423979433349840e-03,6.620665266761249779e-03,1.225945814141407686e+00,5.845151837083419760e-03,6.943249806627697007e-04,-3.493590731585190512e-01
1.700000000000000000e+01,-1.172169622875749995e-01,-5.142308651859519575e-01,1.000244409085291053e-01,-1.875846162834356734e-01,4.713242290974842263e-02,-3.079939283702809735e-06,-1.685247402277088554e-03,5.834761990460424555e-03,1.182277518324533760e+00,6.994761581261577446e-03,-1.678094880569234049e-03,-3.493572750404224658e-01
1.725000000000000000e+01,-1.405422473944226980e-01,-5.079014565766792888e-01,1.000241021665826541e-01,-1.857044383836415347e-01,5.372571030440515677e-02,-2.274427574737392214e-06,-1.658963065636830884e-03,4.884027752616376325e-03,1.138608175383731158e+00,6.888784766390911897e-03,-3.799695925851815856e-03,-3.493547790415626464e-01
1.750000000000000000e+01,-1.636482629022185387e-01,-5.008206787340705457e-01,1.000238923798200952e-01,-1.841159305311864669e-01,5.921312877907996403e-02,-1.092943694388429455e-06,-1.812767356316827890e-03,3.939668760138474203e-03,1.094938297077190592e+00,5.430219737639773066e-03,-4.755758942901744217e-03,-3.493529590504495519e-01
1.775000000000000000e+01,-1.865859883169775080e-01,-4.931135479847746361e-01,1.000238313376344695e-01,-1.830078401771996210e-01,6.383316896068264024e-02,3.526753553476856279e-08,-2.071987466089760064e-03,3.212298871731578565e-03,1.051268246221347180e+00,2.724824350672964881e-03,-4.189582805667189068e-03,-3.493537594522090339e-01
1.800000000000000000e+01,-2.094146643314019340e-01,-4.848625252377824491e-01,1.000238899764581829e-01,-1.823276217477465266e-01,6.801441512279418622e-02,8.145026869165787961e-07,-2.366120303613488286e-03,2.902883546082222176e-03,1.007597869350179254e+00,-8.810229839638983925e-04,-2.231862889850986121e-03,-3.493586801951907295e-01
1.825000000000000000e+01,-2.321715986855413527e-01,-4.760874570311490750e-01,1.000240274480693192e-01,-1.817912499455065778e-01,7.231249624093169515e-02,1.359136736885218567e-06,-2.650944002984228446e-03,3.153248178449300030e-03,9.639266186193226060e-01,-4.823220331331211190e-03,6.933991304428826575e-04,-3.493681856782472339e-01
1.850000000000000000e+01,-2.548466900224450327e-01,-4.667354940874235414e-01,1.000242404540223617e-01,-1.809424297586355312e-01,7.731629791783452277e-02,2.091916445759740778e-06,-2.904345934539590696e-03,4.011771691055067250e-03,9.202538797928068171e-01,-8.409313922913793857e-03,4.044547244987874504e-03,-3.493813769101762889e-01
1.875000000000000000e+01,-2.773661086022575772e-01,-4.566839533916871030e-01,1.000245753039661067e-01,-1.792355868754071935e-01,8.353830290165213668e-02,3.304589843209163973e-06,-3.110604132795700538e-03,5.421053440596792020e-03,8.765793106916427435e-01,-1.095653958353791889e-02,7.262143370624574851e-03,-3.493958670313615511e-01
1.900000000000000000e+01,-2.995869809085385804e-01,-4.457567817712366209e-01,1.000250827174192919e-01,-1.761268696645200971e-01,9.131028314457317885e-02,4.749957632472451993e-06,-3.248118815069784594e-03,7.226670210235601639e-03,8.329031388738902253e-01,-1.194300416574475485e-02,9.811908543363894938e-03,-3.494081154410529910e-01
1.925000000000000000e+01,-3.213035084319019186e-01,-4.337524690095709845e-01,1.000257433248967903e-01,-1.711650167480202600e-01,1.007070765183936956e-01,5.606776214431723959e-06,-3.287974391979504776e-03,9.202238946337398806e-03,7.892263294745804902e-01,-1.113101181162171917e-02,1.122018119900335120e-02,-3.494144394519035357e-01
1.950000000000000000e+01,-3.422640513753443803e-01,-4.204786412080100955e-01,1.000264182882818209e-01,-1.640746778510026871e-01,1.115167609628251455e-01,4.886531205004705420e-06,-3.202096980434839413e-03,1.108527394443875602e-02,7.455504549189528873e-01,-8.628823421956121828e-03,1.113622138484574205e-02,-3.494124696078003689e-01
1.975000000000000000e+01,-3.621975425077934574e-01,-4.057868500235947140e-01,1.000268682491022437e-01,-1.548207040122748235e-01,1.232659774802028763e-01,2.056636596674761387e-06,-2.974814972918183188e-03,1.261870401157357165e-02,7.018771959354170864e-01,-4.873964223993144072e-03,9.418862414908281411e-03,-3.494023523483079652e-01
2.000000000000000000e+01,-3.808459016548920162e-01,-3.896007615685307957e-01,1.000268439423932509e-01,-1.436384526414174190e-01,1.352968521544870295e-01,-2.494518587463245054e-06,-2.611380431979497697e-03,1.359283218086312049e-02,6.582076556567884040e-01,-5.418151928274291158e-04,6.214015110995484321e-03,-3.493869628409990158e-01
2.025000000000000000e+01,-3.979972977288168123e-01,-3.719321789763117558e-01,1.000262068839053581e-01,-1.310169372919137709e-01,1.468801204033216845e-01,-7.461211457981198073e-06,-2.139850097859467056e-03,1.388169117731229661e-02,6.145418503855577530e-01,3.599076155823582434e-03,1.979681116272515116e-03,-3.493708617818497841e-01
2.050000000000000000e+01,-4.135139449110784016e-01,-3.528818515418397084e-01,1.000250143167223660e-01,-1.176302041136580018e-01,1.573405914196431554e-01,-1.115426029387235832e-05,-1.606234697267301843e-03,1.346690337638231129e-02,5.708786767908908821e-01,6.852281635873212588e-03,-2.572260194886709893e-03,-3.493584312412043036e-01
2.075000000000000000e+01,-4.273483758661792420e-01,-3.326252684509006796e-01,1.000235156391544866e-01,-1.042256951755703293e-01,1.661680010832007892e-01,-1.230787830594387497e-05,-1.065256596119562452e-03,1.244258530135485506e-02,5.272163815859944869e-01,8.741594240367696333e-03,-6.619524962655603563e-03,-3.493521221268586219e-01
2.100000000000000000e+01,-4.395441416195167150e-01,-3.113868633702128741e-01,1.000220551389979090e-01,-9.149209968197370701e-02,1.730895129451733572e-01,-1.069771448898521125e-05,-5.698601533870124511e-04,1.099769792202765807e-02,4.835532716649498242e-01,9.105491273010432249e-03,-9.425808545512471062e-03,-3.493517159956641693e-01
2.125000000000000000e+01,-4.502203424221122297e-01,-2.894084844034631177e-01,1.000209318591415986e-01,-7.993792141949765395e-02,1.780893454730172465e-01,-7.188136380583825176e-06,-1.621666284382705984e-04,9.377630261652510069e-03,4.398882909910301064e-01,8.111887471855696793e-03,-1.053099741616630655e-02,-3.493549266709994328e-01
2.150000000000000000e+01,-4.595433739802407547e-01,-2.669189651571105548e-01,1.000202937581496088e-01,-6.981148485609327270e-02,1.813743364748810483e-01,-3.190438582124519737e-06,1.324480638361284031e-04,7.833226296261706564e-03,3.962212103327574231e-01,6.187824159094263560e-03,-9.869821769019182511e-03,-3.493588809679512019e-01
2.175000000000000000e+01,-4.676925149191806241e-01,-2.441108675647681858e-01,1.000201183646438480e-01,-6.108229626542893698e-02,1.832981429949223362e-01,8.729251309888095186e-08,3.075001393417998107e-04,6.570277303704422957e-03,3.525524266612341528e-01,3.885391065732995194e-03,-7.774077868812459373e-03,-3.493615447877655433e-01
2.200000000000000000e+01,-4.748273530104000772e-01,-2.211281681272047328e-01,1.000202733195506427e-01,-5.348565138583948053e-02,1.842668449411140608e-01,2.109222300336765968e-06,3.739224086733064609e-04,5.713191191816372090e-03,3.088825772319702678e-01,1.727332438345488639e-03,-4.855340138609371033e-03,-3.493623291060535818e-01
2.225000000000000000e+01,-4.810640367234610415e-01,-1.980655468547977971e-01,1.000206033787839066e-01,-4.661353372898043024e-02,1.846515069600449255e-01,2.981466788302005756e-06,3.557070472815508817e-04,5.292229808838152562e-03,2.652122161739293715e-01,8.231733525345072433e-05,-1.810806943588408454e-03,-3.493617613112292575e-01
2.250000000000000000e+01,-4.864643102602178582e-01,-1.749770111487210233e-01,1.000209893446162429e-01,-4.002227020477459180e-02,1.847279048039645599e-01,3.097926316524122154e-06,2.838322109290035140e-04,5.255828837537804450e-03,2.215416859079087641e-01,-8.936578360220967781e-04,7.764313627411818797e-04,-3.493607104959689513e-01
2.275000000000000000e+01,-4.910373651243106763e-01,-1.518897407886524997e-01,1.000213607657745307e-01,-3.332569649380497795e-02,1.846524962182700125e-01,2.807059382194114989e-06,1.898834892369147720e-04,5.501254879069211214e-03,1.778711564558224378e-01,-1.240930765303824334e-03,2.572877766977409424e-03,-3.493597784018044883e-01
2.300000000000000000e+01,-4.947511311383970267e-01,-1.288187164190430500e-01,1.000216805559616673e-01,-2.625177495398674926e-02,1.844713641732975695e-01,2.299733622627867801e-06,1.007555988815293086e-04,5.911515281594003322e-03,1.342007211130027966e-01,-1.124951166647776644e-03,3.525848966391688290e-03,-3.493591379247171780e-01
2.325000000000000000e+01,-4.975478536357957893e-01,-1.057787339182262726e-01,1.000219282753169181e-01,-1.865634097664526508e-02,1.841499452253911595e-01,1.670943691684281655e-06,3.545145476498139943e-05,6.385908635843528906e-03,9.053045839099185810e-02,-7.475421809381816666e-04,3.793999115861697129e-03,-3.493586979520750813e-01
2.350000000000000000e+01,-4.993590591531095191e-01,-8.279217572667116332e-02,1.000220938268998327e-01,-1.050329220023113116e-02,1.836086322751003252e-01,1.000054628720872384e-06,4.335292414973940962e-06,6.855681981995543663e-03,4.686044099466083607e-02,-2.775915392789864763e-04,3.619107322278808121e-03,-3.493583200791841037e-01
2.375000000000000000e+01,-5.001168785245110326e-01,-5.989261155527373509e-02,1.000221769826867835e-01,-1.830069292947360086e-03,1.827526795934958370e-01,3.618296685990594642e-07,1.044327090594033812e-05,7.282990124886808830e-03,3.190720774957654660e-03,1.776898374452533062e-04,3.199381461942169685e-03,-3.493579222714670585e-01
2.400000000000000000e+01,-4.997611766804009870e-01,-3.712532650046097837e-02,1.000221846671162512e-01,7.282305383914407411e-03,1.814916181439099885e-01,-2.089901731175654065e-07,5.188312444367487215e-05,7.647945274078537387e-03,-4.047868071868596096e-02,5.621875073890319563e-04,2.616651462981501447e-03,-3.493574785540848882e-01
2.425000000000000000e+01,-4.982439160554322233e-01,-1.454603005978865465e-02,1.000221242769575164e-01,1.672306816983544150e-02,1.797499352810244810e-01,-7.370757953797084320e-07,1.241815775987658362e-04,7.932473961536677318e-03,-8.414777034282329427e-02,8.402488314322930588e-04,1.840778149081783322e-03,-3.493569994115787725e-01
2.450000000000000000e+01,-4.955328927737174816e-01,7.781478989819136036e-03,1.000219975739072842e-01,2.634938974937816800e-02,1.774741257968872887e-01,-1.278438526952460284e-06,2.217164368831752558e-04,8.109678553667518455e-03,-1.278165813289997010e-01,9.710575973280097511e-04,7.982822194702379748e-04,-3.493565420608537031e-01
2.475000000000000000e+01,-4.916163123059203999e-01,2.978854377453497848e-02,1.000218005636939744e-01,3.597764921763117740e-02,1.746404153893451050e-01,-1.859172464823045168e-06,3.379587918416901101e-04,8.143827194516218421e-03,-1.714851803189479662e-01,9.054160169252885694e-04,-5.351760494746223701e-04,-3.493562303782698497e-01
2.500000000000000000e+01,-4.865081279578444828e-01,5.140594376871629456e-02,1.000215310069353380e-01,4.538190645954350011e-02,1.712637320370433980e-01,-2.422162677065611915e-06,4.648828539879089924e-04,8.000776735400538450e-03,-2.151536785939729135e-01,6.066876455934958317e-04,-2.065874727703907211e-03,-3.493562311633575113e-01
2.525000000000000000e+01,-4.802525121500075822e-01,7.256921760672585542e-02,1.000211996501384343e-01,5.430982651328537802e-02,1.674044246980272155e-01,-2.825085833912165571e-06,5.923066791035477190e-04,7.663917727799808392e-03,-2.588222304201532875e-01,8.282686468248342052e-05,-3.569776582385732720e-03,-3.493566608248218630e-01
2.550000000000000000e+01,-4.729250613751969645e-01,9.322438424360329767e-02,1.000208372590586509e-01,6.251784446860297884e-02,1.631672764629615024e-01,-2.906268747033891745e-06,7.079497642963019548e-04,7.148441983783429023e-03,-3.024910032818950989e-01,-5.903096529561239732e-04,-4.743005352942249002e-03,-3.493574641280616233e-01
2.575000000000000000e+01,-4.646287384564191103e-01,1.133328032119844120e-01,1.000204905738877881e-01,6.981785249728603149e-02,1.586887074798637720e-01,-2.585141764655486947e-06,7.986486917841350772e-04,6.507468624116233280e-03,-3.461601236345126509e-01,-1.270544478668698398e-03,-5.294692973562858951e-03,-3.493583593963528466e-01
2.600000000000000000e+01,-4.554839869577343436e-01,1.328736464713662635e-01,1.000202072550536031e-01,7.612121581848832474e-02,1.541121808153144979e-01,-1.926780266406538239e-06,8.526256593447631166e-04,5.826619067044887766e-03,-3.898296255416765499e-01,-1.780989083330698211e-03,-5.046720560567423408e-03,-3.493589253301039310e-01
2.625000000000000000e+01,-4.456143553119166212e-01,1.518427860754119341e-01,1.000200182829337620e-01,8.146488821656305834e-02,1.495569130087365251e-01,-1.116897926151561031e-06,8.621922908975340489e-04,5.207622606948342572e-03,-4.334994367421505235e-01,-1.963715705510438690e-03,-4.004215672612932569e-03,-3.493588080410893193e-01
2.650000000000000000e+01,-4.351306290918267039e-01,1.702478125202253889e-01,1.000199288752698090e-01,8.600896869150095880e-02,1.450888549881793332e-01,-3.620535147939703875e-07,8.259968624493256714e-04,4.745137888976995282e-03,-4.771694156954351396e-01,-1.737316976372647696e-03,-2.371656743035889525e-03,-3.493579225172459557e-01
2.675000000000000000e+01,-4.241172818445417270e-01,1.881001138711523302e-01,1.000199226571397149e-01,9.000352327066007962e-02,1.407037991493114426e-01,2.075923793866661948e-07,7.499845848095634945e-04,4.503277862305207248e-03,-5.208394172376813458e-01,-1.136167673170022973e-03,-5.069593090713365264e-04,-3.493565050032078623e-01
2.700000000000000000e+01,-4.126247011070440229e-01,2.054060343649954656e-01,1.000199735751164942e-01,9.373212400170947978e-02,1.363296575200710625e-01,5.599663615719347370e-07,6.466068042947776791e-04,4.498856320364096224e-03,-5.645093437067573161e-01,-3.128489748088752868e-04,1.175066484875976827e-03,-3.493549725881954227e-01
2.725000000000000000e+01,-4.006691793526444001e-01,2.221596525511870535e-01,1.000200551427883333e-01,9.744731559267288956e-02,1.318489978421868991e-01,7.065325851701216651e-07,5.323544853716293554e-04,4.696970525984518925e-03,-6.081791523222718210e-01,5.036407018848784202e-04,2.322038801444786631e-03,-3.493536900412280155e-01
2.750000000000000000e+01,-3.882404874915488247e-01,2.383393844275503715e-01,1.000201416590438819e-01,1.013165370135974269e-01,1.271356219779935237e-01,6.432858870236159082e-07,4.242266462382184153e-04,5.021313599019118501e-03,-6.518488268272845110e-01,1.084847288006704101e-03,2.748418953544341445e-03,-3.493528096678121253e-01
2.775000000000000000e+01,-3.753146359194827197e-01,2.539094249362050526e-01,1.000202058666712357e-01,1.053944403831191534e-01,1.220929862365432855e-01,3.572134611390131566e-07,3.361075415294164010e-04,5.377165440696744445e-03,-6.955183482790014970e-01,1.289708625493456379e-03,2.488758482430753535e-03,-3.493522783651889507e-01
2.800000000000000000e+01,-3.618679126936097945e-01,2.688253337284421951e-01,1.000202216963722718e-01,1.096293959548673702e-01,1.166802500783429841e-01,-1.098827058846395630e-07,2.761020727837781028e-04,5.680593479308936565e-03,-7.391876925212044203e-01,1.127112860931703091e-03,1.778272719704893784e-03,-3.493519628755220596e-01
2.825000000000000000e+01,-3.478880321149403487e-01,2.830414598230760470e-01,1.000201744702324536e-01,1.139006343978258284e-01,1.109152126200384919e-01,-6.203264064303919286e-07,2.456289571768382378e-04,5.884543256054746742e-03,-7.828568500782993045e-01,7.637534848036533217e-04,9.636680402628604184e-04,-3.493517627641191114e-01
2.850000000000000000e+01,-3.333793888313409393e-01,2.965170620410013114e-01,1.000200709186925829e-01,1.180718088791939124e-01,1.048518578241788568e-01,-9.856847353524948189e-07,2.405479484566766676e-04,5.992522195531950133e-03,-8.265258412848529579e-01,4.646830548322033625e-04,3.735227776421981322e-04,-3.493516287927837527e-01
2.875000000000000000e+01,-3.183616400765302279e-01,3.092183857683247772e-01,1.000199389919265713e-01,1.220408324029255420e-01,9.854093234928161527e-02,-1.070671841581569433e-06,2.539430048850680626e-04,6.054014399482005558e-03,-8.701947069100887111e-01,4.813660149454727010e-04,1.956912637646470398e-04,-3.493515154156182634e-01
2.900000000000000000e+01,-3.028633420525921882e-01,3.211156130761171346e-01,1.000198156934794247e-01,1.257673662945012483e-01,9.199061674840833258e-02,-8.673843685704619643e-07,2.796029720370006382e-04,6.141943904408669885e-03,-9.138634801305608457e-01,9.285791872711326436e-04,4.101480354222019459e-04,-3.493513477587291693e-01
2.925000000000000000e+01,-2.869141834723841766e-01,3.321759689757297074e-01,1.000197306783717904e-01,1.292682705263558107e-01,8.514668784427055492e-02,-4.908025261127789218e-07,3.149439336652333802e-04,6.319387129774034495e-03,-9.575321605027532490e-01,1.703399321891300045e-03,8.057117036215242969e-04,-3.493510390801500831e-01
2.950000000000000000e+01,-2.705397416877833860e-01,3.423563903210055104e-01,1.000196939017658354e-01,1.325844299835904072e-01,7.790558480711878842e-02,-1.303226765626367757e-07,3.622378925039163207e-04,6.607470709014658453e-03,-1.001200704317626533e+00,2.487617620876644928e-03,1.074720384350699850e-03,-3.493505352699975419e-01
2.975000000000000000e+01,-2.537614493898127099e-01,3.516000706518339625e-01,1.000196891868007087e-01,1.357342710645600692e-01,7.016111609606343058e-02,-7.375303807078710516e-09,4.275501287890931166e-04,6.966723057771623609e-03,-1.044869035364357712e+00,2.842590806841619432e-03,9.467599626382990768e-04,-3.493498652346594402e-01
3.000000000000000000e+01,-2.366020975135919857e-01,3.598403381215897756e-01,1.000196731677225614e-01,1.386749154823280761e-01,6.187105862193750111e-02,-3.238108393494657947e-07,5.175888528140857670e-04,7.299750113818871677e-03,-1.088537080451707384e+00,2.367256791837472202e-03,3.066961534160814531e-04,-3.493492031156171795e-01
3.025000000000000000e+01,-2.190946851411632312e-01,3.670128672697682837e-01,1.000195840440089162e-01,1.412889252115984151e-01,5.311958980639238520e-02,-1.154136225772093508e-06,6.354666735749454985e-04,7.475666626416153059e-03,-1.132204832391209726e+00,8.625597792713640645e-04,-7.500155247336912122e-04,-3.493489145346584390e-01
3.050000000000000000e+01,-2.012907891001391170e-01,3.730740072104366534e-01,1.000193662738715628e-01,1.434043178208275482e-01,4.414982250903426442e-02,-2.315258576872938778e-06,7.768710575429126509e-04,7.369101141403188067e-03,-1.175872418897562666e+00,-1.559518122415128787e-03,-1.945018880209186318e-03,-3.493494849295880611e-01
3.075000000000000000e+01,-1.832645189120114537e-01,3.780202178262671575e-01,1.000190057353528561e-01,1.448422751280643295e-01,3.534875077533153331e-02,-3.351508107546923550e-06,9.281358705380131661e-04,6.901528044369494713e-03,-1.219540121626138562e+00,-4.466012145677834486e-03,-2.915007590444459659e-03,-3.493512494521749945e-01
3.100000000000000000e+01,-1.651095775779237995e-01,3.819023219206104103e-01,1.000185528892118536e-01,1.454759956345176852e-01,2.718206233812121148e-02,-3.738490606913650701e-06,1.067168161834710412e-03,6.071705571968850912e-03,-1.263208292430727075e+00,-7.202177432301711500e-03,-3.341280785082717444e-03,-3.493540268051078534e-01
3.125000000000000000e+01,-1.469293935560578857e-01,3.848290780822268276e-01,1.000181100056380945e-01,1.452795572485206799e-01,2.009336314232260806e-02,-3.216454905353650481e-06,1.167280940253763010e-03,4.965242530447069001e-03,-1.306877180564692598e+00,-9.072326725992662169e-03,-3.062223404198510367e-03,-3.493569544102665958e-01
3.150000000000000000e+01,-1.288227963568496504e-01,3.869573135975333811e-01,1.000177820406972368e-01,1.443489821558990860e-01,1.439546600744017087e-02,-1.996435894499022298e-06,1.203021109597300501e-03,3.739657680819129335e-03,-1.350546772326500555e+00,-9.545905053217689298e-03,-2.128387400419933136e-03,-3.493587827789818578e-01
3.175000000000000000e+01,-1.108693536529441193e-01,3.884697073566730774e-01,1.000176218614421408e-01,1.428874699216715338e-01,1.018586185765918591e-02,-6.411148540195101139e-07,1.156392393526841115e-03,2.588716686259985057e-03,-1.394216767648192912e+00,-8.422470537108926389e-03,-7.825564165739411476e-04,-3.493585556823855520e-01
3.200000000000000000e+01,-9.311869171869056883e-02,3.895450512115928299e-01,1.000176091966392677e-01,1.411592162076507617e-01,7.312590154483629770e-03,3.108147537217375555e-07,1.021685174402139039e-03,1.695981140790741963e-03,-1.437886734053052784e+00,-5.902218927394398129e-03,6.248725774114580059e-04,-3.493562370767905323e-01
3.225000000000000000e+01,-7.558684575163603092e-02,3.903282324853123986e-01,1.000176773577403505e-01,1.394267787370368772e-01,5.402306511627523282e-03,6.783239355056654699e-07,8.074909867094920077e-04,1.190540026705798945e-03,-1.481556344567069416e+00,-2.538922077297102193e-03,1.752478886200306736e-03,-3.493528005496397970e-01
3.250000000000000000e+01,-5.826042377977101727e-02,3.909074841604939232e-01,1.000177635272983950e-01,1.378919437140726512e-01,3.944046940577044733e-03,6.663248620562340492e-07,5.352721565207178758e-04,1.117117465551031689e-03,-1.525225536435574014e+00,9.114361670091944033e-04,2.374391970119973504e-03,-3.493496666430259689e-01
3.275000000000000000e+01,-4.110693276411592906e-02,3.913045249213686905e-01,1.000178417190941554e-01,1.366580113160413001e-01,2.405707638920447349e-03,5.979318325966738139e-07,2.348287570387180313e-04,1.428669555256443721e-03,-1.568894486586596582e+00,3.702605218179792247e-03,2.440615886259081459e-03,-3.493478690447762713e-01
3.300000000000000000e+01,-2.408784559009781098e-02,3.914796175868045514e-01,1.000179168089698617e-01,1.357233661300791816e-01,3.504720351681962103e-04,6.136999491931971739e-07,-6.212701380723784745e-05,2.003521488003289115e-03,-1.612563439824590938e+00,5.309538776777329890e-03,2.072200314466217125e-03,-3.493475328257248935e-01
3.325000000000000000e+01,-7.170461047580226586e-03,3.913493571015550510e-01,1.000179940921692018e-01,1.350050595426600941e-01,-2.479806509559854145e-03,6.016384318738656331e-07,-3.285562811435780665e-04,2.682427975683514699e-03,-1.656232528859252318e+00,5.575082130035225944e-03,1.495422112920993894e-03,-3.493479890952068678e-01
3.350000000000000000e+01,9.664534951704065180e-03,3.908114146982105686e-01,1.000180578247566315e-01,1.343807926387724228e-01,-6.137347498765134690e-03,3.818903777044742630e-07,-5.470769180713830945e-04,3.314850260673310890e-03,-1.699901710509111652e+00,4.739042287995177787e-03,9.420411508831209001e-04,-3.493483597482568426e-01
