time_total,x,y,z,vx,vy,vz,roll,pitch,yaw,roll_rate,pitch_rate,yaw_rate
2e-01,9.990307617103452720e-02,1.046050105172236094e-01,-1.340687833168434651e-01,3.856282924340534825e-04,2.756716130585190865e-03,2.290628269092933114e-03,9.903361445033526111e-01,6.112636595518054425e-03,1.813020057016838382e-02,3.310074481257550549e-01
2.500000000000000000e-01,-3.173939312992769546e-01,-4.138472096167757908e-01,9.994359823565820977e-02,1.096606462582694203e-01,-1.331857395534577770e-01,2.728086130912179110e-04,5.256999674778395533e-03,2.804141599408671148e-03,1.031717109055159787e+00,6.415215728372796258e-03,1.809046954567532575e-02,3.309886352082183070e-01
5.000000000000000000e-01,-3.032111932039736057e-01,-4.304762223723933579e-01,9.997208338501753500e-02,1.173729508081733514e-01,-1.329222639390602034e-01,1.894992440694252703e-04,6.985574037810964032e-03,3.324781681245223604e-03,1.073095490800112017e+00,-2.225133915338116408e-04,9.545897413208229154e-03,3.309843642375912554e-01
7.500000000000000000e-01,-2.879541617004241494e-01,-4.470598630688663588e-01,9.999152550405693285e-02,1.265499747775046535e-01,-1.322749290344007733e-01,1.270327888340126092e-04,7.251127131392575212e-03,4.030874622783197671e-03,1.114469758547246725e+00,-7.181879629101007786e-03,5.675658089869924311e-05,3.309906894887872930e-01
1.000000000000000000e+00,-2.715353017335726538e-01,-4.634785792673932203e-01,1.000044674550685797e-01,1.357493273972093795e-01,-1.301927892966814049e-01,8.464337544851678152e-05,6.397671751360271483e-03,4.912934771868003418e-03,1.155840357854823308e+00,-1.046763668170082838e-02,-5.466649423623377337e-03,3.310003170673231909e-01
1.250000000000000000e+00,-2.540192061498159348e-01,-4.795142739906327889e-01,1.000132216596100604e-01,1.440430685523288179e-01,-1.261889178702052805e-01,5.840008131129025085e-05,5.197162590833082074e-03,5.796916886468743077e-03,1.197209399161053511e+00,-9.348521769437741213e-03,-6.093231601886249342e-03,3.310059535198195957e-01
1.500000000000000000e+00,-2.355396742155695944e-01,-4.949325480096427587e-01,1.000193520767826555e-01,1.512172351165019801e-01,-1.204502723656131480e-01,4.125508085260413645e-05,4.290231088108940535e-03,6.446519395509764210e-03,1.238579464996134805e+00,-5.251051758213248766e-03,-3.705712001860327325e-03,3.310022362095000337e-01
1.750000000000000000e+00,-2.162223952246080660e-01,-5.095548291563228860e-01,1.000236492206115074e-01,1.575403979764510576e-01,-1.136167726155000446e-01,2.846133654442786868e-05,3.925526880349752661e-03,6.676402895480301573e-03,1.279951532923681246e+00,-2.304665129493158613e-04,-8.914084346846949235e-04,3.309881518554340096e-01
2.000000000000000000e+00,-1.961483825244768886e-01,-5.232945516092518679e-01,1.000265430859392513e-01,1.633979215322810541e-01,-1.064658983081422511e-01,1.864843705156831832e-05,4.000794443372923670e-03,6.424011963184410139e-03,1.321324260803263373e+00,4.073482277760501029e-03,6.841191259779002718e-04,3.309678607399526018e-01
2.250000000000000000e+00,-1.753577676058236390e-01,-5.361571130885163239e-01,1.000283964508343615e-01,1.690372115360903316e-01,-9.966335108266768938e-02,1.170358561668201184e-05,4.260658701198904996e-03,5.763810009225869488e-03,1.362695526123930856e+00,6.758717091507831717e-03,7.829443792032843774e-04,3.309483427600546923e-01
2.500000000000000000e+00,-1.538726208832795483e-01,-5.482160396527363533e-01,1.000295538573757609e-01,1.745123359111044881e-01,-9.362793775460340195e-02,7.347245274367138224e-06,4.488792663597083663e-03,4.877571880471785574e-03,1.404064380696852687e+00,7.503791554620880579e-03,1.478549215162291530e-04,3.309356673920019754e-01
2.750000000000000000e+00,-1.317162549332415444e-01,-5.595784185203335204e-01,1.000303015857998828e-01,1.797738836014231290e-01,-8.848480470157797650e-02,4.962503450858191701e-06,4.600973254652792298e-03,4.004639710236731348e-03,1.445431550569408641e+00,6.306618820468404968e-03,-3.111739158943503626e-04,3.309327569977392192e-01
3.000000000000000000e+00,-1.089181229057823302e-01,-5.703478825747291259e-01,1.000308384790625366e-01,1.847892767151154692e-01,-8.406582840153246916e-02,3.815275947288646611e-06,4.632130885916511953e-03,3.389968196729303135e-03,1.486798608481747053e+00,3.359363767785854618e-03,-1.380884453991169448e-04,3.309396003513027651e-01
3.250000000000000000e+00,-8.550700291236924822e-02,-5.805894977570690285e-01,1.000312793874644779e-01,1.896015640107804601e-01,-7.993803657478990021e-02,3.338326568967323167e-06,4.665603573207438917e-03,3.237086203531354227e-03,1.528167063444743068e+00,-9.169727480283066702e-04,5.056909640942587906e-04,3.309546246734508812e-01
3.500000000000000000e+00,-6.150259973928080826e-02,-5.903002756232011983e-01,1.000316913516679090e-01,1.943002862070815351e-01,-7.546634641249919118e-02,3.333479796245510716e-06,4.762402675994644591e-03,3.667513867297403883e-03,1.569538024511891283e+00,-5.800811494173879236e-03,1.079534454027280014e-03,3.309754713659050496e-01
3.750000000000000000e+00,-3.691483738884301230e-02,-5.993904552368217731e-01,1.000321352110242201e-01,1.989384364919735970e-01,-6.992281135256160629e-02,3.834668828728785350e-06,4.926063995407688190e-03,4.689846554421971125e-03,1.610912137196286231e+00,-1.030030863904559182e-02,1.063658587282410514e-03,3.309986999073890601e-01
4.000000000000000000e+00,-1.175376533156320680e-02,-6.076813618303721354e-01,1.000326670578713661e-01,2.034554694968842559e-01,-6.263843379501658759e-02,4.657749704584326724e-06,5.108077552767071629e-03,6.186161040626696368e-03,1.652289349468154311e+00,-1.334294976943384801e-02,2.726676428523431726e-04,3.310194009427438466e-01
4.250000000000000000e+00,1.395406555086801427e-02,-6.149235305952275299e-01,1.000332858484991733e-01,2.076545077979405352e-01,-5.316838030136909060e-02,5.075122822699676219e-06,5.237897988920442102e-03,7.924589523752571807e-03,1.693668598764530797e+00,-1.407432644348907171e-02,-1.054805604622915125e-03,3.310319345828535709e-01
4.500000000000000000e+00,4.015084694665572995e-02,-6.208338603278152901e-01,1.000338738621433660e-01,2.112479670088694972e-01,-4.142406762971492101e-02,4.051302000051913084e-06,5.256158112987884164e-03,9.601841555591820662e-03,1.735047876741642181e+00,-1.214716666884968314e-02,-2.388320502421061552e-03,3.310319555828747373e-01
4.750000000000000000e+00,6.674190041923229455e-02,-6.251446145726051729e-01,1.000342039347748291e-01,2.139509033273998273e-01,-2.772693445466743387e-02,9.999990642457203939e-07,5.136082936822610953e-03,1.090967500701721382e-02,1.776424885946728205e+00,-7.878265426728878543e-03,-3.160177811319350369e-03,3.310185987587443424e-01
5.000000000000000000e+00,9.360263453296896463e-02,-6.276525991930350656e-01,1.000340450920912949e-01,2.155811172508332318e-01,-1.275929801870722725e-02,-3.521791245286609058e-06,4.888461284294483983e-03,1.160944822931545169e-02,1.817797970554985154e+00,-2.203592351191395286e-03,-3.014201028265349035e-03,3.309953008289764353e-01
5.250000000000000000e+00,1.205961586380750045e-01,-6.282557540528271867e-01,1.000333123742803698e-01,2.161247935010509602e-01,2.580780589149638329e-03,-7.860229808550389582e-06,4.553560960709990627e-03,1.159384943900110612e-02,1.859166748360229660e+00,3.560031233594458840e-03,-1.950248201182298163e-03,3.309685523884187131e-01
5.500000000000000000e+00,1.475953893708195908e-01,-6.269672907617346302e-01,1.000321517777750385e-01,2.157423950941366186e-01,1.738346936522123382e-02,-1.018018528744110517e-05,4.186604541711020679e-03,1.091722560792897020e-02,1.900532098442236251e+00,8.070351785876056852e-03,-3.239193135042298327e-04,3.309452603403079118e-01
5.750000000000000000e+00,1.745018082939798210e-01,-6.239034974978102666e-01,1.000308863238081741e-01,2.147129015047705980e-01,3.093454814298615338e-02,-9.610957027514307438e-06,3.842724061658365532e-03,9.784747262617882191e-03,1.941895613819451194e+00,1.032096458279512831e-02,1.281967933925274965e-03,3.309302770645300429e-01
6.000000000000000000e+00,2.012542462473139171e-01,-6.192485034046497638e-01,1.000298542568902882e-01,2.133361036486309259e-01,4.286994991346652212e-02,-6.722723558735860864e-06,3.564944921997724708e-03,8.502696606479127894e-03,1.983258928536279608e+00,9.900917884333485311e-03,2.258700869889214251e-03,3.309253631704738297e-01
6.250000000000000000e+00,2.278244968213190558e-01,-6.132054443809281663e-01,1.000292547566853651e-01,2.118258595101632780e-01,5.323725207018902006e-02,-2.980615176084351235e-06,3.376597061538955200e-03,7.403406123684935954e-03,2.024623291433267802e+00,7.080659622014982488e-03,2.174922546062981431e-03,3.309296981496737122e-01
6.500000000000000000e+00,2.542009072891249222e-01,-6.059468126928679865e-01,1.000291035750897894e-01,2.102289126299196897e-01,6.245117265757173936e-02,3.089437159089007519e-07,3.278357246927590327e-03,6.765383679545858633e-03,2.065989481198811983e+00,2.706847469907057348e-03,9.172555570073851611e-04,3.309410312837635093e-01
6.750000000000000000e+00,2.803649238443859382e-01,-5.975764404794384754e-01,1.000293039362274011e-01,2.083946338748560168e-01,7.115999012119562928e-02,2.667503345100189216e-06,3.249676072497912141e-03,6.749925186608248320e-03,2.107357889007979601e+00,-2.053958355568999850e-03,-1.272538093162453804e-03,3.309564785800656050e-01
7.000000000000000000e+00,3.062677165722749173e-01,-5.881118292224426503e-01,1.000297475689119336e-01,2.060044549598091246e-01,8.006326449418257885e-02,4.277633617810104641e-06,3.254077485844975113e-03,7.370001065461572083e-03,2.148728540114063890e+00,-6.039530935745491928e-03,-3.870519605456735311e-03,3.309727339661126533e-01
7.250000000000000000e+00,3.318139042115287318e-01,-5.774896624627947617e-01,1.000303558781678731e-01,2.026513634320487867e-01,8.973159766278139549e-02,5.318590028793208269e-06,3.247369912979024796e-03,8.497213662598694650e-03,2.190100994220645525e+00,-8.384459118419420459e-03,-6.224597316548118563e-03,3.309862299608071212e-01
7.500000000000000000e+00,3.568572038327351148e-01,-5.655911738499292962e-01,1.000310454294205814e-01,1.979455813170683809e-01,1.004739935384626054e-01,5.524060795079546088e-06,3.187208644250347049e-03,9.901363344309570269e-03,2.231474275274212715e+00,-8.698180585882377136e-03,-7.735302175794996071e-03,3.309938058874106748e-01
7.750000000000000000e+00,3.812093752154789850e-01,-5.522794058583443411e-01,1.000316772590209291e-01,1.916168400537622551e-01,1.122803999283505799e-01,4.357652494259688074e-06,3.042013557778065150e-03,1.130847124453599785e-02,2.272847027577705958e+00,-7.091045832669166070e-03,-8.004610698312512526e-03,3.309937835676756701e-01
8.000000000000000000e+00,4.046602912997386281e-01,-5.374384660106420464e-01,1.000320582021248517e-01,1.835875832826441845e-01,1.248432513573810715e-01,1.575707359256887432e-06,2.797300597465864069e-03,1.245990939410121685e-02,2.314217932933860133e+00,-4.065617011570763113e-03,-6.912263605698905182e-03,3.309867450568170222e-01
8.250000000000000000e+00,4.270044160291774915e-01,-5.210058405204748277e-01,1.000320078693773818e-01,1.740024064253722358e-01,1.376407301470877198e-01,-2.366838399461938734e-06,2.458134326673525310e-03,1.315815356812693321e-02,2.355586203669410850e+00,-3.315144296669625835e-04,-4.610509542854289780e-03,3.309753666607718192e-01
8.500000000000000000e+00,4.480679887289644170e-01,-5.029918789628435860e-01,1.000314458227582887e-01,1.632121808327557100e-01,1.500523984402272470e-01,-6.401887493573702098e-06,2.047457842074191115e-03,1.329178764331682278e-02,2.396951881984105359e+00,3.384419254485000837e-03,-1.459110744359821618e-03,3.309633048521664067e-01
8.750000000000000000e+00,4.677317359883440551e-01,-4.834844034062690810e-01,1.000304398163159580e-01,1.517216230353621853e-01,1.614769087406562054e-01,-9.325563095152021852e-06,1.601113386547581632e-03,1.284042776588652755e-02,2.438315787387863143e+00,6.477864697171974509e-03,2.062140697347578620e-03,3.309537511116867337e-01
9.000000000000000000e+00,4.859453946015601100e-01,-4.626397538045144975e-01,1.000291876059649365e-01,1.401138168407393414e-01,1.714291153426312497e-01,-1.032198083837655418e-05,1.161051117493391285e-03,1.186564199650519576e-02,2.479679158279017415e+00,8.537449749420297426e-03,5.432798225910437026e-03,3.309483915520126662e-01
9.250000000000000000e+00,5.027320425788279756e-01,-4.406637212394469705e-01,1.000279465727388212e-01,1.289649774772657076e-01,1.796047283050952181e-01,-9.251926266307644567e-06,7.683442862373188013e-04,1.049492661824043271e-02,2.521043181502102382e+00,9.359058092675233767e-03,8.152669383024618507e-03,3.309471561864048561e-01
9.500000000000000000e+00,5.181817506728886302e-01,-4.177866812745158476e-01,1.000269475623285498e-01,1.187604132829410963e-01,1.859097164035777572e-01,-6.630388433983612717e-06,4.572558255812843244e-04,8.903203297483458165e-03,2.562408622513848488e+00,8.931148035245226741e-03,9.792355236392970286e-03,3.309486894237488319e-01
9.750000000000000000e+00,5.324353141025066627e-01,-3.942372178083428103e-01,1.000263280241589225e-01,1.098210012241236239e-01,1.904567660301572651e-01,-3.366939766918803263e-06,2.509981562812552418e-04,7.292753419736398325e-03,2.603775685685677299e+00,7.411404450216130778e-03,1.004538499604874791e-02,3.309512051528281651e-01
1.000000000000000000e+01,5.456599683308881454e-01,-3.702180893253079197e-01,1.000261062687159419e-01,1.022493551335407341e-01,1.935331074801942552e-01,-3.930072757408241328e-07,1.592963208705948657e-04,5.870681026958027814e-03,2.645144117206882584e+00,5.098705539321559017e-03,8.782698773111944496e-03,3.309533355678926925e-01
1.025000000000000000e+01,5.580201468301078105e-01,-3.458877742926775301e-01,1.000262023434673464e-01,9.590479815568912769e-02,1.955452528649091470e-01,1.688704783620520363e-06,1.775904137178061469e-04,4.823848727566523026e-03,2.686513464311108379e+00,2.393260067560808863e-03,6.095260404234865113e-03,3.309546458445895567e-01
1.050000000000000000e+01,5.696473705442504087e-01,-3.213500172295090107e-01,1.000264937178035191e-01,9.041413277662022074e-02,1.969482529573925167e-01,2.794250295757079618e-06,2.876984914343169828e-04,4.293627436611991734e-03,2.727883350255941419e+00,-2.608727886978061666e-04,2.304985562593523697e-03,3.309556224810929481e-01
1.075000000000000000e+01,5.806139347856110744e-01,-2.966526725624645255e-01,1.000268787105233065e-01,8.522014044677703182e-02,1.981697684292501871e-01,3.292665611063732582e-06,4.598622659250872985e-04,4.354744805439737278e-03,2.769253628327278172e+00,-2.446893964212344848e-03,-2.068496002952989812e-03,3.309571610371635497e-01
1.100000000000000000e+01,5.909148586299221018e-01,-2.717957192318298243e-01,1.000273155518090901e-01,7.966274358836790415e-02,1.995411078892434242e-01,3.705509463340927006e-06,6.561371758192455520e-04,5.002703162120788853e-03,2.810624343034051176e+00,-3.846413220060846631e-03,-6.383018385004253156e-03,3.309598295164997150e-01
1.125000000000000000e+01,6.004614775847494368e-01,-2.467467974506898643e-01,1.000278167588492945e-01,7.308100911191939275e-02,2.012469894708826534e-01,4.329906792790911835e-06,8.349667476118250147e-04,6.152634725409667805e-03,2.851995531068508782e+00,-4.293893369080190904e-03,-9.975758748725810018e-03,3.309633272512707003e-01
1.150000000000000000e+01,6.090882628389115983e-01,-2.214613221989202574e-01,1.000284033697870917e-01,6.491969873375046107e-02,2.033027035948367367e-01,5.002851638701732175e-06,9.565235894321743237e-04,7.650073430361226980e-03,2.893366988815570195e+00,-3.801835256758880587e-03,-1.227174129261596712e-02,3.309664757959882020e-01
1.175000000000000000e+01,6.165722960887894954e-01,-1.959034562778138866e-01,1.000290475686430730e-01,5.482277217268774483e-02,2.055622823152428447e-01,5.154086074025140371e-06,9.881236604285287446e-04,9.292049009966329987e-03,2.934738162370709169e+00,-2.551778707523913794e-03,-1.288084574113426174e-02,3.309677875549666970e-01
1.200000000000000000e+01,6.226627111870812747e-01,-1.700641499416780111e-01,1.000296407054885872e-01,4.269794887961375629e-02,2.077554598659738794e-01,4.133180538311253270e-06,9.088615075755298494e-04,1.085557153676039964e-02,2.976108256341070124e+00,-8.534975459516298693e-04,-1.166930692853805976e-02,3.309663208723253591e-01
1.225000000000000000e+01,6.271156698923129325e-01,-1.439730874747317813e-01,1.000300111219911137e-01,2.874053495719156373e-02,2.095458472112244341e-01,1.637590184183049505e-06,7.126518747271958594e-04,1.212977366359905065e-02,3.017476536285419009e+00,9.198546036996903957e-04,-8.793877296450709757e-03,3.309623419758065399e-01
1.250000000000000000e+01,6.297293391274877417e-01,-1.177026039788413581e-01,1.000299887149309896e-01,1.341083853983466960e-02,2.105987536440675767e-01,-2.002846281161745362e-06,4.091007774984407072e-04,1.294711581388212178e-02,3.058842682359224074e+00,2.408901123839190823e-03,-4.685521264248076329e-03,3.309573867921474233e-01
1.275000000000000000e+01,6.303731332982128732e-01,-9.136323033840942909e-02,1.000294849590087354e-01,-2.632345867158036694e-03,2.106451745714613688e-01,-5.871162909081764755e-06,2.201416626907446987e-05,1.320792114857233072e-02,3.100207007286386318e+00,3.341444525665057327e-03,2.836237185406049370e-05,3.309536289534921183e-01
1.300000000000000000e+01,6.290064133368018506e-01,-6.509218565156126013e-02,1.000285443603408098e-01,-1.863000690832440978e-02,2.095293370178871184e-01,-8.846477515262840029e-06,-4.141947907402809782e-04,1.289204740482357246e-02,3.141570412521611733e+00,3.582729270534833026e-03,4.659489506883264694e-03,3.309528639898088875e-01
1.325000000000000000e+01,6.256838356251337441e-01,-3.903792522856606301e-02,1.000363435793543837e-01,-3.383218632895083899e-02,2.072257946656144156e-01,-5.001867000823407569e-06,-8.537622734000417440e-04,1.205408800740627277e-02,-3.099903837240711724e+00,3.116551173990963954e-03,8.625784463002562560e-03,3.271945153977232623e-01
1.350000000000000000e+01,6.205483400850098086e-01,-1.334179799006091245e-02,1.000335967809869858e-01,-4.759098119507628594e-02,2.038624073052039964e-01,-2.780749315399494881e-05,-1.267985261234121693e-03,1.079664600293759810e-02,-3.058794056301780362e+00,2.173772204247568542e-03,1.157960321094523258e-02,3.299570357459290504e-01
1.375000000000000000e+01,6.138135226169301184e-01,1.187633175044082445e-02,1.000303543603411477e-01,-5.941911016291673286e-02,1.996488360944204121e-01,-2.310201339283998853e-05,-1.618510531048516447e-03,9.244326613213305413e-03,-3.017495156444549576e+00,8.194248290627883851e-04,1.346709410332738895e-02,3.306998211737440796e-01
1.400000000000000000e+01,6.057427757800627477e-01,3.652830223372979107e-02,1.000279204470591321e-01,-6.900179001813437629e-02,1.948758414492704760e-01,-1.614860602016582458e-05,-1.873689232600362145e-03,7.505391599794669806e-03,-2.976144105484305413e+00,-7.757597413369277150e-04,1.449193725193940671e-02,3.309025234837358886e-01
1.425000000000000000e+01,5.966289202144671178e-01,6.056571704959369529e-02,1.000262981898081271e-01,-7.617131985503682035e-02,1.898822479943793051e-01,-1.023005328440852912e-05,-2.011940039558809609e-03,5.652520594120592420e-03,-2.934777819061784587e+00,-2.497209275474392663e-03,1.495600792702101930e-02,3.309594864810418424e-01
1.450000000000000000e+01,5.867786000791145318e-01,8.398426151632011616e-02,1.000253289715980626e-01,-8.086367582813504262e-02,1.850306547095471599e-01,-5.638039104886468716e-06,-2.020469555900557788e-03,3.723773735359599702e-03,-2.893406680137397657e+00,-4.276701258967575622e-03,1.507523145298728974e-02,3.309757966770641713e-01
1.475000000000000000e+01,5.765016392052151328e-01,1.068256370403884853e-01,1.000248595636098470e-01,-8.308659426454668984e-02,1.806922510456779596e-01,-2.148564529084818102e-06,-1.892497863282544121e-03,1.744490215668798591e-03,-2.852034069105910508e+00,-6.037378101270848840e-03,1.483307932077859541e-02,3.309793901589277443e-01
1.500000000000000000e+01,5.661023975149969134e-01,1.291777027804227040e-01,1.000247685282091847e-01,-8.292095554196246554e-02,1.772313324925278988e-01,4.675306142800415419e-07,-1.624616396889779673e-03,-2.378934743071005472e-04,-2.810661548228743367e+00,-7.619759158815703898e-03,1.393801912074562645e-02,3.309774558685228962e-01
1.525000000000000000e+01,5.558683627352629664e-01,1.511719826676934386e-01,1.000249484000793887e-01,-8.056171491246039151e-02,1.749770669105393806e-01,2.182789699888901885e-06,-1.215901396286894710e-03,-2.120068380793023108e-03,-2.769290208719924262e+00,-8.731861252649127797e-03,1.191287596849225847e-02,3.309717776184187277e-01
1.550000000000000000e+01,5.460517137504538043e-01,1.729763045820388034e-01,1.000252674431427458e-01,-7.638468118088539982e-02,1.741738015367298165e-01,2.664465301889796554e-06,-6.696189195571437261e-04,-3.725447723671025235e-03,-2.727920881887022198e+00,-8.963009750524964306e-03,8.294797778779327072e-03,3.309635836579423174e-01
1.575000000000000000e+01,5.368424511916393138e-01,1.947798598705092199e-01,1.000255468192489811e-01,-7.100883768411658803e-02,1.749115018180044945e-01,1.572388288674436270e-06,2.777006646911260934e-06,-4.814530497251378986e-03,-2.686553891860782528e+00,-7.878058978314885982e-03,2.879970752039971889e-03,3.309555806772206954e-01
1.600000000000000000e+01,5.283360270700309114e-01,2.167690243260624317e-01,1.000255959559042951e-01,-6.531747026309166204e-02,1.770512011302437239e-01,-8.553309616964089580e-07,7.767212200219060416e-04,-5.126056220835347767e-03,-2.645188633129533784e+00,-5.174617060384931709e-03,-4.076628879074224547e-03,3.309524495395413379e-01
1.625000000000000000e+01,5.205026696640985273e-01,2.390948915484546744e-01,1.000253190400080400e-01,-6.040871729402228635e-02,1.801710646441127828e-01,-3.341656101960776361e-06,1.610724031917334020e-03,-4.441518113627473084e-03,-2.603823310821433257e+00,-8.534776362912974840e-04,-1.178944139623109948e-02,3.309595584662330392e-01
1.650000000000000000e+01,5.131680902436103198e-01,2.618369532667508826e-01,1.000248382530055102e-01,-5.746616188330707503e-02,1.835614327911105903e-01,-3.827644509305871207e-06,2.445749426626737943e-03,-2.656366699834096772e-03,-2.562455227425981530e+00,4.664393219280164524e-03,-1.904383222272926571e-02,3.309800631785755343e-01
1.675000000000000000e+01,5.060147288969393253e-01,2.849704970891936417e-01,1.000245221747861485e-01,-5.756685247129321448e-02,1.862890650132833226e-01,-6.770384939783316491e-07,3.209227559346875935e-03,1.634741606597619567e-04,-2.521081791717266984e+00,1.053305503792732571e-02,-2.445842711675312933e-02,3.310117806516996164e-01
1.700000000000000000e+01,4.986088667440468636e-01,3.083467424559649950e-01,1.000248307749395799e-01,-6.146864519028000934e-02,1.873328578109422493e-01,5.779214144056776761e-06,3.823925519283746365e-03,3.759269763706532021e-03,-2.479701949130767247e+00,1.561516288163629709e-02,-2.683781851856385792e-02,3.310460712062694988e-01
1.725000000000000000e+01,4.904526855404551244e-01,3.316935735872654223e-01,1.000260122109714739e-01,-6.943198148595543240e-02,1.857707510336881473e-01,1.260280083380975229e-05,4.220404974607036216e-03,7.702431829946982701e-03,-2.438317263767406651e+00,1.873338962502907323e-02,-2.550921081727437756e-02,3.310703573799396726e-01
1.750000000000000000e+01,4.810535111239452322e-01,3.546408533737359647e-01,1.000278333482132603e-01,-8.112766607836580102e-02,1.809779006970769211e-01,1.543183568994010871e-05,4.350483449832119077e-03,1.146151397761343942e-02,-2.396931833136857648e+00,1.897556073911122951e-02,-2.053734314759822141e-02,3.310737492281956018e-01
1.775000000000000000e+01,4.699971706270041349e-01,3.767685575371925166e-01,1.000295634765625968e-01,-9.566227758959931771e-02,1.727865759814179447e-01,1.110731222758309995e-05,4.198445947739258034e-03,1.449951708727186851e-02,-2.355550783096715506e+00,1.596498940336056258e-02,-1.274886889139272526e-02,3.310528496157009726e-01
1.800000000000000000e+01,4.570103326763417795e-01,3.976699101725212904e-01,1.000302916132763814e-01,-1.117225601212979563e-01,1.615626978461205676e-01,5.090936590544502421e-08,3.786981655671405652e-03,1.637901498487328092e-02,-2.314177990923846906e+00,1.001187874650452149e-02,-3.556334911736801913e-03,3.310140892498057985e-01
1.825000000000000000e+01,4.419985951143970415e-01,4.170171120044898205e-01,1.000294216558912375e-01,-1.278088197436531015e-01,1.481720497956997840e-01,-1.342619570492326673e-05,3.175909887366360710e-03,1.685011244673657524e-02,-2.272814288695419460e+00,2.094314532971067785e-03,5.367597211141662307e-03,3.309707986049937878e-01
1.850000000000000000e+01,4.250524465806967966e-01,4.346155643472323082e-01,1.000270368619880917e-01,-1.425043239247519855e-01,1.338360898729113735e-01,-2.335454140106251814e-05,2.453432899557995549e-03,1.590062777872499125e-02,-2.231457205072693739e+00,-6.332235536816865559e-03,1.247255521003087959e-02,3.309365783931123572e-01
1.875000000000000000e+01,4.064205599123636992e-01,4.504343198234140311e-01,1.000238883511366250e-01,-1.547194382425379766e-01,1.199052202698541736e-01,-2.550153514880066185e-05,1.721483771378682715e-03,1.375766940674149307e-02,-2.190102377006778234e+00,-1.364809532991334041e-02,1.666522427105020590e-02,3.309189632292107719e-01
1.900000000000000000e+01,3.864571654304880810e-01,4.646054351727784693e-01,1.000210070375082277e-01,-1.638574596061227184e-01,1.075983440529821727e-01,-1.967958600471627823e-05,1.078222748509388143e-03,1.084167623570659114e-02,-2.148745736076436152e+00,-1.842509972036637453e-02,1.751446667439917823e-02,3.309170605815268673e-01
1.925000000000000000e+01,3.655556074031272029e-01,4.773917018634706855e-01,1.000191853172354706e-01,-1.698704743311955367e-01,9.776607857384339573e-02,-9.501599747506448454e-06,6.014187860120559460e-04,7.684350141604699702e-03,-2.107385167022369554e+00,-1.973991533193104539e-02,1.528888166605931083e-02,3.309240767431423924e-01
1.950000000000000000e+01,3.440823884929116172e-01,4.891291945977162547e-01,1.000186457215151148e-01,-1.732011266539865424e-01,9.072965501472435301e-02,8.570659397571373639e-08,3.361315735052466946e-04,4.828216680093627006e-03,-2.066020798436037254e+00,-1.737772410026805492e-02,1.083653323663132280e-02,3.309325053212360257e-01
1.975000000000000000e+01,3.223247945117574953e-01,5.001565929399274246e-01,1.000190689972455110e-01,-1.746320878133717225e-01,8.623071183286377950e-02,5.719908721920880506e-06,2.889641297267152168e-04,2.727311357825219166e-03,-2.024654034630839927e+00,-1.188744831782236923e-02,5.351623662850541613e-03,3.309384060196993160e-01
2.000000000000000000e+01,3.004611870321132749e-01,5.107461452540655866e-01,1.000199095366214458e-01,-1.750832994710582735e-01,8.350345967033155625e-02,7.102442844976882202e-06,4.296366261322506525e-04,1.666744400570906908e-03,-1.983286192178981944e+00,-4.479132913293254643e-03,8.959643018993684220e-05,3.309423185154234393e-01
2.025000000000000000e+01,2.785574239546035336e-01,5.210509160477910795e-01,1.000207541891298818e-01,-1.754048733351671885e-01,8.145501267827914837e-02,6.294705236479950884e-06,6.991882821327150867e-04,1.714979752952749134e-03,-1.941917693561927116e+00,3.219268895666437674e-03,-3.906493898450058740e-03,3.309469054373337382e-01
2.050000000000000000e+01,2.565869598351131486e-01,5.310796393873165044e-01,1.000214879731182865e-01,-1.762107142820621974e-01,7.891653744557065864e-02,5.615578729920871659e-06,1.023006114814053145e-03,2.717360470779429157e-03,-1.900548221858566311e+00,9.504334854958541162e-03,-6.013742127686288498e-03,3.309535748962746382e-01
2.075000000000000000e+01,2.344672293644910754e-01,5.407046737136339543e-01,1.000221959078181760e-01,-1.777860498705190195e-01,7.491128908505606532e-02,5.799886077573742366e-06,1.326169573806553576e-03,4.332974000518779317e-03,-1.859177499876125683e+00,1.297644018982881467e-02,-6.131163893218199296e-03,3.309607222151551564e-01
2.100000000000000000e+01,2.121019036901872212e-01,5.497012711078623770e-01,1.000229288684897910e-01,-1.800837022353688199e-01,6.887909004934099355e-02,5.742930427509524247e-06,1.548263774580588715e-03,6.109623371607376605e-03,-1.817805952451711171e+00,1.287843212010583195e-02,-4.655365913937560031e-03,3.309647484631175196e-01
2.125000000000000000e+01,1.894181217330235811e-01,5.578090693625769037e-01,1.000235501374627245e-01,-1.828026186154845245e-01,6.080282844887632820e-02,3.875469399058805319e-06,1.654853296640849871e-03,7.584068504693524185e-03,-1.776434696176440564e+00,9.311957189341633565e-03,-2.335305178029619885e-03,3.309628232930612035e-01
2.150000000000000000e+01,1.663899384751041655e-01,5.648010183270155693e-01,1.000237956296790576e-01,-1.855221862024892254e-01,5.120171720815451522e-02,-7.977548589539169644e-08,1.643284022150845024e-03,8.388007366990132135e-03,-1.735064894613163711e+00,3.261988434114651732e-03,-3.983062296023685215e-05,3.309550904881679023e-01
2.175000000000000000e+01,1.430435282447718170e-01,5.705424012310097437e-01,1.000234912498666473e-01,-1.878519291738779684e-01,4.098623757624883512e-02,-4.521354256662229526e-06,1.541447696899828470e-03,8.336254513326549209e-03,-1.693697036568360126e+00,-3.605312658973879210e-03,1.502175545913793679e-03,3.309446088508583572e-01
2.200000000000000000e+01,1.194450906610161761e-01,5.750242621799754872e-01,1.000227298838186063e-01,-1.895525417252174605e-01,3.120530985028615450e-02,-7.104542039762696465e-06,1.399549108453823978e-03,7.474410232286215344e-03,-1.652330721910471256e+00,-9.348822928691503595e-03,1.914543613166487957e-03,3.309352725211705537e-01
2.225000000000000000e+01,9.567747107194732314e-02,5.783615314187166012e-01,1.000218420625182403e-01,-1.905930827866357813e-01,2.274829771958450028e-02,-6.614271038706243902e-06,1.276527170030861092e-03,6.070578149292210623e-03,-1.610965065577384836e+00,-1.227269978204595727e-02,1.271466998508509775e-03,3.309296038349950897e-01
2.250000000000000000e+01,7.181470283819035849e-02,5.807553278059256474e-01,1.000211786713682549e-01,-1.911292435097055598e-01,1.608249661502047026e-02,-3.872549273918385409e-06,1.224203452671127242e-03,4.548933757970390242e-03,-1.569599288132629500e+00,-1.141843157430965337e-02,4.384214666158374089e-05,3.309281958977950966e-01
2.275000000000000000e+01,4.790391489632769839e-02,5.824289913253596351e-01,1.000208969534335801e-01,-1.914134536312692980e-01,1.110270302295188714e-02,-8.404370692652034043e-07,1.273020750729135899e-03,3.379022627115948335e-03,-1.528232954880891059e+00,-6.875864484481125985e-03,-1.092100192818427819e-03,3.309308192091537926e-01
2.300000000000000000e+01,2.396112667247793024e-02,5.835554056140360712e-01,1.000209349056792457e-01,-1.916708422170493031e-01,7.141659014780935011e-03,1.192501859171318010e-06,1.423075148266716170e-03,2.948483534053886190e-03,-1.486865752591721046e+00,1.961464111228410274e-04,-1.520113063719294834e-03,3.309375259225922905e-01
2.325000000000000000e+01,-1.774184324360931608e-05,5.841964896230905646e-01,1.000211715504485677e-01,-1.919873496157079584e-01,3.145306698335220870e-03,2.519939661209041364e-06,1.642990125719074029e-03,3.453410234488593980e-03,-1.445497219614922502e+00,7.862126766143928344e-03,-9.297579574186507845e-04,3.309482204314918574e-01
2.350000000000000000e+01,-2.403504496236170615e-02,5.842730507347909663e-01,1.000215840539136342e-01,-1.922526926659531010e-01,-2.031761539833300441e-03,4.121015595059907193e-06,1.877271651749771357e-03,4.837070396350600515e-03,-1.404126913152424772e+00,1.393880994676605437e-02,5.466147749810109594e-04,3.309610511836088564e-01
2.375000000000000000e+01,-4.802955593098859333e-02,5.835830223796079075e-01,1.000239572439871050e-01,-1.902956162054323663e-01,-8.890124400454453568e-03,5.723461815761818637e-05,-7.479980034263535374e-03,6.630286483832075958e-03,-1.377757198775760417e+00,-3.042316423314456869e-02,2.183082708355478796e-01,-2.048881963407525597e-02
2.400000000000000000e+01,-7.031088912240664179e-02,5.821867405620764213e-01,1.000620815090865340e-01,-1.599755338100715130e-01,-1.224090602710178194e-02,6.196602594074887213e-04,-4.341344771863686614e-02,7.359187524670164626e-03,-1.398302272609970309e+00,-5.214609985085219557e-02,2.926051153549624195e-01,-2.475626312243047744e-01
2.425000000000000000e+01,-8.601593756887294939e-02,5.807756396092608187e-01,1.001569931407772507e-01,-8.785382754862149091e-02,-9.711062448914077258e-03,6.653369019858140429e-04,-7.158779825505651173e-02,6.350064400845898890e-03,-1.434133448468356553e+00,-3.190863542358546995e-02,1.323203825081762930e-01,-3.077557795598809265e-01
2.450000000000000000e+01,-9.107191646104266514e-02,5.798443385178946308e-01,1.001760812225943598e-01,4.625126707830629416e-03,-5.444114851770332983e-03,-3.968526982955630843e-04,-7.455882419282171270e-02,4.423695046232891705e-03,-1.473900741866476682e+00,-7.873657952334290472e-03,-7.613716986722458835e-02,-3.242401781375136571e-01
2.475000000000000000e+01,-8.492886716817131532e-02,5.793328959981448589e-01,1.000749587097525817e-01,8.712656633007431761e-02,-3.345374626917675242e-03,-1.015259883822980857e-03,-5.583375680267343294e-02,2.929498753830782082e-03,-1.514725026768099392e+00,3.259554872812073061e-03,-2.004797275660662459e-01,-3.288970715382683041e-01
2.500000000000000000e+01,-7.025108701543203438e-02,5.788752232975722389e-01,9.996652270188320644e-02,1.404246554895812460e-01,-4.401771855723457007e-03,-6.170299603706117615e-04,-2.932525651759776419e-02,2.405124257292210344e-03,-1.555875518248163170e+00,1.897342058121921984e-03,-2.053467850799767513e-01,-3.303142759805521855e-01
2.525000000000000000e+01,-5.097401168353426354e-02,5.781482500969917782e-01,9.992978919781610181e-02,1.627576147031070675e-01,-7.262024243089763333e-03,-3.255865296995942283e-05,-8.047406687103502571e-03,2.311581943764096439e-03,-1.597154042098508642e+00,-4.857722160072078070e-03,-1.293873223623395186e-01,-3.308504127215609603e-01
2.550000000000000000e+01,-3.035982807508509282e-02,5.770584137273234715e-01,9.994328053278501989e-02,1.648222465252642543e-01,-9.903047695174835990e-03,1.778235796582966174e-04,2.004150474989033898e-03,1.729261855119698524e-03,-1.638502956571791902e+00,-1.065010638022097222e-02,-3.584972008637425656e-02,-3.310254527906755229e-01
2.575000000000000000e+01,-1.003263512876368009e-02,5.757340047706732689e-01,9.996483283330349912e-02,1.605062788880784186e-01,-1.092412779085871755e-02,1.533693021567816253e-04,2.066367558226304101e-03,2.098028894156844749e-04,-1.679879716731326633e+00,-1.239677212454383740e-02,2.760806416308517891e-02,-3.310015502713219426e-01
2.600000000000000000e+01,9.909125213967017246e-03,5.744091327870198826e-01,9.998137453740307823e-02,1.596274158786294417e-01,-1.001089932784330998e-02,1.173678095432092994e-04,-2.778189861691784685e-03,-1.858802925816223925e-03,-1.721246723512182886e+00,-9.668654556274811421e-03,4.573882552438099380e-02,-3.309479658394435808e-01
2.625000000000000000e+01,3.016762276065642137e-02,5.732931682797101081e-01,9.999464219316635261e-02,1.653645118128009850e-01,-7.788651817097018253e-03,9.441041533714165858e-05,-7.512863979947542216e-03,-3.510188647833758450e-03,-1.762602318545789748e+00,-3.283439209400033313e-03,3.003034035594264947e-02,-3.309580416545223058e-01
2.650000000000000000e+01,5.147869551156547541e-02,5.724764666594135409e-01,1.000041678955719271e-01,1.757129145209310184e-01,-5.453371308225341343e-03,5.722610008404329090e-05,-9.488483356111248809e-03,-3.784403666552370142e-03,-1.803968238415450731e+00,5.434001127074282456e-03,2.452867424566897766e-03,-3.310174873428466946e-01
2.675000000000000000e+01,7.416360023723909956e-02,5.718825304840982060e-01,1.000089420827178777e-01,1.866523304215575718e-01,-4.418360763275291578e-03,2.337481077595862533e-05,-8.650671750568977164e-03,-2.231497752320225035e-03,-1.845352060323301346e+00,1.471702997595640203e-02,-1.904989091183729305e-02,-3.310819314394935486e-01
2.700000000000000000e+01,9.806463178149867066e-02,5.712602380645023237e-01,1.000109776743292739e-01,1.948534452807027528e-01,-6.021467541281643604e-03,1.368407217899774008e-05,-6.428761752196900103e-03,9.198525854996717236e-04,-1.886742172427717135e+00,2.242305353105981600e-02,-2.714136700328086821e-02,-3.311299768517155795e-01
2.725000000000000000e+01,1.227256560814289910e-01,5.702104285241491599e-01,1.000130721799924738e-01,1.988730830006741612e-01,-1.126274901808424142e-02,2.081880303574112052e-05,-4.371354167614848255e-03,4.935158526374300303e-03,-1.928129670295546827e+00,2.648697098819973589e-02,-2.388348402421350269e-02,-3.311563547037115751e-01
2.750000000000000000e+01,1.476259191465748855e-01,5.682434923922279335e-01,1.000161609949368618e-01,1.989488737722207023e-01,-2.057535765261172406e-02,2.715626612846896857e-05,-3.297818660835161435e-03,8.917972085706485016e-03,-1.969517365905845585e+00,2.562942460115157778e-02,-1.557502447686360224e-02,-3.311555335498532204e-01
2.775000000000000000e+01,1.723363550795472543e-01,5.648604792455413914e-01,1.000194560611035316e-01,1.961251442699977476e-01,-3.368770230695269929e-02,2.396422855220933006e-05,-3.169944360422026920e-03,1.212329149974353953e-02,-2.010908929655423893e+00,1.989223839619741821e-02,-7.796120316382872291e-03,-3.311243332646151560e-01
2.800000000000000000e+01,1.965647579183519011e-01,5.596417833881265347e-01,1.000217670744661530e-01,1.914448844661289506e-01,-4.964298787278617620e-02,1.241312792168497327e-05,-3.452319579928087891e-03,1.411935971692888751e-02,-2.052299927862755613e+00,1.065062346147290645e-02,-2.974815097681219895e-03,-3.310710650496032081e-01
2.825000000000000000e+01,2.201268814999712831e-01,5.523220078516718479e-01,1.000223919744453738e-01,1.855847703258393100e-01,-6.699152280114152591e-02,-1.856189777115878539e-06,-3.584329413672476296e-03,1.478811148710406330e-02,-2.093681986165243369e+00,8.964616598742885471e-05,-5.972885002177400230e-04,-3.310144793040662448e-01
2.850000000000000000e+01,2.429012916390256571e-01,5.428323309436301480e-01,1.000213879116738924e-01,1.789183878721946064e-01,-8.410017038871749062e-02,-1.291574569517715876e-05,-3.284143105347830070e-03,1.423054921661963748e-02,-2.135051520060409214e+00,-9.564015872863974171e-03,1.158011836254660594e-03,-3.309727630776486684e-01
2.875000000000000000e+01,2.648075210905624366e-01,5.313019461666260712e-01,1.000194110734815567e-01,1.717740609527026174e-01,-9.947950645672938574e-02,-1.737736439974788094e-05,-2.599867278928658446e-03,1.265860920671344272e-02,-2.176412429028762752e+00,-1.668600279576627071e-02,3.771843919812999189e-03,-3.309535333990718531e-01
2.900000000000000000e+01,2.858153524907899867e-01,5.180227408973954173e-01,1.000173118359840990e-01,1.646438563840210700e-01,-1.120345867530581213e-01,-1.535984414285687221e-05,-1.780762732523264022e-03,1.032463376110613097e-02,-2.217771958819174216e+00,-2.054015797061055359e-02,7.556466569874451845e-03,-3.309525718977946451e-01
2.925000000000000000e+01,3.059695185950256913e-01,5.033905796171191938e-01,1.000157587231495504e-01,1.582184681191026177e-01,-1.211889621177851539e-01,-9.258135975351251945e-06,-1.100159897760244476e-03,7.496428778601755410e-03,-2.259135327875600119e+00,-2.119316048361624336e-02,1.174282951603343277e-02,-3.309599340470781859e-01
2.950000000000000000e+01,3.254075463000740132e-01,4.878393591154920328e-01,1.000150760084683871e-01,1.532588972627706436e-01,-1.268847116952853404e-01,-1.920523731986934708e-06,-7.327743748661033835e-04,4.457084094570745378e-03,-2.300503521887400815e+00,-1.921166890641378550e-02,1.509391414303859480e-02,-3.309670265708992698e-01
2.975000000000000000e+01,3.443558047780812537e-01,4.717810547781372543e-01,1.000152593789612604e-01,1.503963011862107235e-01,-1.294974310853975463e-01,4.303090189622248427e-06,-7.219655262786636371e-04,1.503607192489362461e-03,-2.341874525401649532e+00,-1.533872595859688513e-02,1.655568260900193781e-02,-3.309700626764979781e-01
3.000000000000000000e+01,3.631014156967184991e-01,4.555592606780878850e-01,1.000160577728804179e-01,1.499590366801885899e-01,-1.297139581294572686e-01,7.818062963731889998e-06,-1.015229818275538345e-03,-1.069620128505683818e-03,-2.383245779069913528e+00,-1.028269815174766288e-02,1.563129263367537408e-02,-3.309697616073632997e-01
3.025000000000000000e+01,3.819477539386120224e-01,4.394184026032299517e-01,1.000170820300441688e-01,1.518855225790340935e-01,-1.284081840150952114e-01,8.026480893493822936e-06,-1.522732029572796417e-03,-3.000694789197339354e-03,-2.424615867956546822e+00,-4.648969945097202947e-03,1.241781306054504444e-02,-3.309694996554203295e-01
3.050000000000000000e+01,4.011652478183740378e-01,4.234876607998922515e-01,1.000179461710207496e-01,1.557307773760558123e-01,-1.265304959269972496e-01,5.548641968260362998e-06,-2.161686418756174604e-03,-4.092135902806835583e-03,-2.465984926865815385e+00,1.034116033903418339e-03,7.424775001669335454e-03,-3.309735486382332503e-01
3.075000000000000000e+01,4.209477329299577963e-01,4.077777569515609324e-01,1.000184124230268506e-01,1.607407272393137354e-01,-1.250113906331877522e-01,2.020197342355412527e-06,-2.872179706195612716e-03,-4.233873622769094083e-03,-2.507354287535897175e+00,6.268936234567893881e-03,1.344529085488175256e-03,-3.309856474208545674e-01
3.100000000000000000e+01,4.413805781771036885e-01,3.921891240363405418e-01,1.000184764850570313e-01,1.659598438187596670e-01,-1.246747468290934358e-01,-6.136951566275601997e-07,-3.610428236950894831e-03,-3.412535769751937498e-03,-2.548725931383015286e+00,1.057565340496277248e-02,-5.106653260187101959e-03,-3.310076531166502023e-01
3.125000000000000000e+01,4.624229912788048180e-01,3.765303956724808110e-01,1.000183500612523563e-01,1.703472045317853956e-01,-1.261594681269254670e-01,-9.544289823821217787e-07,-4.334471682757814158e-03,-1.708950890302021438e-03,-2.590101891690012259e+00,1.352813174020094794e-02,-1.124647630725723879e-02,-3.310383941378471917e-01
3.150000000000000000e+01,4.839047496879724797e-01,3.605459036553111396e-01,1.000183502169283145e-01,1.728905984242432303e-01,-1.298546140954307260e-01,1.262403378187097031e-06,-4.995139458084310070e-03,7.113483938421011777e-04,-2.631483552311913776e+00,1.482279049419049817e-02,-1.642376089434378211e-02,-3.310732521992376109e-01
3.175000000000000000e+01,5.055369763509556247e-01,3.439498892880064607e-01,1.000187452579028580e-01,1.727172525549189597e-01,-1.358579067167778875e-01,5.057389898656628887e-06,-5.537360796604350044e-03,3.611465180119562829e-03,-2.672870951785375038e+00,1.435065180434949052e-02,-2.002021128730341673e-02,-3.311049311171228582e-01
3.200000000000000000e+01,5.269364623996785069e-01,3.264638134852448359e-01,1.000196184202402638e-01,1.691992165409061666e-01,-1.439680514220725016e-01,8.573796274242805179e-06,-5.909566368391384883e-03,6.700916575088429472e-03,-2.714262414221609188e+00,1.224411403278446997e-02,-2.150364508634592872e-02,-3.311254122161947366e-01
3.225000000000000000e+01,5.476623566034954926e-01,3.078520574596445569e-01,1.000208022674241165e-01,1.620440110453157945e-01,-1.537173815469461691e-01,9.804544062390772573e-06,-6.075418057956378376e-03,9.661015816416550911e-03,-2.755654801109863605e+00,8.879459818227786877e-03,-2.053793097504188342e-02,-3.311285551470678490e-01
3.250000000000000000e+01,5.672623107573538936e-01,2.879509304789018564e-01,1.000219166958368627e-01,1.513529459651858644e-01,-1.644441714027087553e-01,7.473776683812956531e-06,-6.022546251763968329e-03,1.218029722899688014e-02,-2.797044396222993612e+00,4.827773549724556287e-03,-1.711407646204566105e-02,-3.311124145380736628e-01
3.275000000000000000e+01,5.853227061785740704e-01,2.666865292904599949e-01,1.000225097557494724e-01,1.376266685523067634e-01,-1.753954486050133543e-01,1.740601221664701473e-06,-5.765553278896224342e-03,1.399830282150369733e-02,-2.838428095514335503e+00,7.582196777161189817e-04,-1.164318797071504062e-02,-3.310802668585794972e-01
3.300000000000000000e+01,6.015153259203205316e-01,2.440786639352082177e-01,1.000222529898091572e-01,1.217036044495993508e-01,-1.858433014500499025e-01,-5.674602513159152370e-06,-5.343207932192300773e-03,1.495033362849021788e-02,-2.879804393067790347e+00,-2.690576376146657303e-03,-4.953872407461977143e-03,-3.310397172611564964e-01
3.325000000000000000e+01,6.156319260532581161e-01,2.202305554243215724e-01,1.000211013434221669e-01,1.046317711402035833e-01,-1.951926475285183649e-01,-1.216126672515058661e-05,-4.811355062545223139e-03,1.500134165713280093e-02,-2.921173738255397723e+00,-5.043254822393988465e-03,1.835873051108172400e-03,-3.310000784880249847e-01
3.350000000000000000e+01,6.275994565580159668e-01,1.953068362309900996e-01,1.000193278995672314e-01,8.749383230607243878e-02,-2.030582476969999273e-01,-1.544710618981491959e-05,-4.233521024868636302e-03,1.425674257529211883e-02,-2.962538144471570156e+00,-6.088425270225259443e-03,7.556364826519336789e-03,-3.309691373593216523e-01
3.375000000000000000e+01,6.374723298792486226e-01,1.695048437739555269e-01,1.000174051391630042e-01,7.122228196140042988e-02,-2.092946748813519497e-01,-1.469597891949483820e-05,-3.671032916924105941e-03,1.294280883475584960e-02,-3.003900293003348931e+00,-5.913780500432360039e-03,1.127066051227137988e-02,-3.309508326215327423e-01
3.400000000000000000e+01,6.454033581881662984e-01,1.430255413330276948e-01,1.000157969561234345e-01,5.644911022754253715e-02,-2.139743752017292111e-01,-1.078241116104610869e-05,-3.174199680951883800e-03,1.135818959399849566e-02,-3.045262593007961982e+00,-4.859393549333646325e-03,1.251594306225734844e-02,-3.309448509900428936e-01
3.425000000000000000e+01,6.516002650967338550e-01,1.160501131477721382e-01,1.000147811130999015e-01,4.342797010535171670e-02,-2.173228759990871450e-01,-5.601815534073336228e-06,-2.775896880095090474e-03,9.807689349994395955e-03,-3.086626604925107209e+00,-3.400617135134262163e-03,1.141882452177208317e-02,-3.309479856474531467e-01
3.450000000000000000e+01,6.562782982721492298e-01,8.872634148112255870e-02,1.000143930773278594e-01,3.204760909547917785e-02,-2.196319504191698024e-01,-9.628450108322028034e-07,-2.488623762791998106e-03,8.535939479032639277e-03,-3.127992960200934203e+00,-1.998522063001351070e-03,8.640535177531421390e-03,-3.309561428991135701e-01
3.475000000000000000e+01,6.596200284837380190e-01,6.116597819799177160e-02,1.000228867799457244e-01,2.192757715847233960e-02,-2.211735000054892153e-01,3.611160202149482352e-05,-2.308404719741149504e-03,7.679007570599047892e-03,3.113307015140279965e+00,-9.352953759277449295e-04,5.174100324396913898e-03,-3.253764973233027602e-01
3.500000000000000000e+01,6.617515053559165361e-01,3.345067737886765064e-02,1.000230482912214114e-01,1.257344838782056308e-02,-2.221577877404255774e-01,-1.303011457109460638e-05,-2.209357562610461158e-03,7.249675337703994672e-03,3.072315811823715492e+00,-4.226024681661730959e-04,1.989793840305983334e-03,-3.294820436785611539e-01
3.525000000000000000e+01,6.627373648739195433e-01,5.642029941178889826e-03,1.000213096221369141e-01,3.520091760313673063e-03,-2.226921063982876536e-01,-1.288797094611222293e-05,-2.161734608276390853e-03,7.157544394634586353e-03,3.031045187053523549e+00,-2.701597799443182361e-04,-1.763807890445562711e-04,-3.305825397085893624e-01
3.550000000000000000e+01,6.625927858670294102e-01,-2.220629516279973292e-02,1.000199555454144851e-01,-5.550323699782782304e-03,-2.228076508678052126e-01,-9.015036778561271436e-06,-2.140030895306659769e-03,7.254456292973511175e-03,2.989699490537508275e+00,-2.954361075087876746e-04,-1.082181841026081011e-03,-3.308783353281524175e-01
