time_total,x,y,z,vx,vy,vz,roll,pitch,yaw,roll_rate,pitch_rate,yaw_rate
e-01,9.990630455676094424e-02,1.264008884752265138e-01,7.468567358700610448e-02,3.932320851642303011e-04,1.622435207836257082e-03,7.661837782756651498e-03,2.360692793128319700e+00,-3.863827500239840756e-02,-1.456438646855514989e-02,2.995571737480092755e-01
2.500000000000000000e-01,3.324222916698101327e-01,-3.769179248832142948e-01,9.994794531881560917e-02,1.195104548124718280e-01,8.458887259854644403e-02,2.800118386020112237e-04,3.791155613391214169e-03,1.134149459538466055e-02,2.398156671888338920e+00,-2.540750929539916173e-02,-5.303601261122408220e-03,2.995214748806109828e-01
5.000000000000000000e-01,3.468401051491834530e-01,-3.654967042755554174e-01,9.997650185942104362e-02,1.113016485310859421e-01,9.804421235057685091e-02,1.827773940239571949e-04,4.959754246436359412e-03,1.278291636289807798e-02,2.435606477662341618e+00,-4.154524566688033022e-03,1.462781172550169052e-04,2.994501097122097555e-01
7.500000000000000000e-01,3.601916992105899662e-01,-3.523340828334449726e-01,9.999416900912413975e-02,1.026011095963473563e-01,1.118900181440492664e-01,1.069800517958550897e-04,4.570250774549120681e-03,1.197793249429055309e-02,2.473028925837197356e+00,1.555607548746106364e-02,6.135624548769073698e-03,2.993933219153492864e-01
1.000000000000000000e+00,3.724745801280746615e-01,-3.375808448034534059e-01,1.000042808850886283e-01,9.438331514781292397e-02,1.231623468424293544e-01,6.156028281400657517e-05,3.095400241244501260e-03,9.241688853657059610e-03,2.510435874017625135e+00,2.776077475626763033e-02,1.463910412565927119e-02,2.993765836008006054e-01
1.250000000000000000e+00,3.838353875176764296e-01,-3.216914115023978837e-01,1.000105945285345022e-01,8.804897103078607179e-02,1.300292107002323505e-01,4.382662827315216204e-05,1.426760516578952148e-03,5.062980222070628290e-03,2.547846485514126513e+00,3.091946492530717530e-02,2.437522965951192597e-02,2.993907155377480422e-01
1.500000000000000000e+00,3.946137563700150563e-01,-3.052578953380699067e-01,1.000158711897748826e-01,8.520705235004592815e-02,1.320693116769310893e-01,4.225273421922472639e-05,3.065429817018787851e-04,6.976428646591703261e-05,2.585268409953001889e+00,2.666655918264908276e-02,3.196978942400477419e-02,2.994103568214312450e-01
1.750000000000000000e+00,4.053355944720916093e-01,-2.888443742899894917e-01,1.000213088280089563e-01,8.714049908332859029e-02,1.300480182420787056e-01,4.436858041477487609e-05,5.192828903825603851e-05,-4.972262948599004764e-03,2.622695637408651859e+00,1.793042643334771119e-02,3.396570049889112430e-02,2.994184821067417679e-01
2.000000000000000000e+00,4.166357040619547147e-01,-2.728669720400660470e-01,1.000267006319166263e-01,9.426169231366093859e-02,1.254609656877622992e-01,4.044626096500625610e-05,5.805539279517897729e-04,-9.215701184762939077e-03,2.660118813128655724e+00,7.509589397689490388e-03,2.851731609769722620e-02,2.994161850364481237e-01
2.250000000000000000e+00,4.291263089881133252e-01,-2.575333466505447255e-01,1.000309372588079199e-01,1.058155964632701007e-01,1.200683818550001697e-01,2.613973001441467645e-05,1.599317767435133727e-03,-1.187017460100974094e-02,2.697534822107367614e+00,-2.525531077737676235e-03,1.612202902860742845e-02,2.994176484029814622e-01
2.500000000000000000e+00,4.432514536362958668e-01,-2.428344530826336001e-01,1.000328804621670870e-01,1.199437318160288118e-01,1.155300780620557438e-01,5.321359400756449225e-06,2.798858078836170219e-03,-1.238283456020913831e-02,2.734948391348068775e+00,-1.081544497002198332e-02,-6.648520018659056065e-04,2.994397883535951377e-01
2.750000000000000000e+00,4.591711943014974984e-01,-2.285742064051436429e-01,1.000323575404822585e-01,1.340688689127306210e-01,1.131580899523168676e-01,-1.148612218587898677e-05,3.961104991122167858e-03,-1.058498401804683874e-02,2.772367848234936982e+00,-1.649530794903698860e-02,-1.818455013943640064e-02,2.994922302303130723e-01
3.000000000000000000e+00,4.767071486120976198e-01,-2.144235611469952618e-01,1.000305509916716157e-01,1.454575421790316458e-01,1.137663075455429967e-01,-1.461120807744139516e-05,4.970433552836921003e-03,-6.741521109681544548e-03,2.809800261691111523e+00,-1.907628432188862230e-02,-3.281548421907896917e-02,2.995699574011871369e-01
3.250000000000000000e+00,4.953603389348140706e-01,-1.999880479316136495e-01,1.000293537776687919e-01,1.517861132840041816e-01,1.176017377657918861e-01,-2.950173710118237188e-06,5.771498433153993482e-03,-1.483968527583102645e-03,2.847248457604697247e+00,-1.848113002463317583e-02,-4.189353578256131000e-02,2.996522669389521942e-01
3.500000000000000000e+00,5.143919340723476230e-01,-1.848786498201034079e-01,1.000301387627304528e-01,1.515666893797401882e-01,1.243579665750520064e-01,1.491461781354940550e-05,6.325022694211169909e-03,4.344869301621406138e-03,2.884709815638560215e+00,-1.512200166925175247e-02,-4.419566363041901869e-02,2.997108119035243323e-01
3.750000000000000000e+00,5.329435457164205525e-01,-1.687754696011416200e-01,1.000328923968029221e-01,1.443543419444913711e-01,1.332738970696673575e-01,2.690011720995875259e-05,6.590738209557392771e-03,9.879453269094846946e-03,2.922176791566525988e+00,-9.883139931334203321e-03,-3.997056286141766751e-02,2.997235221597777111e-01
4.000000000000000000e+00,5.501684852388406544e-01,-1.514740722985797594e-01,1.000363136101346528e-01,1.307263916070684207e-01,1.433059862295955056e-01,2.546952927409052065e-05,6.538090778864589017e-03,1.439810072381758795e-02,2.959639512386399662e+00,-3.949569501229263820e-03,-3.063421074992634177e-02,2.996858629069347191e-01
4.250000000000000000e+00,5.653478570158619876e-01,-1.329072510726561629e-01,1.000386981249193896e-01,1.120769205776096372e-01,1.533407954223127700e-01,1.156385187293113088e-05,6.167742814548780352e-03,1.743178543086850232e-02,2.997089725445030606e+00,1.475099259145705010e-03,-1.829609040466066705e-02,2.996123019064338977e-01
4.500000000000000000e+00,5.779728032772211144e-01,-1.131401520205609634e-01,1.000389255914490710e-01,9.029727853071640997e-02,1.624006854014263812e-01,-7.354778470102578563e-06,5.525250988273830606e-03,1.880453466856169681e-02,3.034524032282394312e+00,5.457762423724175221e-03,-5.265928529329153875e-03,2.995278809721316216e-01
4.750000000000000000e+00,5.877835840297582770e-01,-9.234266446079361645e-02,1.000369486135828656e-01,6.741827044871613606e-02,1.697970070601299841e-01,-2.255466069143742988e-05,4.697455532842186726e-03,1.861503552093284400e-02,3.071944572776234672e+00,7.530708161674241376e-03,6.356613953816501149e-03,2.994561003862699078e-01
5.000000000000000000e+00,5.947650577756826706e-01,-7.074776965501836101e-02,1.000336285938733666e-01,4.527886184627268051e-02,1.752012584124829631e-01,-2.867458924664546200e-05,3.793485630862912777e-03,1.717919398247138782e-02,3.109357074363305884e+00,7.740575833991147382e-03,1.496269497478597277e-02,2.994102660243335157e-01
5.250000000000000000e+00,5.991050314319059655e-01,-4.860674330892079953e-02,1.000329723593361836e-01,2.526506089886661199e-02,1.786282490961211000e-01,1.411124060927788839e-04,2.920499568694673396e-03,1.495376334829800341e-02,-3.135423108240313450e+00,6.880761628494474341e-03,1.952060476544223433e-02,3.031358426378624182e-01
5.500000000000000000e+00,6.011265143288286872e-01,-2.615207497450384652e-02,1.000365399778392894e-01,8.162766095596171723e-03,1.803398040683534542e-01,-2.037273631394323525e-05,2.163019258070520649e-03,1.245283473202225301e-02,-3.098725512304247420e+00,4.681854620312908728e-03,1.998607986948341964e-02,2.963749050535466334e-01
5.750000000000000000e+00,6.012080564371851121e-01,-3.571839789116271289e-03,1.000333025626831546e-01,-5.906888652655544088e-03,1.807451108992806643e-01,-2.441424473094246160e-05,1.553665944924578551e-03,1.017253140461801299e-02,-3.061512401314391507e+00,2.949109228294848842e-03,1.657696765186709997e-02,2.985992575786050041e-01
6.000000000000000000e+00,5.997041594775267548e-01,1.899478176454011402e-02,1.000309942361854859e-01,-1.740883323962849616e-02,1.802074777220766533e-01,-1.286200769164159940e-05,1.101538980957599652e-03,8.509451697487917590e-03,-3.024144746287682484e+00,1.840260323075223504e-03,1.049075731763025876e-02,2.992041717838840875e-01
6.250000000000000000e+00,5.968818699794369298e-01,4.144778317860135092e-02,1.000300017082520199e-01,-2.722687627578797287e-02,1.789786794659359304e-01,-3.998410217395324485e-06,7.831698232610637134e-04,7.693026646108985268e-03,-2.986733689161481298e+00,1.638860415682742797e-03,3.361744832977690139e-03,2.993737916653468889e-01
6.500000000000000000e+00,5.928841239514689443e-01,6.370788348394784695e-02,1.000298668993270801e-01,-3.641047778069016888e-02,1.771404747716400774e-01,1.142651497544324133e-06,5.530483462587442193e-04,7.737086237681296309e-03,-2.949309894624395412e+00,2.230253436853853188e-03,-2.904799654970905646e-03,2.994236844276517151e-01
6.750000000000000000e+00,5.877278138809347574e-01,8.569544380485522028e-02,1.000301923440796575e-01,-4.588199516593039623e-02,1.746189988255905379e-01,3.588423963306489578e-06,3.574400172155319444e-04,8.425903939104736895e-03,-2.911882364505449239e+00,3.125362889802818251e-03,-6.525772356160492588e-03,2.994383754299068667e-01
7.000000000000000000e+00,5.813378120550796169e-01,1.073156823742657112e-01,1.000306673828098708e-01,-5.616498199123529100e-02,1.712665583984122331e-01,3.568481339931727324e-06,1.484434374465870934e-04,9.350618982278633209e-03,-2.874454177049443615e+00,3.603267537044056636e-03,-6.307538488521486839e-03,2.994411492230457661e-01
7.250000000000000000e+00,5.736097178448764655e-01,1.284572701074193357e-01,1.000309581037345519e-01,-6.720495212007018826e-02,1.669868589310092299e-01,6.967192247813948805e-07,-1.036132519875810688e-04,1.000031015037804345e-02,-2.837026554316901983e+00,2.957616902462116473e-03,-2.046720134940959585e-03,2.994398440815466689e-01
7.500000000000000000e+00,5.644856341403613476e-01,1.490072082322005109e-01,1.000307273004468894e-01,-7.834278738769978601e-02,1.618623052063482837e-01,-4.438162175377093807e-06,-4.014980463608197755e-04,9.893397402703269991e-03,-2.799599630263070793e+00,7.810070114978619193e-04,5.300629141918877102e-03,2.994392083947017280e-01
7.750000000000000000e+00,5.540218424461816893e-01,1.688791116438935758e-01,1.000298408136830047e-01,-8.846500374738422434e-02,1.562348951067230873e-01,-9.225887070631992400e-06,-7.181794641641950317e-04,8.716724744221280435e-03,-2.762172526146891460e+00,-2.813563229049061663e-03,1.379146849878954383e-02,2.994428771656919563e-01
8.000000000000000000e+00,5.424275043020595488e-01,1.880463783216006213e-01,1.000285711505241870e-01,-9.630285873066229962e-02,1.507015448499651744e-01,-1.019067164664824486e-05,-1.001152881993589436e-03,6.430573876878172696e-03,-2.724743824113077473e+00,-7.131836917365801283e-03,2.100108173936462638e-02,2.994516237538040193e-01
8.250000000000000000e+00,5.300604066725957964e-01,2.065683450792248077e-01,1.000275274642566242e-01,-1.008018128654031009e-01,1.460103853811128283e-01,-5.848220259189203529e-06,-1.183941879225686817e-03,3.303619119889639275e-03,-2.687312628047895391e+00,-1.104677461504673629e-02,2.471992127776403286e-02,2.994618660156986856e-01
8.500000000000000000e+00,5.173777405063995083e-01,2.245980460095413633e-01,1.000272581918854320e-01,-1.014543203100060909e-01,1.428790964618845138e-01,1.394812849715686823e-06,-1.202662443715736204e-03,-1.381616430982727487e-04,-2.649879545502379585e+00,-1.332621052028420960e-02,2.361509030389057767e-02,2.994673315961760562e-01
8.750000000000000000e+00,5.048532576883323353e-01,2.423649144858988358e-01,1.000278145514462563e-01,-9.849528201832639940e-02,1.417869956457004088e-01,6.587186177964535423e-06,-1.013689262415122310e-03,-3.237291465817509779e-03,-2.612446647396560628e+00,-1.303426355123013178e-02,1.763202835601505175e-02,2.994637836896690275e-01
9.000000000000000000e+00,4.928824164995360135e-01,2.601333771180283638e-01,1.000286726294697254e-01,-9.290010360595322980e-02,1.428068861044980986e-01,6.133844670118625355e-06,-6.076692265008605195e-04,-5.369634293608461194e-03,-2.575016140332276660e+00,-9.864209934774792812e-03,8.003059123139899186e-03,2.994532901736650654e-01
9.250000000000000000e+00,4.817008193749141021e-01,2.781462231159060328e-01,1.000291298022566167e-01,-8.618592405078728813e-02,1.455339982243411545e-01,8.736885221674644180e-07,-1.581419046088928618e-05,-6.100253346384351683e-03,-2.537588622621570256e+00,-4.280016051178489600e-03,-3.130514627608790498e-03,2.994440048140971089e-01
9.500000000000000000e+00,4.713372283194177115e-01,2.965670809332880409e-01,1.000288625268848236e-01,-8.007567674857644924e-02,1.491400768112637887e-01,-4.539014171777009502e-06,6.935896653749187802e-04,-5.286090183340416866e-03,-2.500162328748504414e+00,2.587215375475686915e-03,-1.334435752997966372e-02,2.994448398434914616e-01
9.750000000000000000e+00,4.616122556080813344e-01,3.154373257684928156e-01,1.000281742362610915e-01,-7.612220528545741993e-02,1.525412191133721507e-01,-5.474987542455986644e-06,1.427832020870091869e-03,-3.099392183455108602e-03,-2.462734098604580701e+00,9.250621685395409369e-03,-2.059139310840172460e-02,2.994588601227678448e-01
1.000000000000000000e+01,4.521810062628013327e-01,3.346589291864423554e-01,1.000277320562667771e-01,-7.539441701900607973e-02,1.546329613005995030e-01,-1.026573951212624856e-06,2.088437460562016755e-03,2.849719230453659846e-05,-2.425301449929607056e+00,1.427406280480719540e-02,-2.368766278330523833e-02,2.994805577159810328e-01
1.025000000000000000e+01,4.426066707552862023e-01,3.540075596966787974e-01,1.000280285109217543e-01,-7.830022912129901147e-02,1.545280581759715943e-01,5.482775062347753405e-06,2.591075119477713722e-03,3.519375359193270547e-03,-2.387864258580711496e+00,1.663295921090606963e-02,-2.249411226313554474e-02,2.994990846533118201e-01
1.050000000000000000e+01,4.324456534891935600e-01,3.731722317203519101e-01,1.000290067037292729e-01,-8.457384731949893486e-02,1.517368748253221655e-01,9.250027095427611120e-06,2.881755995760812948e-03,6.779047659616191379e-03,-2.350424888734366391e+00,1.591941988956056472e-02,-1.778450335179111025e-02,2.995048614414271837e-01
1.075000000000000000e+01,4.213246157367359634e-01,3.918116285232219331e-01,1.000301083052734796e-01,-9.340609028287308324e-02,1.462532436935780056e-01,7.466805594432434025e-06,2.945623151168139282e-03,9.310124467675869736e-03,-2.312986804591790957e+00,1.235397007582151110e-02,-1.089888142950794225e-02,2.994947831364358493e-01
1.100000000000000000e+01,4.089948596048891272e-01,4.096145302069577054e-01,1.000306531894252504e-01,-1.036629818895166560e-01,1.385389584997520074e-01,9.113619627899327088e-07,2.806939008851616537e-03,1.078314488231468457e-02,-2.275552712311156078e+00,6.643276124185686950e-03,-3.335386902593710789e-03,2.994729417515461511e-01
1.125000000000000000e+01,3.953572128502247374e-01,4.263526724600842921e-01,1.000302491707291130e-01,-1.141280258560610494e-01,1.294255464835687430e-01,-6.997054114570755879e-06,2.521359682106595092e-03,1.106075831076821364e-02,-2.238123403157270985e+00,-2.309236633542626177e-04,3.583683830647956068e-03,2.994473325460535462e-01
1.150000000000000000e+01,3.804580930307253639e-01,4.419176744560104342e-01,1.000289800406683055e-01,-1.237148858527357259e-01,1.199649020283392320e-01,-1.246930090719533024e-05,2.163385391499455124e-03,1.018491001064131783e-02,-2.200697803949350106e+00,-7.208494166166562467e-03,8.901808656033894512e-03,2.994253678578997491e-01
1.175000000000000000e+01,3.644627000835987118e-01,4.563377349710144859e-01,1.000273154648399498e-01,-1.316194985863639033e-01,1.112603365759694263e-01,-1.330488723712615502e-05,1.812479387237200725e-03,8.343625126270997477e-03,-2.163273933423500051e+00,-1.328909420251651527e-02,1.207885218840656048e-02,2.994109039353614055e-01
1.200000000000000000e+01,3.476136879596354312e-01,4.697732893448004488e-01,1.000258497283302433e-01,-1.374025980001120084e-01,1.043019813311781563e-01,-9.648896863522341726e-06,1.540780248404083168e-03,5.831729777786624075e-03,-2.125850053828059139e+00,-1.761450641613536428e-02,1.295357775241284294e-02,2.994038293374637894e-01
1.225000000000000000e+01,3.301837661814079894e-01,4.824932537051087600e-01,1.000250257752088590e-01,-1.410080707862088334e-01,9.982219383834776971e-02,-3.567217058431541857e-06,1.404058943220852030e-03,3.012707689585366992e-03,-2.088425393108161998e+00,-1.952430274976544797e-02,1.167497017348270195e-02,2.994016751133168341e-01
1.250000000000000000e+01,3.124295493956094072e-01,4.948350935209520629e-01,1.000249637373209349e-01,-1.427284028285662199e-01,9.818199458762993936e-02,2.086166012461755337e-06,1.436240015679215824e-03,2.820279711133347818e-04,-2.051000169578161003e+00,-1.861313516675026231e-02,8.636978811319232299e-03,2.994019959548347987e-01
1.275000000000000000e+01,2.945525065141942900e-01,5.071532602908902509e-01,1.000254480305593496e-01,-1.431288619896150527e-01,9.929896062778817423e-02,4.985537198665369368e-06,1.646949525077169010e-03,-1.971122512092312196e-03,-2.013575020936600790e+00,-1.479978107833426412e-02,4.423064985913657994e-03,2.994042939100458045e-01
1.300000000000000000e+01,2.766714682245388079e-01,5.197619107883597600e-01,1.000260656470112475e-01,-1.429411740406651699e-01,1.026280499896012194e-01,4.373203923571631885e-06,2.021375871672078869e-03,-3.406230143362291764e-03,-1.976150190250798300e+00,-8.396066652801043029e-03,-2.518498962589744874e-04,2.994106037848990320e-01
1.325000000000000000e+01,2.588097860684789309e-01,5.328792539974137599e-01,1.000264342111254895e-01,-1.429381552257129318e-01,1.072062551364602462e-01,1.418072026171289738e-06,2.522071496777514386e-03,-3.777063228369774255e-03,-1.938724919726960483e+00,-1.450688623187088846e-04,-4.619371017881189305e-03,2.994243725662505962e-01
1.350000000000000000e+01,2.408986273912337439e-01,5.465819602791358589e-01,1.000264153874980827e-01,-1.438038195127866736e-01,1.117668317882587192e-01,-1.366007846374379254e-06,3.092794524660083012e-03,-2.974689940469498264e-03,-1.901297433010356253e+00,8.812225304661894590e-03,-7.964817142764802488e-03,2.994479847909312653e-01
1.375000000000000000e+01,2.227958087228976980e-01,5.607781171149497368e-01,1.000261982962755841e-01,-1.460175874916409267e-01,1.149174794880954142e-01,-1.528247236810272851e-06,3.664692072792257241e-03,-1.057543485287990546e-03,-1.863865633167588687e+00,1.707639078403223182e-02,-9.754820448603544053e-03,2.994801113759325006e-01
1.400000000000000000e+01,2.043170552329889034e-01,5.752054793241958563e-01,1.000261864334058143e-01,-1.497735532189005125e-01,1.153602700289865224e-01,1.740605373607220150e-06,4.164837885236671519e-03,1.743691580084492064e-03,-1.826428256529854632e+00,2.324060010935591336e-02,-9.755343573128927651e-03,2.995145436419138218e-01
1.425000000000000000e+01,1.852740615078928288e-01,5.894578465650324173e-01,1.000267305735378365e-01,-1.549530803576439075e-01,1.121139157126868069e-01,6.860784286538787902e-06,4.526404698192212743e-03,5.055590405213405795e-03,-1.788985880855791022e+00,2.621109198523341802e-02,-8.097110184049665510e-03,2.995417362040149190e-01
1.450000000000000000e+01,1.655119881294382367e-01,6.030366847082188064e-01,1.000278637598168568e-01,-1.611594848757646747e-01,1.046884380619529792e-01,1.064093045615799154e-05,4.698883011585811356e-03,8.426713347388309697e-03,-1.751541141736486340e+00,2.550831036416643591e-02,-5.251572562081930837e-03,2.995527964805420051e-01
1.475000000000000000e+01,1.449388674642497765e-01,6.154188988346029898e-01,1.000292215837578769e-01,-1.678084999685811041e-01,9.316542118190523913e-02,1.027393560341404462e-05,4.656178722773839443e-03,1.141670061228414364e-02,-1.714097893250440707e+00,2.144015689111600231e-02,-1.908178402275545081e-03,2.995439033026450759e-01
1.500000000000000000e+01,1.235412346053224170e-01,6.261269153625217410e-01,1.000302219589080943e-01,-1.742522413001972303e-01,7.815665014988924797e-02,5.230210721334164399e-06,4.400472386707024799e-03,1.368841671922170489e-02,-1.676659681955603221e+00,1.506442662496112680e-02,1.217120620955109084e-03,2.995184633717325462e-01
1.525000000000000000e+01,1.013838571133779815e-01,6.347858227576967938e-01,1.000303951788352602e-01,-1.799037799070484500e-01,6.064612917998885716e-02,-2.350631519204155776e-06,3.960508305076276478e-03,1.507746452529876331e-02,-1.639228358981500877e+00,7.925261624008682684e-03,3.580203947149290539e-03,2.994855240767698712e-01
1.550000000000000000e+01,7.859568885267015359e-02,6.411552215998688187e-01,1.000296421014442300e-01,-1.843291505827316656e-01,4.175511754933317748e-02,-9.061593145268068776e-06,3.384344014825989462e-03,1.561783804438072847e-02,-1.601803575567897875e+00,1.630138656439026994e-03,4.944305989574444490e-03,2.994553624036251915e-01
1.575000000000000000e+01,5.534771096715477429e-02,6.451301514808347459e-01,1.000282561011477944e-01,-1.872847217821037025e-01,2.249461559190461465e-02,-1.232022702841193458e-05,2.728156236450146599e-03,1.551456086031782408e-02,-1.564383334454626961e+00,-2.606734000506186113e-03,5.404260917030409214e-03,2.994349493757726965e-01
1.600000000000000000e+01,3.182991052835665996e-02,6.467141138860005301e-01,1.000267244849606385e-01,-1.886967747742378243e-01,3.575486088586399616e-03,-1.161938327096441791e-05,2.043966276381182189e-03,1.506964451787676587e-02,-1.526965137084794089e+00,-4.313128184501366716e-03,5.291829542281259458e-03,2.994257969677125986e-01
1.625000000000000000e+01,8.233719564922149445e-03,6.459751662644153125e-01,1.000254704442081061e-01,-1.886001746006212010e-01,-1.466961475481323024e-02,-8.283525211364184832e-06,1.369636187366589505e-03,1.458168903230699573e-02,-1.489547026837153565e+00,-3.887012696194769388e-03,4.998768809135215214e-03,2.994248658714955269e-01
1.650000000000000000e+01,-1.525686452042853553e-02,6.430008055989534510e-01,1.000246936520700902e-01,-1.870668416790216004e-01,-3.223192680710972730e-02,-4.339099676631251919e-06,7.239407648835449131e-04,1.424805617145581856e-02,-1.452128067531707645e+00,-2.453836009814715918e-03,4.786357789287340979e-03,2.994273449127282660e-01
1.675000000000000000e+01,-3.846637752423140433e-02,6.378672641346936345e-01,1.000243507313876151e-01,-1.841569993065770017e-01,-4.926093489476357501e-02,-1.546834687709915568e-06,1.080524757858363492e-04,1.409926777678951505e-02,-1.414708217937085122e+00,-1.484563747490208127e-03,4.658037522609714473e-03,2.994295017771718692e-01
1.700000000000000000e+01,-6.122566606881831019e-02,6.306337119919702694e-01,1.000242185805002570e-01,-1.799155312181768829e-01,-6.584523320289319137e-02,-1.013576837711131661e-06,-4.871583247900744605e-04,1.398699715850192614e-02,-1.377287827519929841e+00,-2.288955639691867688e-03,4.349942907152682704e-03,2.994304010261940596e-01
1.725000000000000000e+01,-8.337237085016839522e-02,6.213631469497580273e-01,1.000239872486637371e-01,-1.744158459129546146e-01,-8.181701773406627187e-02,-3.008555788927792466e-06,-1.070392178523312107e-03,1.363097432037878309e-02,-1.339867017259277704e+00,-5.552248195042251526e-03,3.447324277284149509e-03,2.994321166311322280e-01
1.750000000000000000e+01,-1.047590206901069937e-01,6.101622457414593859e-01,1.000233847547738475e-01,-1.678321264011082004e-01,-9.665088145929510988e-02,-6.635640731814786500e-06,-1.639223466035482106e-03,1.271097661989667622e-02,-1.302445187935712401e+00,-1.107694521581146022e-02,1.581459600101567733e-03,2.994384748028784959e-01
1.775000000000000000e+01,-1.252702165365475184e-01,5.972254115893815829e-01,1.000223357069722901e-01,-1.605065980923061353e-01,-1.094964511045474348e-01,-9.730530293521225891e-06,-2.172940143177200072e-03,1.097508179269976111e-02,-1.265020921747367355e+00,-1.781702775285654711e-02,-1.372988053201991323e-03,2.994526146304620218e-01
1.800000000000000000e+01,-1.448459963240443238e-01,5.828661375554771151e-01,1.000210790737433436e-01,-1.529774136769425918e-01,-1.193397515339782028e-01,-9.670086653300150081e-06,-2.631390039175652250e-03,8.330839427429979904e-03,-1.227592489277541166e+00,-2.418052566146729199e-02,-5.178803730422515059e-03,2.994742579930684268e-01
1.825000000000000000e+01,-1.635048491425229455e-01,5.675222350267682403e-01,1.000201219293178762e-01,-1.459450991237692119e-01,-1.252468764800964141e-01,-5.051200030403294750e-06,-2.960507770180824741e-03,4.893487670819264036e-03,-1.190158879066031794e+00,-2.848239436328615232e-02,-9.239214730382734261e-03,2.994982768809188456e-01
1.850000000000000000e+01,-1.813583604441261488e-01,5.517290292552902153e-01,1.000199846828812716e-01,-1.401758437823683590e-01,-1.266200937621979328e-01,2.888809182428347780e-06,-3.103209828658395376e-03,9.805183930278746698e-04,-1.152720827846723139e+00,-2.939586724831320247e-02,-1.271991168379102942e-02,2.995159959733832977e-01
1.875000000000000000e+01,-1.986106190469981159e-01,5.360635959690212005e-01,1.000208606329674871e-01,-1.363604654974144570e-01,-1.233965082612168557e-01,1.043196783752112213e-05,-3.012811664801883903e-03,-2.942454700123656262e-03,-1.115281112464378444e+00,-2.628066050932468048e-02,-1.475064044902647288e-02,2.995192213850418339e-01
1.900000000000000000e+01,-2.155388864319120745e-01,5.210707629472118851e-01,1.000224199124803981e-01,-1.349622750524124837e-01,-1.161385830597813501e-01,1.338491533032581109e-05,-2.665495696907542022e-03,-6.349063182140925882e-03,-1.077843664623938880e+00,-1.932865429141062893e-02,-1.465158188245090261e-02,2.995050451387453738e-01
1.925000000000000000e+01,-2.324566209166610553e-01,5.071861251141409621e-01,1.000239255384700182e-01,-1.360923151490534277e-01,-1.059946387432978143e-01,9.758098491801493426e-06,-2.068735209763995601e-03,-8.753194043192172660e-03,-1.040411784332859968e+00,-9.522607709608566992e-03,-1.213003736218628420e-02,2.994785019475385557e-01
1.950000000000000000e+01,-2.496645874838589740e-01,4.946721169582538602e-01,1.000246283321243046e-01,-1.394463603868112689e-01,-9.453708685710485171e-02,1.298543443222808075e-06,-1.263699991125190889e-03,-9.804068397767847290e-03,-1.002986388713797750e+00,1.565613220572772924e-03,-7.399698182448122274e-03,2.994510381666573018e-01
1.975000000000000000e+01,-2.673993642203654764e-01,4.835805262369097801e-01,1.000242083650926816e-01,-1.443257466387417864e-01,-8.351134988651498503e-02,-7.304658577145232802e-06,-3.211029256036238878e-04,-9.357666569145875121e-03,-9.655653539672548469e-01,1.209405950047505278e-02,-1.186808463857778276e-03,2.994351209827204596e-01
2.000000000000000000e+01,-2.857901662594165004e-01,4.737494663488059365e-01,1.000229766811044502e-01,-1.497455327428352800e-01,-7.454638759192758202e-02,-1.120014944706286174e-05,6.687124006311918672e-04,-7.510227566503591828e-03,-9.281444465659909326e-01,2.032731620238449957e-02,5.390770448183566238e-03,2.994377667603836390e-01
2.025000000000000000e+01,-3.048339731361681681e-01,4.648358058607277021e-01,1.000216916876920242e-01,-1.546121708962306107e-01,-6.888613544019456247e-02,-8.392137366658236820e-06,1.609624732883616679e-03,-4.585547000917988489e-03,-8.907194103139579600e-01,2.499571496744791912e-02,1.105506626729398437e-02,2.994567037140445920e-01
2.050000000000000000e+01,-3.243954375343190422e-01,4.563767278312553244e-01,1.000210963677856391e-01,-1.579338694742210003e-01,-6.719779622643595740e-02,-9.686459449031744356e-07,2.415033391139741713e-03,-1.076339195944557830e-03,-8.532880619209497475e-01,2.555925266457925726e-02,1.466345009059975314e-02,2.994815296843221231e-01
2.075000000000000000e+01,-3.442326127149712423e-01,4.478679882833847548e-01,1.000214744415115209e-01,-1.590154215355342737e-01,-6.949728092206924890e-02,6.334706501067411399e-06,3.021730312387312881e-03,2.450619588227490823e-03,-8.158512263385544472e-01,2.231471897574743499e-02,1.550099000916737614e-02,2.994992722646432348e-01
2.100000000000000000e+01,-3.638529645311618932e-01,4.390322991205682923e-01,1.000277538363288088e-01,-1.519221740607844817e-01,-6.955651167130742774e-02,1.566847805706071261e-04,-1.721881241641775445e-02,5.060682952237294599e-03,-8.112967751948865214e-01,-1.712729627264593935e-01,2.004424705343001711e-01,-1.338935896033512651e-01
2.125000000000000000e+01,-3.809281478299528234e-01,4.315154492883843118e-01,1.000816903257268908e-01,-1.171971444030101006e-01,-4.702253423317885594e-02,6.507991838829432427e-04,-5.048440562409026167e-02,5.680371632330679169e-03,-8.376408460846356263e-01,-1.569023384250868014e-01,1.692434835916522828e-01,-2.546523742949792224e-01
2.150000000000000000e+01,-3.918531922252124766e-01,4.283300691886731681e-01,1.001508398989227194e-01,-5.665390935763237046e-02,-3.054168137182052510e-03,2.796217203074343296e-04,-6.831175164526213928e-02,4.512732938458299987e-03,-8.720757773972135363e-01,-4.257376030353868940e-02,3.021331243518803750e-02,-2.869030266281946684e-01
2.175000000000000000e+01,-3.945405808556917138e-01,4.311362139167440044e-01,1.001265670101397359e-01,1.073245180455990530e-02,4.557143132191113916e-02,-5.986918699648918372e-04,-6.296732225512438608e-02,2.929079840855475757e-03,-9.086101751574954255e-01,6.476670392363712003e-02,-9.979069517791940014e-02,-2.957887787020673787e-01
2.200000000000000000e+01,-3.894517281801713193e-01,4.394189764252513508e-01,1.000308597956623691e-01,6.563017195469021681e-02,8.294801253329557589e-02,-7.716939522867866975e-04,-4.238597851496335445e-02,2.277502640755959401e-03,-9.457289709016949431e-01,1.112226205047819327e-01,-1.537495952133187960e-01,-2.983428478218062008e-01
2.225000000000000000e+01,-3.788691407414453982e-01,4.512266013398417708e-01,9.996144773260895455e-02,9.887827461303837218e-02,1.023003078909768687e-01,-3.135570996855577752e-04,-1.964863079653605266e-02,2.949526969762061076e-03,-9.830285985774516178e-01,9.767306414520471325e-02,-1.291850671309777154e-01,-2.992014989570120909e-01
2.250000000000000000e+01,-3.654449030023004252e-01,4.643811053590521376e-01,9.994988772340469840e-02,1.128905400086126082e-01,1.059501036229876098e-01,6.436190019637996523e-05,-4.310462414703421924e-03,4.417351705396449502e-03,-1.020400135655001206e+00,5.415104830224094085e-02,-6.398442941645206272e-02,-2.995542445348513549e-01
2.275000000000000000e+01,-3.510377902003110617e-01,4.773417688435416251e-01,9.996560548188876405e-02,1.166223900961220888e-01,1.007258171509542027e-01,1.471673217498665998e-04,9.464116041175049112e-04,5.845543238258480573e-03,-1.057826345820651603e+00,1.221388685401385461e-02,-2.254722122916972410e-03,-2.996433919484282615e-01
2.300000000000000000e+01,-3.363217148075799967e-01,4.894416017943176156e-01,9.998223549233023477e-02,1.191160287615838226e-01,9.313326099285379467e-02,1.162327266713993718e-04,-1.030890686180217916e-03,6.668556611318712628e-03,-1.095291479472791041e+00,-1.108522259389059517e-02,2.957842389489739182e-02,-2.995806788792331199e-01
2.325000000000000000e+01,-3.210769828952794724e-01,5.006519916106381141e-01,9.999488280039797727e-02,1.253659967200409231e-01,8.677974674036825764e-02,8.882670193408143621e-05,-5.373393816806645504e-03,6.775194906268700717e-03,-1.132762045769065917e+00,-1.534478128209339730e-02,2.901287898743427213e-02,-2.994824366802926185e-01
2.350000000000000000e+01,-3.047738311232057185e-01,5.111961635649980851e-01,1.000042804087616227e-01,1.356408802170246952e-01,8.234591533294997878e-02,6.102167012010678180e-05,-8.286902636554228235e-03,6.324814089745610032e-03,-1.170211848465135818e+00,-9.828741871778491623e-03,9.598302052288773534e-03,-2.994153189830345285e-01
2.375000000000000000e+01,-2.870636478090130561e-01,5.212684702413723503e-01,1.000098323174324483e-01,1.472828245146171611e-01,7.902494355244150948e-02,2.968905090212481035e-05,-8.393551491323347422e-03,5.458720469575357136e-03,-1.207637621383398807e+00,-4.667594965393239044e-03,-1.160103542820777392e-02,-2.993909578589775133e-01
2.400000000000000000e+01,-2.679824317232064046e-01,5.309536369213658791e-01,1.000121818429778459e-01,1.571937391324569888e-01,7.608015144264423935e-02,1.161173806961375167e-05,-6.381168250478959185e-03,4.153912657826584059e-03,-1.245051991039632933e+00,-5.237614939733310944e-03,-2.331655636536488635e-02,-2.993957090089984230e-01
2.425000000000000000e+01,-2.478807592343909849e-01,5.402980484088341084e-01,1.000133763189296199e-01,1.635823493349640445e-01,7.366113437686626353e-02,9.436583984332062245e-06,-3.812836431554347816e-03,2.297272584746342869e-03,-1.282468905543534321e+00,-1.104914978377322977e-02,-2.299448853696696785e-02,-2.994095249184903773e-01
2.450000000000000000e+01,-2.272161595967623904e-01,5.494231312210082763e-01,1.000147658975931997e-01,1.664508676633970341e-01,7.271543994402705768e-02,1.281738179822197232e-05,-2.007733944409765495e-03,-1.115844614452498435e-04,-1.319893399438408554e+00,-1.786543136984881236e-02,-1.448500955921053733e-02,-2.994169248344287770e-01
2.475000000000000000e+01,-2.063541175279159368e-01,5.585858909245898785e-01,1.000165391856384506e-01,1.670922391067271029e-01,7.432911019095213290e-02,1.510280535863049131e-05,-1.498926208877993278e-03,-2.791624052390076580e-03,-1.357320936023710845e+00,-2.086214787403473450e-02,-3.729059360711453174e-03,-2.994157520192316513e-01
2.500000000000000000e+01,-1.854627708701254984e-01,5.681468324574583395e-01,1.000184276781271170e-01,1.672115642899548171e-01,7.898487531633845149e-02,1.453516172457276182e-05,-2.088297759651618762e-03,-5.165775540507710692e-03,-1.394745321843265717e+00,-1.708175257623256033e-02,4.696361596089816855e-03,-2.994167327888899166e-01
2.525000000000000000e+01,-1.645117720848812137e-01,5.784612704793529181e-01,1.000199772175160706e-01,1.681986196305886860e-01,8.611303162953731771e-02,9.622718421129474928e-06,-3.223005758398933204e-03,-6.516156792621507002e-03,-1.432166518380356246e+00,-6.427127514663330543e-03,8.922514631403052551e-03,-2.994341452232571199e-01
2.550000000000000000e+01,-1.433380797002253293e-01,5.897426371198308814e-01,1.000206522524353242e-01,1.707844729614262647e-01,9.408328111525889048e-02,1.236145924437914815e-06,-4.377395094116039685e-03,-6.231334374325943337e-03,-1.469590717989737394e+00,8.689055316278749067e-03,9.317874519416107643e-03,-2.994766984802334497e-01
2.575000000000000000e+01,-1.217309583487529018e-01,6.019509527137408833e-01,1.000203564295180647e-01,1.750439994397060273e-01,1.005803110036933012e-01,-4.712103589337669212e-06,-5.254434667075204637e-03,-4.030973171036419597e-03,-1.507024690221034247e+00,2.447766608547352271e-02,7.251377097625101402e-03,-2.995431983569976087e-01
2.600000000000000000e+01,-9.950317578930827078e-02,6.147438269695711943e-01,1.000198569714245422e-01,1.805782388431835805e-01,1.031879687429073517e-01,-1.583556721925223608e-06,-5.787845615749178003e-03,-7.739203285745511291e-05,-1.544471342281016568e+00,3.708367016679617323e-02,4.049998991893503063e-03,-2.996213089267997232e-01
2.625000000000000000e+01,-7.653646790583110149e-02,6.275029786127659381e-01,1.000203880074200108e-01,1.867233130211455872e-01,9.998161030369905056e-02,1.071614154502623772e-05,-6.032941206702384374e-03,5.057672755567419430e-03,-1.581929116999264417e+00,4.364408432636951440e-02,5.731345744089788152e-04,-2.996892372280482997e-01
2.650000000000000000e+01,-5.280355192207041720e-02,6.394262785584592379e-01,1.000226339048259500e-01,1.927133831672198372e-01,8.996781316348334556e-02,2.399742865552611785e-05,-6.052838141580421487e-03,1.054424029612749218e-02,-1.619392971225554367e+00,4.289065799619521530e-02,-2.696747115141965613e-03,-2.997229636415379428e-01
2.675000000000000000e+01,-2.837295784876798024e-02,6.496595667496491977e-01,1.000260144135636936e-01,1.977979683988088933e-01,7.328022248567411800e-02,2.769626473440803740e-05,-5.863829193433703173e-03,1.550225724300708686e-02,-1.656855336927037570e+00,3.527436176420597341e-02,-5.392197007592895545e-03,-2.997080588532581857e-01
2.700000000000000000e+01,-3.400656831032224971e-03,6.574358322489071149e-01,1.000289278268771814e-01,2.013406668631853025e-01,5.111263842766326781e-02,1.696870145858452033e-05,-5.445644972843587291e-03,1.920156293897925387e-02,-1.694308008893689710e+00,2.269009406421716030e-02,-7.122710868594760332e-03,-2.996488561917127202e-01
2.725000000000000000e+01,2.189026122615660847e-02,6.621910369076687841e-01,1.000297629411688038e-01,2.029114525281941750e-01,2.543054940233622704e-02,-3.813582232176333761e-06,-4.784404216301193884e-03,2.120511619422597166e-02,-1.731745441499170868e+00,7.926110497602794139e-03,-7.551908036692968514e-03,-2.995674434148176690e-01
2.750000000000000000e+01,4.724027840282038482e-02,6.636339090299313570e-01,1.000278990212895569e-01,2.023564122029103962e-01,-1.456101620689648560e-03,-2.437914664361848734e-05,-3.909509285647761768e-03,2.143175284486675478e-02,-1.769167539225971142e+00,-6.015990336603036816e-03,-6.593654335321386117e-03,-2.994922379370445475e-01
2.775000000000000000e+01,7.238972659467399207e-02,6.617589297633369450e-01,1.000240084441274407e-01,1.998141329361558804e-01,-2.735569427706605397e-02,-3.542870669485054057e-05,-2.901853333880166814e-03,2.013768261120901099e-02,-1.806579564272894123e+00,-1.658078148710772845e-02,-4.559230097206283007e-03,-2.994438509743925225e-01
2.800000000000000000e+01,9.711240784768075673e-02,6.568047641209929788e-01,1.000195598598278834e-01,1.956577543729318414e-01,-5.059156447947753266e-02,-3.381753752918764943e-05,-1.872987990169282507e-03,1.783199479848837990e-02,-1.843989070540191344e+00,-2.216715239984555497e-02,-2.134564985613701584e-03,-2.994272698984685177e-01
2.825000000000000000e+01,1.212373663306789556e-01,6.491718858971780026e-01,1.000159688116041418e-01,1.903693877485415908e-01,-7.025253935489556012e-02,-2.298329592235621299e-05,-9.301190208993862559e-04,1.515003896387073952e-02,-1.881402150568645792e+00,-2.239522297771934928e-02,-1.727968918853649771e-04,-2.994337799026402513e-01
2.850000000000000000e+01,1.446524435562147604e-01,6.393208811079192921e-01,1.000139775550503984e-01,1.843832719523976205e-01,-8.625426041461209392e-02,-9.394811947226201483e-06,-1.450192731515565511e-04,1.271175676613808814e-02,-1.918821405477963760e+00,-1.809441469301137015e-02,6.143963811537501811e-04,-2.994491487155969689e-01
2.875000000000000000e+01,1.672890472746932922e-01,6.276754872727146051e-01,1.000135642373429640e-01,1.779503790409851516e-01,-9.921221288025389162e-02,1.742146274037146792e-06,4.612149085488968076e-04,1.099211606088747704e-02,-1.956246266861218830e+00,-1.102911800996827889e-02,-6.356070438569744229e-05,-2.994617517036530230e-01
2.900000000000000000e+01,1.890940809743819617e-01,6.145515337422966518e-01,1.000142667101532185e-01,1.710725863757068810e-01,-1.101692934588441725e-01,8.559085216668049464e-06,9.150733252031581022e-04,1.022832559133084011e-02,-1.993674586978891883e+00,-3.428606094214631164e-03,-1.940840741928346116e-03,-2.994663733547733853e-01
2.925000000000000000e+01,2.099996424112403615e-01,6.001254365313293260e-01,1.000155701451403006e-01,1.635311647751210018e-01,-1.202517917120021623e-01,1.167482148930927792e-05,1.274093174312670215e-03,1.038254962148866915e-02,-2.031104086967895128e+00,2.571109225412033465e-03,-4.259483003272653522e-03,-2.994635177742708820e-01
2.950000000000000000e+01,2.299021153906431469e-01,5.844455861705656341e-01,1.000170793488403542e-01,1.550016167454562055e-01,-1.303411855429705835e-01,1.203451996484867083e-05,1.604791631032769818e-03,1.116847269723084644e-02,-2.068533057486175775e+00,5.442955685384259085e-03,-6.013071123904114440e-03,-2.994567959389455858e-01
2.975000000000000000e+01,2.486592545882314320e-01,5.674792920239776217e-01,1.000184629286216403e-01,1.452168382461204166e-01,-1.408418884113172842e-01,9.703292479516864854e-06,1.962273359101921431e-03,1.213620628653763744e-02,-2.105960569249382797e+00,4.617262355920067306e-03,-6.287709598044771524e-03,-2.994508623686462090e-01
3.000000000000000000e+01,2.661078210677625955e-01,5.491794782407630748e-01,1.000193693665747535e-01,1.341232770932349605e-01,-1.515983128880761532e-01,4.535765775246931164e-06,2.376164081620094418e-03,1.279567461852735427e-02,-2.143386637471516920e+00,5.747402465761510069e-04,-4.586424287774370709e-03,-2.994504235317056451e-01
3.025000000000000000e+01,2.820972706889717241e-01,5.295511620175821221e-01,1.000194965143794551e-01,1.219757031159103000e-01,-1.619743250866126083e-01,-2.374213624853132795e-06,2.844829667655887715e-03,1.274757059664630675e-02,-2.180812382779647951e+00,-5.343864275845397992e-03,-1.025537099472758999e-03,-2.994592504801318333e-01
3.050000000000000000e+01,2.965292680305265383e-01,5.086989799542975810e-01,1.000187875124095016e-01,1.093354173179222899e-01,-1.710640293942279899e-01,-8.353300826120742384e-06,3.337775184131514580e-03,1.178681805579389653e-02,-2.218239841502724463e+00,-1.136433897454707659e-02,3.672819087178398091e-03,-2.994784066640605591e-01
3.075000000000000000e+01,3.093903866982099515e-01,4.868433945099804316e-01,1.000175484934534703e-01,9.696884600226543527e-02,-1.779666265644474221e-01,-1.062555838370963222e-05,3.804667840324355964e-03,9.948957800455935502e-03,-2.255671178214324168e+00,-1.582054523304737143e-02,8.403377941825463174e-03,-2.995045547420134846e-01
3.100000000000000000e+01,3.207672659656631287e-01,4.643029592382013071e-01,1.000163246204117951e-01,8.567840033708966352e-02,-1.820412181478459901e-01,-8.351980743710735985e-06,4.188359565958878726e-03,7.485387575167560745e-03,-2.293107575700553902e+00,-1.764297000944184401e-02,1.204874233940611897e-02,-2.995302380833093081e-01
3.125000000000000000e+01,3.308392741220406719e-01,4.414502168759210088e-01,1.000155943379477663e-01,7.612274356607072467e-02,-1.830667735156746023e-01,-3.278660765494358843e-06,4.438577145961269954e-03,4.775334850861966823e-03,-2.330548497191700985e+00,-1.663459221032587837e-02,1.386855311554298538e-02,-2.995469832961992207e-01
3.150000000000000000e+01,3.398514498982681542e-01,4.186561806329781588e-01,1.000155177792596967e-01,6.868878279240864249e-02,-1.812662892802200387e-01,1.637842433959629558e-06,4.522828423300765538e-03,2.203479420543300211e-03,-2.367991868025185020e+00,-1.344497221065144195e-02,1.375870877864128483e-02,-2.995496713207932427e-01
3.175000000000000000e+01,3.480773288436146973e-01,3.962404904616205759e-01,1.000159238650684262e-01,6.345933225064463723e-02,-1.772011320879403884e-01,4.327585436909649834e-06,4.431779617031836489e-03,4.413701996346417145e-05,-2.405435081027603506e+00,-9.262454989094517921e-03,1.227369887325801233e-02,-2.995392058135521451e-01
3.200000000000000000e+01,3.557845513221718492e-01,3.744406723940805204e-01,1.000165040734139060e-01,6.028434975361853659e-02,-1.715846483254596933e-01,4.621376107732866631e-06,4.177886439429596456e-03,-1.609252524253014299e-03,-2.442876148701771832e+00,-5.347580326684764525e-03,1.039346818312720210e-02,-2.995215911585434321e-01
3.225000000000000000e+01,3.632144974641076662e-01,3.534060133562823003e-01,1.000170257579260785e-01,5.892341756598144104e-02,-1.650875772215580628e-01,3.667008318819739109e-06,3.788066568934207994e-03,-2.846638259631217860e-03,-2.480314297815677804e+00,-2.585462176975012513e-03,9.117606431093487618e-03,-2.995041978302391272e-01
3.250000000000000000e+01,3.705811139364820761e-01,3.332124733544308270e-01,1.000174182617427077e-01,5.919860186769262955e-02,-1.582036232223938133e-01,2.722876541775015387e-06,3.293077654854685826e-03,-3.877337820166499617e-03,-2.517749786232085452e+00,-1.218756976762709219e-03,9.041210241943403725e-03,-2.994918521645528187e-01
3.275000000000000000e+01,3.780858776404434907e-01,3.138881694431256419e-01,1.000177325280464796e-01,6.109162692875250156e-02,-1.512146946311108686e-01,2.441819736527276401e-06,2.717354936242876579e-03,-4.924182231334785567e-03,-2.555183247105667022e+00,-8.446444096677499990e-04,1.007723198113145632e-02,-2.994850571379448212e-01
3.300000000000000000e+01,3.859386667686365846e-01,2.954366411187769326e-01,1.000180560559206372e-01,6.473988093653565423e-02,-1.442541604817280942e-01,2.793339892947597652e-06,2.072919264639327703e-03,-6.114371352254434344e-03,-2.592615049230412971e+00,-6.544895366809111523e-04,1.143585833803330634e-02,-2.994809070752697533e-01
3.325000000000000000e+01,3.943710015799026247e-01,2.778478372954065745e-01,1.000184332053114800e-01,7.032445309523444044e-02,-1.374292889167604281e-01,3.148443331715821145e-06,1.359566916343750865e-03,-7.405580675264065299e-03,-2.630045026406902853e+00,1.931109245045176180e-04,1.187568980099511055e-02,-2.994757741408013985e-01
3.350000000000000000e+01,4.036300455629010520e-01,2.610931214944920420e-01,1.000187971946813886e-01,7.788568703260993764e-02,-1.309443383447252696e-01,2.421624675721947006e-06,5.713477823734635849e-04,-8.572820815764731900e-03,-2.667472711879208092e+00,2.214401741812230956e-03,1.014209695447391632e-02,-2.994683346702461391e-01
3.375000000000000000e+01,4.139483473863512786e-01,2.451079144593163728e-01,1.000189454378409143e-01,8.713208866636074079e-02,-1.251694234247048565e-01,-3.234472738017661918e-07,-2.929042783097927189e-04,-9.260782424650549488e-03,-2.704898017727754844e+00,5.386815594556873879e-03,5.442460920239075572e-03,-2.994615154486584552e-01
3.400000000000000000e+01,4.254932964244472759e-01,2.297710889831493242e-01,1.000186274934893593e-01,9.731612420496192628e-02,-1.206239433990693305e-01,-4.768652559845543162e-06,-1.218726274057841796e-03,-9.085373761317473360e-03,-2.742322053992162889e+00,9.144917199971250299e-03,-2.202180859070221840e-03,-2.994620927324709858e-01
3.425000000000000000e+01,4.383085799150074902e-01,2.148920097098673820e-01,1.000177573119456070e-01,1.072330993362660828e-01,-1.178767997030221865e-01,-8.658171192049506602e-06,-2.168873190732611110e-03,-7.753560068838426765e-03,-2.779747523331351111e+00,1.257224106788131131e-02,-1.184572079193862461e-02,-2.994773835651997618e-01
3.450000000000000000e+01,4.522647498428604695e-01,2.002137600125542261e-01,1.000166178707814352e-01,1.153629576073022800e-01,-1.173963338950333724e-01,-8.681363575498695850e-06,-3.082843823350365792e-03,-5.166134068338318688e-03,-2.817178128346099708e+00,1.471084716323257935e-02,-2.178502879089670718e-02,-2.995101294291755423e-01
3.475000000000000000e+01,4.670356751272920492e-01,1.854356587831711700e-01,1.000158474000655134e-01,1.201312120950808471e-01,-1.194007557069873410e-01,-2.875650087043300056e-06,-3.884080139314656857e-03,-1.473772496007975941e-03,-2.854616929889844279e+00,1.487906246078114780e-02,-2.996336578757665542e-02,-2.995545083247965756e-01
3.500000000000000000e+01,4.821121292530989311e-01,1.702516288932297561e-01,1.000161132539792719e-01,1.202276953582595009e-01,-1.237598988418962126e-01,7.149257245876539460e-06,-4.493460627114220264e-03,2.929986332124515265e-03,-2.892064405921423997e+00,1.289384101675289558e-02,-3.449868015282937100e-02,-2.995964937576293119e-01
3.525000000000000000e+01,4.968545597646047418e-01,1.543955488117398078e-01,1.000176377327853805e-01,1.149013849169785578e-01,-1.299825092606214649e-01,1.626371282406531107e-05,-4.845700341605287988e-03,7.478295048727426862e-03,-2.929517458252818951e+00,9.130960743405538982e-03,-3.419062089332046417e-02,-2.996195244349751929e-01
3.550000000000000000e+01,5.105767839201271752e-01,1.376821322418877447e-01,1.000199194579604184e-01,1.041521150217680769e-01,-1.372961117436156120e-01,1.868718061301368665e-05,-4.904302312258832647e-03,1.154612384585699744e-02,-2.966970253955217185e+00,4.410944735571536816e-03,-2.886242228044806971e-02,-2.996128050265619569e-01
3.575000000000000000e+01,5.226438652807379182e-01,1.200328806222059203e-01,1.000219067789200889e-01,8.876507036109639037e-02,-1.447979328950891320e-01,1.185894435172045459e-05,-4.671058873987171331e-03,1.458195176081963744e-02,-3.004416669736822865e+00,-2.456578384267035352e-04,-1.943555800182349830e-02,-2.995772459659709064e-01
3.600000000000000000e+01,5.325631970683277761e-01,1.014808112014004698e-01,1.000225608337447780e-01,7.017494678660110563e-02,-1.516345024878271441e-01,-1.578819204146992426e-06,-4.187569639372942971e-03,1.622241814921209641e-02,-3.041853007737670644e+00,-3.910236034618326528e-03,-7.709436937799553358e-03,-2.995251538783762491e-01
3.625000000000000000e+01,5.400491372966877979e-01,8.215356754733189881e-02,1.000214449949465567e-01,5.019210865040561048e-02,-1.571606924830648011e-01,-1.527821600347926503e-05,-3.528318152521698302e-03,1.636090759402022282e-02,-3.079279420293327796e+00,-5.990733637225937637e-03,4.092374762986848366e-03,-2.994738074539582962e-01
3.650000000000000000e+01,5.450480937489152744e-01,6.224026739372987005e-02,1.000189475974867098e-01,3.065945718879103943e-02,-1.610376045356239350e-01,-2.308791224313540256e-05,-2.786973287523902571e-03,1.515413064717087074e-02,-3.116699323663826959e+00,-6.355451357211288135e-03,1.387312620630163328e-02,-2.994370508077882631e-01
3.675000000000000000e+01,5.477207391063232400e-01,4.195131668757164090e-02,1.000219386402829702e-01,1.312270810868628942e-02,-1.632463756167704672e-01,7.635523239562125742e-05,-2.061023787900053295e-03,1.296883749711485144e-02,3.128265513245719998e+00,-5.214717819327425140e-03,2.015727270376566418e-02,-2.908642619267994833e-01
3.700000000000000000e+01,5.483887281501763633e-01,2.148170032878005120e-02,1.000223922493186507e-01,-1.397820481006575421e-03,-1.640384104041774371e-01,-2.652687711247049044e-05,-1.432601474870046424e-03,1.028490666445069576e-02,3.091434309419388349e+00,-3.431237525557608026e-03,2.231645666911350953e-02,-2.971013980998736259e-01
3.725000000000000000e+01,5.474603001439750649e-01,9.826912860156494789e-04,1.000189397487373510e-01,-1.252189542057966301e-02,-1.638204031441235498e-01,-2.428839534103958712e-05,-9.477841173338262667e-04,7.592304599351126261e-03,3.054168133323349910e+00,-1.444195713227064328e-03,2.067680062696493348e-02,-2.988080203786366296e-01
3.750000000000000000e+01,5.453520173623856993e-01,-1.944679264864113827e-02,1.000166656612580668e-01,-2.045924660379395965e-02,-1.630129850387435908e-01,-1.271240190722012340e-05,-6.339153848585462681e-04,5.291003625823159640e-03,3.016783204903272786e+00,1.710850776608692915e-04,1.625421970146450484e-02,-2.992709800207590809e-01
3.775000000000000000e+01,5.424237633184917362e-01,-3.975708846833959920e-02,1.000156428645398582e-01,-2.586011852832858712e-02,-1.619703915159587670e-01,-4.682072953979916391e-06,-4.861210865903149996e-04,3.632320744654868230e-03,2.979365062557394861e+00,1.089001908661703854e-03,1.042643734103563397e-02,-2.993994320320975677e-01
3.800000000000000000e+01,5.389370533027537657e-01,-5.993468432531719181e-02,1.000153478061908269e-01,-2.960340095015035616e-02,-1.609147445395470444e-01,-7.312622254031892406e-07,-4.748713312217758375e-04,2.699775973972256757e-03,2.941937325249039059e+00,1.262520792281103402e-03,4.578257840506905901e-03,-2.994365585981560440e-01
3.825000000000000000e+01,5.350405764971715161e-01,-7.998431754956995821e-02,1.000153680990918531e-01,-3.258152814100115369e-02,-1.599225124611381721e-01,7.322125817039468037e-07,-5.567150924853846378e-04,2.426981965245217452e-03,2.904506662301736153e+00,8.753977078627732606e-04,-1.909676122465400088e-04,-2.994483589976721372e-01
3.850000000000000000e+01,5.307802759749326027e-01,-9.991229411786763104e-02,1.000154914044214249e-01,-3.552794460301204882e-02,-1.589537927831275177e-01,1.128111878611729250e-06,-6.856985715575490041e-04,2.642230964866765664e-03,2.867074956572985833e+00,2.384890453372749903e-04,-3.247139497562234918e-03,-2.994530037645996012e-01
3.875000000000000000e+01,5.261265798136468552e-01,-1.197152919102143220e-01,1.000156349875791356e-01,-3.891601143785750755e-02,-1.579064521552855649e-01,1.122672453729637342e-06,-8.227930110095398996e-04,3.126692699185940408e-03,2.829642776608758847e+00,-3.351856808161859762e-04,-4.475346697983537125e-03,-2.994552366047436576e-01
3.900000000000000000e+01,5.210090625604385517e-01,-1.393763599892731964e-01,1.000157602050978645e-01,-4.293838888902205136e-02,-1.566734267856265406e-01,8.444797869593471537e-07,-9.416090631276039912e-04,3.672901293338415307e-03,2.792210403984396905e+00,-6.383295929562914691e-04,-4.213517524053831537e-03,-2.994560326763683888e-01
3.925000000000000000e+01,5.153489395174570831e-01,-1.588672151891634965e-01,1.000158340091122922e-01,-4.755684281154848314e-02,-1.551840684098448053e-01,3.217476730908502743e-07,-1.029915502292506370e-03,4.130893703034253274e-03,2.754778070468912876e+00,-6.260375998169845704e-04,-3.083994246395283141e-03,-2.994556338095978321e-01
3.950000000000000000e+01,5.090821310053411652e-01,-1.781540336102688804e-01,1.000158345229065493e-01,-5.259645012469975345e-02,-1.534187379882847035e-01,-2.885878041006949527e-07,-1.087561883216670282e-03,4.431420798091394338e-03,2.717345940734982701e+00,-4.010148527628096867e-04,-1.762035405565843616e-03,-2.994544471506321859e-01
