time_total,x,y,z,vx,vy,vz,roll,pitch,yaw,roll_rate,pitch_rate,yaw_rate
e-01,9.990048025770256745e-02,1.625099971576026425e-01,7.398096608064667901e-02,3.800191457068250183e-04,5.337256580115882706e-03,4.992205713014079629e-03,-7.827760056248826981e-01,-2.000757577428047967e-02,4.893988927172088395e-03,-3.699965795659917456e-01
2.500000000000000000e-01,-3.301507177210952770e-01,2.754411104532339949e-01,9.993995431246058270e-02,1.615940603121675256e-01,6.611999374493575388e-02,2.642627586737457597e-04,2.777973751172578987e-03,3.645329376263127964e-03,-8.290339508746487063e-01,-2.162040508779259490e-02,7.405875199301947473e-03,-3.699546610844071659e-01
5.000000000000000000e-01,-3.099667052225613117e-01,2.833773667396686236e-01,9.996779887065559977e-02,1.614439203399912759e-01,6.148639728831968576e-02,1.883745667082541587e-04,8.803294626329422707e-04,2.303409856907203367e-03,-8.752819447079080994e-01,-1.398594885438361225e-02,6.831618345233127047e-04,-3.699253190965806071e-01
7.500000000000000000e-01,-2.897903026926907377e-01,2.908877461313039703e-01,9.998763899743423611e-02,1.612888482775706456e-01,5.900186012216848686e-02,1.337011616571431155e-04,5.058607647749584343e-04,1.152022407114583306e-03,-9.215225461980673938e-01,-4.792630856072832395e-03,-6.848343783431298792e-03,-3.699142903244407865e-01
1.000000000000000000e+00,-2.696911782351899545e-01,2.981523966120603886e-01,1.000016639169745980e-01,1.601023153619917094e-01,5.733328943056677923e-02,9.428654534731114440e-05,1.303327564077212414e-03,3.578048750894957989e-04,-9.677610512802384823e-01,9.666959023300463480e-04,-9.960326807271753166e-03,-3.699108628947643251e-01
1.250000000000000000e+00,-2.498365328149885767e-01,3.052125795522686036e-01,1.000115493167827302e-01,1.574129170226803431e-01,5.565390454868914677e-02,6.632787526418929566e-05,2.399227925998657831e-03,-9.006592521103503615e-05,-1.013999672479968028e+00,1.862351999439375164e-03,-8.010739803027026179e-03,-3.699093631898310863e-01
1.500000000000000000e+00,-2.304046548777565206e-01,3.120529312787211351e-01,1.000184420917746841e-01,1.534692335253116935e-01,5.385660346032429546e-02,4.561171564856169284e-05,3.054383310077178702e-03,-3.908551744411016570e-04,-1.060238467874756729e+00,-1.002330902165365911e-03,-3.419546645212261093e-03,-3.699093988806615996e-01
1.750000000000000000e+00,-2.115113390316778752e-01,3.186830871369714657e-01,1.000231007875486550e-01,1.489382401857720917e-01,5.238279025635055736e-02,3.031971532028811920e-05,2.982414964833307505e-03,-8.209124944270178043e-04,-1.106477171067003606e+00,-5.531486083352328033e-03,8.627169753365435427e-04,-3.699110956014554086e-01
2.000000000000000000e+00,-1.931848822027198986e-01,3.251862180711877492e-01,1.000261906210794943e-01,1.444919702679305917e-01,5.190568194483504566e-02,2.030195670779217523e-05,2.312839029248520833e-03,-1.584756386526563025e-03,-1.152715390517849547e+00,-9.749187904556035414e-03,3.198574784190824291e-03,-3.699132545998037314e-01
2.250000000000000000e+00,-1.753840473825503676e-01,3.317283144799566541e-01,1.000283297643981828e-01,1.405586598267787313e-01,5.303706764494529879e-02,1.470133523835544074e-05,1.361917359382599016e-03,-2.708293312190997084e-03,-1.198952581737960488e+00,-1.223836852959943669e-02,3.709849467189811883e-03,-3.699137927596435338e-01
2.500000000000000000e+00,-1.580311317111141867e-01,3.385361909200444996e-01,1.000299473047652071e-01,1.373185002405304667e-01,5.612020680665586597e-02,1.148777889815203293e-05,4.032433791525662919e-04,-4.011983475416121617e-03,-1.245188457700734386e+00,-1.213348498294884725e-02,3.591597511390477900e-03,-3.699110821801658289e-01
2.750000000000000000e+00,-1.410340109978818202e-01,3.458550292454092290e-01,1.000311957321142614e-01,1.348554197823963463e-01,6.110335998550314729e-02,8.475665275872684855e-06,-4.463233672292781710e-04,-5.158210790676260454e-03,-1.291423102529825284e+00,-9.008595777998305854e-03,4.042827595765044642e-03,-3.699057696543378015e-01
3.000000000000000000e+00,-1.242874118625933583e-01,3.538942372253381929e-01,1.000320069194965272e-01,1.333129972681402764e-01,6.747523859016213432e-02,4.453223528455574760e-06,-1.212411480899964642e-03,-5.742900926311178371e-03,-1.337656817934895548e+00,-2.865497706988789396e-03,5.499747450584549849e-03,-3.699021949674528020e-01
3.250000000000000000e+00,-1.076609674157446711e-01,3.627691160253157521e-01,1.000322680606171438e-01,1.329417129351288529e-01,7.426238153455087809e-02,-6.456247546857645116e-08,-1.976311650210410813e-03,-5.398603374115186829e-03,-1.383890492358160307e+00,5.773568314840194469e-03,7.479889505031317096e-03,-3.699077699197367841e-01
3.500000000000000000e+00,-9.099016616003516300e-02,3.724471396527460620e-01,1.000320448133449891e-01,1.340134483862414072e-01,8.010641420959835335e-02,-2.903045675814015364e-06,-2.786203481337682069e-03,-3.885108606861237442e-03,-1.430126333927806082e+00,1.579053405836915863e-02,8.950710418991356110e-03,-3.699293765191549732e-01
3.750000000000000000e+00,-7.408385356640759256e-02,3.827099544659484653e-01,1.000317173160372858e-01,1.366583989755019435e-01,8.343607728768773213e-02,-1.529321368490437713e-06,-3.612157107817796312e-03,-1.153385599029386034e-03,-1.476367687389816830e+00,2.554421113144316954e-02,8.915661427640912337e-03,-3.699681414298026660e-01
4.000000000000000000e+00,-5.675227593846176449e-02,3.931426353982813704e-01,1.000318937528687641e-01,1.407141643699813538e-01,8.272403514356069243e-02,4.889573615685476930e-06,-4.353417835485074404e-03,2.625590528791574459e-03,-1.522617217110554311e+00,3.314248662526817629e-02,6.901503235359341196e-03,-3.700160061386110755e-01
4.250000000000000000e+00,-3.884889001519762491e-02,4.031583393972225093e-01,1.000330902768068880e-01,1.456629970862326207e-01,7.678533341141420554e-02,1.404292889990947935e-05,-4.879365675960905396e-03,7.072302472734098323e-03,-1.568874470588756065e+00,3.686190763274072718e-02,3.160629877860357626e-03,-3.700572120169461909e-01
4.500000000000000000e+00,-2.031231578140965319e-02,4.120593716177203825e-01,1.000353433509333784e-01,1.506893200638819152e-01,6.505016282772915770e-02,2.091811100440665056e-05,-5.077178045330313187e-03,1.165141414045449408e-02,-1.615134795514902688e+00,3.559063606556540915e-02,-1.433945780839167034e-03,-3.700749558654790050e-01
4.750000000000000000e+00,-1.194026825771355100e-03,4.191267802198379022e-01,1.000380154473659855e-01,1.548406150292795103e-01,4.773988878174236644e-02,2.028740277518398778e-05,-4.885969508157820933e-03,1.575967494701270913e-02,-1.661390776133773617e+00,2.915446534776238580e-02,-5.703794287224337074e-03,-3.700599915391889483e-01
5.000000000000000000e+00,1.833805096617408675e-02,4.237227256411317255e-01,1.000399807126704649e-01,1.572399234085460618e-01,2.589432723974835482e-02,9.959664251322983546e-06,-4.309803769721027439e-03,1.883399532486127251e-02,-1.707635564100876469e+00,1.841851552345018239e-02,-8.546391842988998455e-03,-3.700162506153784614e-01
5.250000000000000000e+00,3.802235815490716958e-02,4.253855604351626241e-01,1.000401525446552309e-01,1.572859829792340181e-01,1.234157370259140888e-03,-7.308000942279088444e-06,-3.412335239101111153e-03,2.045695434723329709e-02,-1.753866189284913446e+00,5.122189904249970123e-03,-9.251962980787510962e-03,-3.699598506226545735e-01
5.500000000000000000e+00,5.754766965378800558e-02,4.238982635372486873e-01,1.000380724242748154e-01,1.547862725961405284e-01,-2.411548705318051697e-02,-2.477219802519789623e-05,-2.300394838760569122e-03,2.043446183852071912e-02,-1.800084982767272690e+00,-8.514756147391982360e-03,-7.671946315567901471e-03,-3.699115876451660179e-01
5.750000000000000000e+00,7.660753226746605526e-02,4.193165772934829283e-01,1.000341995080969854e-01,1.499920021668872672e-01,-4.797827161569304805e-02,-3.520692877804975046e-05,-1.103453946519443018e-03,1.882582173420030078e-02,-1.846298412561529600e+00,-2.030289838239378308e-02,-4.212427219509718920e-03,-3.698869920058645566e-01
6.000000000000000000e+00,9.495250048958753242e-02,4.119523688688914720e-01,1.000297111074458234e-01,1.435333151846882871e-01,-6.847618884716535903e-02,-3.476209222228776629e-05,4.653012228659454344e-05,1.591951512417239673e-02,-1.892514087279798529e+00,-2.855835500946681330e-02,3.206261538366258004e-04,-3.698895768601198064e-01
6.250000000000000000e+00,1.124290348586784449e-01,4.023177457752213915e-01,1.000259371142541293e-01,1.362789507130548472e-01,-8.429966453360455969e-02,-2.470877449518836826e-05,1.032485622493194231e-03,1.216405062664051642e-02,-1.938737573452564034e+00,-3.240596412651212260e-02,4.958378153230895251e-03,-3.699108041236645050e-01
6.500000000000000000e+00,1.289981135296855430e-01,3.910433926515375358e-01,1.000237727145982802e-01,1.291604661359295747e-01,-9.484902517469280536e-02,-1.018026131135529275e-05,1.765452603160832731e-03,8.075630956344869923e-03,-1.984970568681937220e+00,-3.184211528971021138e-02,8.807568177951426158e-03,-3.699360166361998492e-01
6.750000000000000000e+00,1.447319123786546813e-01,3.787883459711627876e-01,1.000233863512728777e-01,1.230034255211711613e-01,-1.002360334046388940e-01,2.906336621097112528e-06,2.192723474240834258e-03,4.148222878209565853e-03,-2.031211057069308268e+00,-2.757809579957578791e-02,1.122340158744747178e-02,-3.699522481818472430e-01
7.000000000000000000e+00,1.597916797208137063e-01,3.661574615804409349e-01,1.000243152892547616e-01,1.183981748356690844e-01,-1.011694258717624612e-01,1.064959735673556490e-05,2.300395136249829778e-03,7.862571791447903148e-04,-2.077454983401034738e+00,-2.075376355624066610e-02,1.188533272133647858e-02,-3.699535436701068547e-01
7.250000000000000000e+00,1.743929930744192724e-01,3.536382842435750185e-01,1.000258094440200918e-01,1.156266283804588402e-01,-9.876964209434553610e-02,1.227126130902875834e-05,2.110554709372924713e-03,-1.730909047859608514e-03,-2.123698360096020199e+00,-1.263383584697998566e-02,1.078414053536201622e-02,-3.699417890873747394e-01
7.500000000000000000e+00,1.887655864503254011e-01,3.415629767562529673e-01,1.000271959505875941e-01,1.146457674472372429e-01,-9.436142990869647584e-02,9.495267476511386540e-06,1.674197581516414981e-03,-3.255139838736374400e-03,-2.169938797763961702e+00,-4.374657603052906768e-03,8.155684481209178258e-03,-3.699239182476495857e-01
7.750000000000000000e+00,2.031142869677035334e-01,3.300954519498097706e-01,1.000281007650233867e-01,1.151182350232643620e-01,-8.928246875497897195e-02,5.086410569938909581e-06,1.061647533083182613e-03,-3.756298053250418760e-03,-2.216175990409275709e+00,3.099633751211099478e-03,4.403449467550324230e-03,-3.699078442844639381e-01
8.000000000000000000e+00,2.175861115664970424e-01,3.192401528675878897e-01,1.000284865284338659e-01,1.164770609965433690e-01,-8.472922241065714011e-02,1.493700265639476202e-06,3.523954897636498050e-04,-3.301916098571154069e-03,-2.262411263776835657e+00,9.120695684481422774e-03,4.124431141744650431e-05,-3.698991861473664433e-01
8.250000000000000000e+00,2.322470508878690665e-01,3.088673359368661053e-01,1.000285560168609755e-01,1.180137092682459476e-01,-8.164549817564581424e-02,6.964855568953800109e-08,-3.741699334619099705e-04,-2.039543345255235424e-03,-2.308646618075248291e+00,1.324026877934037297e-02,-4.333733112342280647e-03,-3.698996945133145586e-01
8.500000000000000000e+00,2.470709943126833952e-01,2.987497213060435475e-01,1.000285967552757282e-01,1.189829795064517859e-01,-8.064968153111967686e-02,8.653021792609346030e-07,-1.046465988435818333e-03,-1.860649835308366340e-04,-2.354883730040627565e+00,1.518670776392219007e-02,-8.051239274601312140e-03,-3.699072786551838576e-01
8.750000000000000000e+00,2.618248062144173938e-01,2.887321907375751118e-01,1.000337906785904452e-01,1.149585320223028423e-01,-7.795269081258066057e-02,1.082639931437522312e-04,1.384271960815859799e-02,1.592196451132274915e-03,-2.365058033756347822e+00,-1.443022146921898730e-01,-1.563618401752728815e-01,1.462008968408382292e-01
9.000000000000000000e+00,2.748186013316655241e-01,2.801402394312303423e-01,1.000702453434551414e-01,8.951493005229749222e-02,-5.641220262230638161e-02,4.493176333632685916e-04,4.160875172106147379e-02,2.169969675859322825e-03,-2.333971957095704930e+00,-1.375019310176489595e-01,-1.421502100470379282e-01,3.097820343798284304e-01
9.250000000000000000e+00,2.831176076904495797e-01,2.755535142731697640e-01,1.001202093097713214e-01,4.217741858362992341e-02,-1.625317455844074721e-02,2.229415388135096707e-04,5.739986253759506163e-02,1.512873522571215549e-03,-2.291808332451191088e+00,-3.893950692093999660e-02,-3.244144815309797647e-02,3.536088315407500682e-01
9.500000000000000000e+00,2.848487931752318736e-01,2.764194675272694801e-01,1.001063550940432673e-01,-1.237105401412355934e-02,2.795920216266465502e-02,-4.045045828080176412e-04,5.373458746117892870e-02,6.141397049808395301e-04,-2.246681330649106023e+00,5.508473277102151483e-02,7.714551075312613138e-02,3.655514641565335565e-01
9.750000000000000000e+00,2.802053060979314836e-01,2.822812472075930113e-01,1.000388852476652990e-01,-5.787643173235606370e-02,6.226946276441957390e-02,-5.590020223015293964e-04,3.675082353835069232e-02,3.442681517786093251e-04,-2.200742557460699800e+00,9.445348443064213728e-02,1.282118065430559728e-01,3.687820240441943009e-01
1.000000000000000000e+01,2.709780139296453227e-01,2.914360817212877097e-01,9.998728600915286757e-02,-8.570380659857618211e-02,8.101723868957780295e-02,-2.432595586166058090e-04,1.744359404842682482e-02,5.853776347372432239e-04,-2.154585490363773115e+00,7.805794263485209272e-02,1.146777338773440624e-01,3.696602463543672834e-01
1.025000000000000000e+01,2.594084073524408063e-01,3.020502227262113482e-01,9.997705089973564496e-02,-9.670192405046283690e-02,8.703274926418526347e-02,3.458551234477521576e-05,4.164652089801956260e-03,4.215698278940723637e-04,-2.108366857361044566e+00,3.245598436022700123e-02,6.508058299439199723e-02,3.698982537125162784e-01
1.050000000000000000e+01,2.472007045674125825e-01,3.129784385336308872e-01,9.998740947477510743e-02,-9.757293291701117643e-02,8.752962850698434161e-02,1.017961886134807764e-04,-4.735028817625850880e-04,-1.044418340534438404e-03,-2.062128079497558275e+00,-1.232456717679106944e-02,1.467917154597382992e-02,3.698992575381020997e-01
1.075000000000000000e+01,2.351244662331447022e-01,3.240032984867629584e-01,9.999936041303363055e-02,-9.576791057872026391e-02,8.948767283918125648e-02,8.784492689167262131e-05,1.363158178086360060e-03,-3.969487559874676844e-03,-2.015901232471702276e+00,-3.766257428903154597e-02,-1.473425907484486423e-02,3.698191133917508866e-01
1.100000000000000000e+01,2.231696216841389246e-01,3.355995924704024413e-01,1.000097072864745140e-01,-9.605448141658383399e-02,9.683243172485456185e-02,7.915530704231156240e-05,5.640024294229882204e-03,-7.592514073137152444e-03,-1.969702272338875737e+00,-3.954140040929506050e-02,-2.042709881524286397e-02,3.697754113207746274e-01
1.125000000000000000e+01,2.109555983361141585e-01,3.484947091497180294e-01,1.000187197393575256e-01,-9.978960076667038603e-02,1.098632781964733740e-01,6.203133743640073725e-05,9.100273791128536682e-03,-1.059312494864016532e-02,-1.923510287533318319e+00,-2.385949664416809127e-02,-1.242632612243642874e-02,3.698095366485937840e-01
1.150000000000000000e+01,1.980913480347404609e-01,3.632656163466910781e-01,1.000242236312526845e-01,-1.061476286609677883e-01,1.261880857462437944e-01,2.519890286161521141e-05,1.045276843446484721e-02,-1.167801732681232954e-02,-1.877293762510675590e+00,2.212929373205025675e-04,-3.175128365665391347e-03,3.699009881431677416e-01
1.175000000000000000e+01,1.843343287995783397e-01,3.800933007018392207e-01,1.000249720920244334e-01,-1.138523696884128633e-01,1.421359940741972749e-01,-9.275157498546331516e-06,1.011307234801395172e-02,-1.006028636896133012e-02,-1.831044738951890460e+00,2.491466820019045889e-02,1.581724269838099249e-05,3.700259372959830428e-01
1.200000000000000000e+01,1.695659166074320601e-01,3.986837761950939307e-01,1.000229120757489959e-01,-1.222743726609841208e-01,1.539409378183813348e-01,-1.817321529053453211e-05,9.211832158133219720e-03,-5.654313498011532407e-03,-1.784774713509772237e+00,4.538202138890263387e-02,-3.054939395134086480e-03,3.701766916714124278e-01
1.225000000000000000e+01,1.536941474109628503e-01,4.183077931880828104e-01,1.000216955031930643e-01,-1.315361811263530967e-01,1.584695416362082165e-01,2.134873227927541799e-06,8.656517071226851531e-03,9.981743940555838461e-04,-1.738490450984568447e+00,5.915998191774415188e-02,-8.005332348009737767e-03,3.703378104717426900e-01
1.250000000000000000e+01,1.365924166384164529e-01,4.379067248748752528e-01,1.000242024142248692e-01,-1.419432891597860458e-01,1.535946512567709921e-01,3.751641029449738360e-05,8.692410693532867660e-03,8.943751888478176232e-03,-1.692188730362891746e+00,6.499862151726897019e-02,-9.973829135437511928e-03,3.704674167822591957e-01
1.275000000000000000e+01,1.181211620864263262e-01,4.562324523998702031e-01,1.000308880372872966e-01,-1.533244682442794771e-01,1.383978156254181135e-01,6.537107589345018325e-05,8.985506685382926503e-03,1.704898026442226017e-02,-1.645872479797516164e+00,6.221457988414278578e-02,-6.660551159071807607e-03,3.705123911400569070e-01
1.300000000000000000e+01,9.821172342446767012e-02,4.720073577766443207e-01,1.000394638587635138e-01,-1.647352905362686748e-01,1.132956559130235130e-01,6.634609437513115497e-05,8.984340073213296918e-03,2.418838340883231949e-02,-1.599562016795716746e+00,5.081632731337337727e-02,8.811166728313766985e-04,3.704441453990214295e-01
1.325000000000000000e+01,7.695498247616242016e-02,4.840940892864764589e-01,1.000460411027236096e-01,-1.746552636170191353e-01,8.006062868559681023e-02,3.506852765257942274e-05,8.276448185018228654e-03,2.939167688176055199e-02,-1.553285667545999615e+00,3.201499273262031070e-02,9.390237394622129308e-03,3.702828736603135384e-01
1.350000000000000000e+01,5.464123930948444618e-02,4.916562851516235733e-01,1.000471929753408151e-01,-1.815161241711296947e-01,4.164758923063501678e-02,-1.657995561555284666e-05,6.768049436444249604e-03,3.197294322899672803e-02,-1.507059594074240394e+00,8.535375485318503694e-03,1.534998017348390351e-02,3.700904213381447372e-01
1.375000000000000000e+01,3.172851125432612357e-02,4.942817497931590864e-01,1.000417848002097820e-01,-1.842674871303163764e-01,1.772883921340973187e-03,-6.589993276219651580e-05,4.665410747455130819e-03,3.164336004715515710e-02,-1.460876249712595110e+00,-1.566150506432349709e-02,1.661104801170336376e-02,3.699375972388830314e-01
1.400000000000000000e+01,8.752097497462207193e-03,4.920388064165709952e-01,1.000315701087693271e-01,-1.827259396735476382e-01,-3.571092808474023161e-02,-9.148030815379960845e-05,2.336149701173508182e-03,2.857742028682385901e-02,-1.414710066886189388e+00,-3.625566083434363096e-02,1.306105013082720957e-02,3.698686339940729373e-01
1.425000000000000000e+01,-1.378852518302150533e-02,4.854485301148904752e-01,1.000202664136597697e-01,-1.775943903682012381e-01,-6.750416848468888953e-02,-8.430524847100134237e-05,1.520349083834734777e-04,2.339146546879576627e-02,-1.368533429817266223e+00,-4.972775049195479052e-02,6.309698065071854024e-03,3.698838688453867096e-01
1.450000000000000000e+01,-3.552545366848104680e-02,4.753768611806074573e-01,1.000116521116096030e-01,-1.701922458815023353e-01,-9.142585817836826334e-02,-5.171417833113071895e-05,-1.617108855680147745e-03,1.701456927830638510e-02,-1.322330195542921416e+00,-5.434027885072806319e-02,-1.237684155782307806e-03,3.699475291566403645e-01
1.475000000000000000e+01,-5.627320642915664695e-02,4.628729316503961688e-01,1.000077965353331627e-01,-1.620401293911294116e-01,-1.066976752931277639e-01,-1.171155133379917324e-05,-2.838342071619444091e-03,1.047392466273131331e-02,-1.276099422940994321e+00,-5.055495098551852917e-02,-7.413085572618477621e-03,3.700124037412522715e-01
1.500000000000000000e+01,-7.602756353680377444e-02,4.489943293428700355e-01,1.000084459180895502e-01,-1.544685486655523188e-01,-1.138790452878663539e-01,1.846938306346775172e-05,-3.496746522275355137e-03,4.655806424656861939e-03,-1.229850514592042421e+00,-4.073594970315412567e-02,-1.100928535415696304e-02,3.700452435440175769e-01
1.525000000000000000e+01,-9.492425406211793537e-02,4.346609882983293316e-01,1.000117652394900969e-01,-1.483766225696292462e-01,-1.145009532029542948e-01,3.132132807243427766e-05,-3.653427220999872372e-03,1.181112747183649673e-04,-1.183595436164885495e+00,-2.826742774190225960e-02,-1.199008732651380034e-02,3.700388533488817022e-01
1.550000000000000000e+01,-1.131800923889662441e-01,4.205670682089814316e-01,1.000156977327489177e-01,-1.441863364159943761e-01,-1.105379995766099660e-01,2.988600242630523842e-05,-3.404747206900898826e-03,-2.985920157300149449e-03,-1.137342952832699039e+00,-1.642281108307731483e-02,-1.121213696960092140e-02,3.700070600919652120e-01
1.575000000000000000e+01,-1.310394431094716594e-01,4.071596676447998830e-01,1.000189513412264863e-01,-1.419566955657201590e-01,-1.038956356369747785e-01,2.200422944183711305e-05,-2.853465762918589756e-03,-4.853545034123296978e-03,-1.091096749486588635e+00,-7.393442508283608848e-03,-9.850758071427261064e-03,3.699699866413317384e-01
1.600000000000000000e+01,-1.487406161971298324e-01,3.946721587994714286e-01,1.000211702076623382e-01,-1.415690134329358751e-01,-9.606339184023243716e-02,1.408271853157582513e-05,-2.091861495053819967e-03,-5.875620889595202859e-03,-1.044856618658256853e+00,-1.798407531891954873e-03,-8.792521081428524704e-03,3.699412560526357807e-01
1.625000000000000000e+01,-1.665045009985970381e-01,3.831855693018203501e-01,1.000225522019539959e-01,-1.428829903960464331e-01,-8.800963565597459681e-02,8.653132716047495559e-06,-1.193295882735267727e-03,-6.439135809701947329e-03,-9.986207408268805708e-01,1.200627703630132576e-03,-8.230588253399631626e-03,3.699240909319494452e-01
1.650000000000000000e+01,-1.845366552034139462e-01,3.726880398719625842e-01,1.000234055332685640e-01,-1.457912075217850656e-01,-8.029970729596183632e-02,5.357138074284391915e-06,-2.099817467270868290e-04,-6.761112213773188065e-03,-9.523873662061164147e-01,3.281700521226308016e-03,-7.601211339880098103e-03,3.699154254990343338e-01
1.675000000000000000e+01,-2.030282937693898282e-01,3.631099856083137012e-01,1.000239108570253749e-01,-1.501528656750064361e-01,-7.334187719255574889e-02,2.832087468795000372e-06,8.231977186408155969e-04,-6.809774032418138695e-03,-9.061552214225951918e-01,6.111570691805253037e-03,-5.869847251166332609e-03,3.699126490377305232e-01
1.700000000000000000e+01,-2.221430174916259048e-01,3.543273352109306829e-01,1.000240937604571917e-01,-1.556452507994915690e-01,-6.763022343650348933e-02,1.430325720768094144e-07,1.878971216861227006e-03,-6.335414148994905105e-03,-8.599229122779561418e-01,1.058763158789644693e-02,-2.052907679852636943e-03,3.699179060387821627e-01
1.725000000000000000e+01,-2.419838676735067695e-01,3.461411012533953668e-01,1.000239476682807521e-01,-1.616128294275001320e-01,-6.386892256539603019e-02,-2.205353377658860190e-06,2.924460282326840545e-03,-4.995414261239494551e-03,-8.136881137741439618e-01,1.643863630649204655e-02,4.220744442470697466e-03,3.699374036668012233e-01
1.750000000000000000e+01,-2.625463292259439529e-01,3.382526460695069459e-01,1.000236424401342861e-01,-1.670044313263686631e-01,-6.291903721023256457e-02,-2.033975457387490618e-06,3.909519666254814528e-03,-2.527628159652974948e-03,-7.674474745087397354e-01,2.230549041791986611e-02,1.232311743585457094e-02,3.699758913282136241e-01
1.775000000000000000e+01,-2.836729657529351578e-01,3.302565774806863197e-01,1.000236549691142368e-01,-1.704642468905986363e-01,-6.558388507043723392e-02,2.952811539673026922e-06,4.762602135903510128e-03,1.087984355553729427e-03,-7.211978704976380605e-01,2.625061471657313614e-02,2.058004442351498223e-02,3.700293410574334585e-01
1.800000000000000000e+01,-3.050303942948070501e-01,3.216667009882652750e-01,1.000245903824029253e-01,-1.705895433538506534e-01,-7.231519432305841266e-02,1.208477577999389938e-05,5.398168387433701504e-03,5.535468755639275096e-03,-6.749387334776447700e-01,2.650148763994300202e-02,2.662414339613804540e-02,3.700812875291644710e-01
1.825000000000000000e+01,-3.261267861004508162e-01,3.119775301205469087e-01,1.000266590668807132e-01,-1.663038437015702253e-01,-8.295689904030148498e-02,1.986396940841561099e-05,5.735429682705696884e-03,1.017260580058977106e-02,-6.286739524622168007e-01,2.216151739504313226e-02,2.807622703256790891e-02,3.701076995615442677e-01
1.850000000000000000e+01,-3.463779679636384556e-01,3.007493082386867300e-01,1.000291797989418252e-01,-1.572403428389426150e-01,-9.663549778771103604e-02,1.843097593275219549e-05,5.723489770668873343e-03,1.414976857768849433e-02,-5.824114017282043809e-01,1.363691403413478699e-02,2.336075180338540239e-02,3.700898680484754899e-01
1.875000000000000000e+01,-3.652151096369667949e-01,2.876935855858419600e-01,1.000306755678659343e-01,-1.440064922902467570e-01,-1.118586492194248438e-01,3.950196757678398730e-06,5.364747511652467361e-03,1.661075079117041095e-02,-5.361594499714360529e-01,2.626264443131738884e-03,1.238965983864349051e-02,3.700274510142526063e-01
1.900000000000000000e+01,-3.822115553902551977e-01,2.727331034238688057e-01,1.000297610169619128e-01,-1.282186698656334611e-01,-1.268133784431453859e-01,-1.816233318050571702e-05,4.727964656975300849e-03,1.692247634970361209e-02,-4.899223035335599219e-01,-8.330611258690877666e-03,-3.136142381582428165e-03,3.699412274837954318e-01
1.925000000000000000e+01,-3.971958717849839449e-01,2.560154388738588582e-01,1.000262790715682332e-01,-1.122540794938167857e-01,-1.397858653170108434e-01,-3.492015499632471226e-05,3.944842577603031863e-03,1.486925866002822109e-02,-4.436975953213389556e-01,-1.659689363710733015e-02,-1.995118937528752440e-02,3.698616015647321342e-01
1.950000000000000000e+01,-4.103167769976679979e-01,2.378728708639280265e-01,1.000217178588061750e-01,-9.874956114855906741e-02,-1.495799626574330632e-01,-3.477588207192203949e-05,3.188588332947725392e-03,1.075474433941230219e-02,-3.974783836470593967e-01,-2.022981230365309205e-02,-3.395319992208647303e-02,3.698105279286720837e-01
1.975000000000000000e+01,-4.220347266293263955e-01,2.187370492851462012e-01,1.000183664202680400e-01,-8.995810599279237263e-02,-1.558067874454891200e-01,-1.724324053579488929e-05,2.638449430624780368e-03,5.378752746989999035e-03,-3.512582146956954587e-01,-1.856085544620030003e-02,-4.124859776643560044e-02,3.697910159875855696e-01
2.000000000000000000e+01,-4.330326250592638759e-01,1.990310076631354730e-01,1.000177147540120687e-01,-8.712711901823098903e-02,-1.589548049589476486e-01,5.518205419520334269e-06,2.438732372255230426e-03,-1.108640762643066521e-04,-3.050350902177095258e-01,-1.238449177625944309e-02,-3.922909694701726818e-02,3.697927154302278474e-01
2.025000000000000000e+01,-4.440596636813727294e-01,1.790682954499675239e-01,1.000193655135275111e-01,-9.007038254051091819e-02,-1.602161971198056423e-01,1.774792103653921992e-05,2.662738442175744801e-03,-4.459433208327472087e-03,-2.588108518926950374e-01,-3.706816057453654611e-03,-2.738003980897147846e-02,3.698081991373982080e-01
2.050000000000000000e+01,-4.557416464578288307e-01,1.589872368163770255e-01,1.000214375578195175e-01,-9.706537170807537362e-02,-1.611187162240790283e-01,1.303613185526327864e-05,3.290859176419401368e-03,-6.585071256497763634e-03,-2.125864563782077499e-01,4.857649306070582415e-03,-7.589527485345099606e-03,3.698444224217463105e-01
2.075000000000000000e+01,-4.684028950360850652e-01,1.387382007738462153e-01,1.000222355070713304e-01,-1.051297640316428278e-01,-1.630695399749859387e-01,1.768002067823551536e-07,4.208614199479794073e-03,-5.832515770115137381e-03,-1.663575756165008579e-01,1.085402722064332352e-02,1.614526026194674710e-02,3.699170336491093836e-01
2.100000000000000000e+01,-4.819454426429031213e-01,1.181264516729915171e-01,1.000218210254379264e-01,-1.106353365922280035e-01,-1.669426431365851060e-01,-3.949256555905502452e-06,5.225975006694369776e-03,-2.142228167963129443e-03,-1.201152868920808969e-01,1.269545010042425967e-02,3.856131383681843383e-02,3.700302360469961971e-01
2.125000000000000000e+01,-4.958200445291730540e-01,9.689715575932929259e-02,1.000220715830056339e-01,-1.101283208572291505e-01,-1.728283026508036779e-01,1.050584398142686865e-05,6.114779338138909108e-03,3.905510821733097857e-03,-7.385257951682826227e-02,1.011265269314692676e-02,5.432725697792940150e-02,3.701594226694534528e-01
2.150000000000000000e+01,-5.091029502067513368e-01,7.483696872718034743e-02,1.000250000415960350e-01,-1.011664932508689468e-01,-1.800174339917781086e-01,3.570938857226377484e-05,6.656925169311891065e-03,1.118465102182327267e-02,-2.757206297678538309e-02,4.219994622964630751e-03,5.931653164278385959e-02,3.702546164080672830e-01
2.175000000000000000e+01,-5.206673116394829881e-01,5.186169110594639892e-02,1.000306172734773402e-01,-8.297022002604763358e-02,-1.872272547467839221e-01,4.988154200051795212e-05,6.693143023880936647e-03,1.824012858504181489e-02,1.871182260314818366e-02,-2.824777048565339354e-03,5.166494431696475736e-02,3.702675210333348788e-01
2.200000000000000000e+01,-5.294145370014229357e-01,2.806319864129568770e-02,1.000361867432977003e-01,-5.671958597072053465e-02,-1.930056258048483131e-01,3.407340915378697261e-05,6.161480885493694423e-03,2.358704902000173867e-02,6.497935065923515774e-02,-8.480457322944594950e-03,3.235903029099037459e-02,3.701849676375859599e-01
2.225000000000000000e+01,-5.345144015923387615e-01,3.700405923475290522e-03,1.000377688089693073e-01,-2.540469239459828069e-02,-1.961976932998173995e-01,-1.064556226483147771e-05,5.116466485693155035e-03,2.603322938709550990e-02,1.112172916842712189e-01,-1.062165867665312326e-02,5.179557784979734424e-03,3.700429933750278289e-01
2.250000000000000000e+01,-5.355974754501791057e-01,-2.086456736952890106e-02,1.000331153117449551e-01,6.762371323067145612e-03,-1.963354717762168244e-01,-6.020837889256970028e-05,3.723602177671845887e-03,2.495591393027973143e-02,1.574276005063482975e-01,-8.245138213735540497e-03,-2.404713066271083055e-02,3.699075996013402312e-01
2.275000000000000000e+01,-5.328515496853512001e-01,-4.526705282604455427e-02,1.000236965621548874e-01,3.525683595892874916e-02,-1.938269766700962682e-01,-8.322609420281078675e-05,2.228782551525111937e-03,2.046668110963964504e-02,2.036261256084443416e-01,-1.861533306817267841e-03,-4.876310652472325841e-02,3.698335086139525330e-01
2.300000000000000000e+01,-5.269945217169376139e-01,-6.924701061346985598e-02,1.000140865470426771e-01,5.626492058770885679e-02,-1.898748356720634523e-01,-6.444339553598619954e-05,9.080700205214764162e-04,1.341847234625176410e-02,2.498317522234612398e-01,6.572459565621191491e-03,-6.325877228817797238e-02,3.698309830741927096e-01
2.325000000000000000e+01,-5.191254793010900981e-01,-9.272859117979700971e-02,1.000089365861205337e-01,6.757155937327896655e-02,-1.861332108284241837e-01,-1.725808312387948687e-05,8.800835694401678875e-06,5.242941472072958943e-03,2.960539834193228748e-01,1.419770846793966951e-02,-6.411695282217054481e-02,3.698660193743996127e-01
2.350000000000000000e+01,-5.104862977234887467e-01,-1.158445085879731412e-01,1.000097835122939344e-01,6.908408930413598159e-02,-1.841949550443615913e-01,2.590961584214570719e-05,-3.041895877661416497e-04,-2.353423511035706260e-03,3.422884374878032432e-01,1.813763178101330739e-02,-5.113085088716882998e-02,3.698933683493140223e-01
2.375000000000000000e+01,-5.021895862694329971e-01,-1.388934239073110477e-01,1.000142222532160174e-01,6.285007112645335514e-02,-1.850615131803950708e-01,3.866848416408686382e-05,1.521026823351787440e-05,-7.769801775186540617e-03,3.885234814702878681e-01,1.646231704318182332e-02,-2.742448772360469439e-02,3.698953953459560018e-01
2.400000000000000000e+01,-4.949785609320513924e-01,-1.622391764826322247e-01,1.000181264039961548e-01,5.255528513415418101e-02,-1.887641014131172246e-01,2.082385980366067616e-05,8.836329126471110683e-04,-9.879855854647187977e-03,4.347521617321729037e-01,8.913727066357448811e-03,1.299104799593324422e-03,3.698945284973481629e-01
2.425000000000000000e+01,-4.890772689085792213e-01,-1.861798878440605043e-01,1.000190708548051588e-01,4.262411745080384867e-02,-1.942670381997792239e-01,-3.414772579189084074e-06,2.105219552211259545e-03,-8.296616492043433488e-03,4.809792319393572657e-01,-2.872514133046033015e-03,2.821526984164229868e-02,3.699287645146961401e-01
2.450000000000000000e+01,-4.841668471929836959e-01,-2.108263083189544640e-01,1.000180771471338159e-01,3.715280135962474584e-02,-1.997006741506063277e-01,-7.724856407631240594e-06,3.413099174152683761e-03,-3.462380037670617638e-03,5.272172344174369529e-01,-1.575393947611681070e-02,4.715058181492944728e-02,3.700116088718045648e-01
2.475000000000000000e+01,-4.794908369637027046e-01,-2.360280399155627318e-01,1.000182587243417381e-01,3.895383066440427644e-02,-2.028675961931545313e-01,1.305028187059086212e-05,4.527060278048413572e-03,3.463407352023270287e-03,5.734749643020835563e-01,-2.597857038274513017e-02,5.416645563563832200e-02,3.701121142859958857e-01
2.500000000000000000e+01,-4.740589358944069520e-01,-2.613731386317813543e-01,1.000216650048626060e-01,4.895906778363362521e-02,-2.018765789124872256e-01,3.904794523969301655e-05,5.214975816813229199e-03,1.089131234140333811e-02,6.197482763778532355e-01,-3.032809353944010064e-02,4.850055352796869834e-02,3.701736378142834183e-01
2.525000000000000000e+01,-4.668936593158441450e-01,-2.862649247788270901e-01,1.000271731263510377e-01,6.612600110917196683e-02,-1.957135464148943849e-01,4.381941594641129478e-05,5.343583004074990185e-03,1.719048235313762329e-02,6.660212565194515433e-01,-2.715542456164887417e-02,3.260869442288946707e-02,3.701561970946018465e-01
2.550000000000000000e+01,-4.572554035081088930e-01,-3.100562090731536768e-01,1.000312620803183727e-01,8.784792330903165580e-02,-1.845719751005500398e-01,1.800500283227516679e-05,4.905946775783940998e-03,2.107816010818767266e-02,7.122769103673247670e-01,-1.697226280091761533e-02,1.131531887808343712e-02,3.700668430176096702e-01
2.575000000000000000e+01,-4.447906276087088551e-01,-3.322029305886276540e-01,1.000308946922796732e-01,1.107286662698605678e-01,-1.698350205646719513e-01,-2.277544816750466520e-05,4.018472316596028403e-03,2.190879709644839857e-02,7.585085507395118443e-01,-2.362001004351910183e-03,-9.656745494773228897e-03,3.699533473239434156e-01
2.600000000000000000e+01,-4.295720864097413716e-01,-3.523924630008184455e-01,1.000259338436638168e-01,1.314873289310477811e-01,-1.537094917364052182e-01,-5.170928862130499948e-05,2.888215095712103140e-03,1.978839587122397173e-02,8.047229516518003001e-01,1.278308311551948004e-02,-2.531642140635126381e-02,3.698685413724916993e-01
2.625000000000000000e+01,-4.120316531158204065e-01,-3.706092271069542088e-01,1.000191069161939228e-01,1.477359663552253732e-01,-1.386231618703629709e-01,-5.260754489632457381e-05,1.759365290083378689e-03,1.548957733030463524e-02,8.509337869114722563e-01,2.445568262531679082e-02,-3.269037205296074916e-02,3.698362921630445888e-01
2.650000000000000000e+01,-3.928155432253776502e-01,-3.871196294989284192e-01,1.000138076153729849e-01,1.584292173243027069e-01,-1.265727375142306210e-01,-3.044888488438406314e-05,8.537368659443658140e-04,1.020059879920679966e-02,8.971517889531541723e-01,2.975713200317102111e-02,-3.139481242796643423e-02,3.698447341075757344e-01
2.675000000000000000e+01,-3.726099157367291359e-01,-4.023833289299459381e-01,1.000117869677153437e-01,1.638992238230397303e-01,-1.186228296943936250e-01,-3.597509991421351668e-06,3.215132749741498913e-04,5.187549143315776413e-03,9.433795264294512206e-01,2.774286025904614678e-02,-2.338247627476070650e-02,3.698660920227777038e-01
2.700000000000000000e+01,-3.519870610713325410e-01,-4.169200130120129244e-01,1.000125307287150350e-01,1.655213731719986370e-01,-1.147020810671774693e-01,1.253272435084835677e-05,2.145979410478427514e-04,1.468874914248455808e-03,9.896134038924926379e-01,1.961626512444317877e-02,-1.203249221795854931e-02,3.698813798626423011e-01
2.725000000000000000e+01,-3.313094549834869063e-01,-4.311729064621007690e-01,1.000143845400011805e-01,1.651607866955399628e-01,-1.137411451386999561e-01,1.522627430857773046e-05,4.873936541102171904e-04,-4.090381935315867755e-04,1.035849188565081347e+00,8.224846296661338790e-03,-9.469027134671175339e-04,3.698895757150084673e-01
2.750000000000000000e+01,-3.107066276232483548e-01,-4.454084684561365748e-01,1.000160674375858288e-01,1.645940233253748164e-01,-1.140849664046132417e-01,1.148897723351110511e-05,1.021722413757419250e-03,-4.424333160542179505e-04,1.082085634326017898e+00,-2.943465240200279082e-03,7.128390736121129403e-03,3.698989027616064185e-01
2.775000000000000000e+01,-2.901163119801046242e-01,-4.596774106985712649e-01,1.000172874345298252e-01,1.650775529218982685e-01,-1.140280967180343080e-01,8.595440930403164744e-06,1.666462971550727737e-03,9.164646837122997474e-04,1.128323990216275829e+00,-1.089725124778485529e-02,1.093443314767983919e-02,3.699134015942803222e-01
2.800000000000000000e+01,-2.693642820551128136e-01,-4.738408207347041823e-01,1.000183187105319199e-01,1.671606320251465549e-01,-1.122942707536294105e-01,8.169364169365703107e-06,2.279681695241491963e-03,2.960052932853458017e-03,1.174565315228765172e+00,-1.402074378553830498e-02,1.075220626355688318e-02,3.699280847587434473e-01
2.825000000000000000e+01,-2.482510999902746429e-01,-4.876444641947209613e-01,1.000193205416838177e-01,1.707468194795741523e-01,-1.083160349158661662e-01,7.601503254009321735e-06,2.761791608694001005e-03,4.967763572378345281e-03,1.220808757582992454e+00,-1.242454474108303786e-02,7.960448389713926237e-03,3.699344816346110121e-01
2.850000000000000000e+01,-2.266188754009517969e-01,-5.008111397498622441e-01,1.000201143763747164e-01,1.753291989623766423e-01,-1.022499349060920631e-01,4.806080297865329308e-06,3.071982729166113351e-03,6.414448776102530010e-03,1.267052078074308641e+00,-7.700722448732721243e-03,4.332682502261275131e-03,3.699286846328728728e-01
2.875000000000000000e+01,-2.043836190244362749e-01,-5.131189754996831054e-01,1.000204479376955030e-01,1.802834978672611388e-01,-9.475630224684040981e-02,6.356242878060611265e-07,3.225633796010099301e-03,7.088365161563113699e-03,1.313293321054666896e+00,-2.218391471903633470e-03,1.355648009617897070e-03,3.699141993378861071e-01
2.900000000000000000e+01,-1.815333849079148187e-01,-5.244423513011639004e-01,1.000203014009287683e-01,1.851082817592041574e-01,-8.664738175827776945e-02,-2.535792868209250912e-06,3.276082111566030325e-03,7.095963049668789317e-03,1.359531925431838095e+00,1.767083282599980982e-03,-2.041635115080741138e-04,3.698987255302247368e-01
2.925000000000000000e+01,-1.581038444242355845e-01,-5.347477379242091544e-01,1.000199075428414991e-01,1.895431131869442787e-01,-7.854062374544715230e-02,-3.332510258802709841e-06,3.288361256647628125e-03,6.766780969134991025e-03,1.405768648025318424e+00,2.881192441605007204e-03,-3.825848419659750709e-04,3.698891695765035292e-01
2.950000000000000000e+01,-1.341478664579093816e-01,-5.440533281181499925e-01,1.000195523062650804e-01,1.935537284930549662e-01,-7.063838435919760073e-02,-2.156932298426331697e-06,3.314094005016845514e-03,6.499922656887134088e-03,1.452004837991506037e+00,1.027819558150085740e-03,2.150812420464360587e-04,3.698887346594629810e-01
2.975000000000000000e+01,-1.097135324473799967e-01,-5.523732460728238980e-01,1.000194082011051505e-01,1.972249810446475848e-01,-6.270009846253077335e-02,-1.685233948665705624e-07,3.375314673522723189e-03,6.606963627228334794e-03,1.498241765037802598e+00,-2.691950342729931486e-03,8.184060012120395128e-04,3.698965720247482936e-01
3.000000000000000000e+01,-8.483782502644537926e-02,-5.596706728902003380e-01,1.000195142410793686e-01,2.006299726511731607e-01,-5.419914345443247600e-02,1.732778302978084208e-06,3.461272343139783127e-03,7.202540952014028705e-03,1.544480191304049788e+00,-6.486473066843270047e-03,8.816319122143655845e-04,3.699086428431986318e-01
3.025000000000000000e+01,-5.955457072274707164e-02,-5.658387288986771457e-01,1.000198173765275839e-01,2.037405039784850880e-01,-4.458968361600736119e-02,2.898896794890879517e-06,3.537619050929199319e-03,8.175609898370062717e-03,1.590720080218135823e+00,-8.612393039590276675e-03,3.017816410972602834e-04,3.699191424954191287e-01
3.050000000000000000e+01,-3.390875981991092053e-02,-5.707157922169472375e-01,1.000201803826629154e-01,2.064146399625451100e-01,-3.357120413367922773e-02,2.623897290365563009e-06,3.563362083657179314e-03,9.246848719189629945e-03,1.636960515534742644e+00,-8.072996844056226640e-03,-6.072176048433086410e-04,3.699227500550922310e-01
3.075000000000000000e+01,-7.967520885941546324e-03,-5.741277341788810773e-01,1.000203907357107846e-01,2.084560167250699703e-01,-2.124312212968806901e-02,5.253449647482387552e-07,3.508769339934487367e-03,1.008829847297450580e-02,1.683200060654023611e+00,-5.009126383905542802e-03,-1.347276092596844371e-03,3.699172662062674144e-01
3.100000000000000000e+01,1.817889488178730389e-02,-5.759387093210432962e-01,1.000202514573762108e-01,2.097047259899654792e-01,-8.088139298295287175e-03,-2.714134736449226669e-06,3.367634814766630024e-03,1.045839813516329618e-02,1.729437510471532935e+00,-6.146250424079401607e-04,-1.544488628059037831e-03,3.699049373093278303e-01
3.125000000000000000e+01,4.442663065566876401e-02,-5.760890041862931632e-01,1.000197213738015789e-01,2.101067899353561974e-01,5.204520191651020380e-03,-5.443522584611662217e-06,3.159774306289815302e-03,1.029735287375376472e-02,1.775672555110050954e+00,3.413978683063017844e-03,-1.162987677002392172e-03,3.698911248457723011e-01
3.150000000000000000e+01,7.067284850206580205e-02,-5.746046159022973887e-01,1.000189658148223776e-01,2.097247810760985431e-01,1.799379286265940375e-02,-6.241729283968926409e-06,2.923478373724010260e-03,9.740519439045036004e-03,1.821905866841497357e+00,5.671399478597924891e-03,-4.992669604575984904e-04,3.698811062449534059e-01
