time_total,x,y,z,vx,vy,vz,roll,pitch,yaw,roll_rate,pitch_rate,yaw_rate
e-01,9.990726545030129135e-02,5.640444300454308668e-02,1.145304018955563691e-01,3.694660596488594630e-04,9.131562405486106900e-04,-1.045885399881614454e-03,-4.184189915667339554e-01,-1.400201150927754892e-02,7.300067178055637436e-03,-2.733906088620340902e-01
2.500000000000000000e-01,-4.439375823536114707e-01,1.651318540683000269e-01,9.994583880456178737e-02,5.502891789182271648e-02,1.144573222303716109e-01,2.585586615435099002e-04,-1.259153486166938573e-03,-9.184304916177111946e-04,-4.525915838687266657e-01,-1.452019400833771262e-02,8.228434692706202910e-03,-2.734031547302541165e-01
5.000000000000000000e-01,-4.370773901465073163e-01,1.795550475155158476e-01,9.997288578251188607e-02,5.493325814700177057e-02,1.165256283655504016e-01,1.809204005477262219e-04,-2.837327703057797041e-03,-7.492949553041423905e-04,-4.867661625903421663e-01,-6.285174736737120238e-03,5.352391058862272441e-03,-2.734108510713358364e-01
7.500000000000000000e-01,-4.301631838920000339e-01,1.943139923099766742e-01,9.999165016505347225e-02,5.578230178358059566e-02,1.195511303782069989e-01,1.242601576639975052e-04,-3.200644499374676911e-03,-4.262751570955508628e-04,-5.209425914880797537e-01,3.002573018237831952e-03,2.214969838218120140e-03,-2.734153274585811033e-01
1.000000000000000000e+00,-4.231071561506540846e-01,2.094354976726025552e-01,1.000044683311736571e-01,5.712112279746340421e-02,1.221411498367363929e-01,8.477678359608311059e-05,-2.620022046533470716e-03,1.127369370189439622e-04,-5.551197077337524100e-01,8.348654430826288331e-03,7.900651106119132433e-04,-2.734169723215149062e-01
1.250000000000000000e+00,-4.158676353677512316e-01,2.248033001550383547e-01,1.000132742381339146e-01,5.868985615803062189e-02,1.234595194309589528e-01,5.881377417878582402e-05,-1.745417113549677449e-03,8.050065340524625553e-04,-5.892964649673908539e-01,8.652231902241807118e-03,1.161765694310252020e-03,-2.734172950367634303e-01
1.500000000000000000e+00,-4.084187678796512011e-01,2.402455042356988757e-01,1.000194342303736411e-01,6.047723970858817633e-02,1.234154183392990184e-01,4.137799093122942004e-05,-1.124024961168026407e-03,1.499290795907427549e-03,-6.234729100669837987e-01,5.618281209007303795e-03,2.306575526841683939e-03,-2.734168009581579017e-01
1.750000000000000000e+00,-4.007260858107881130e-01,2.556154464042722507e-01,1.000237606593755435e-01,6.260165457250296828e-02,1.224263111738382037e-01,2.891421145000838976e-05,-9.686456364894816375e-04,2.049420523163618477e-03,-6.576496540625849097e-01,1.840460817020125525e-03,3.145501361932053104e-03,-2.734150346160850731e-01
2.000000000000000000e+00,-3.927402102434390252e-01,2.708307112599652178e-01,1.000267589169598487e-01,6.516345843817855643e-02,1.210370649226194806e-01,1.985330437147056070e-05,-1.185566929015069611e-03,2.393808764192279642e-03,-6.918268444312205556e-01,-7.215659278209773497e-04,3.209553428920019266e-03,-2.734120936484277786e-01
2.250000000000000000e+00,-3.844049771800829296e-01,2.858683298627976432e-01,1.000288002657316461e-01,6.816973399607192952e-02,1.196246601787406272e-01,1.339875913219676144e-05,-1.541761741893822851e-03,2.578331305876416756e-03,-7.260040459246845934e-01,-1.344038177093031953e-03,2.710612970556453179e-03,-2.734091267426567162e-01
2.500000000000000000e+00,-3.756687924456198480e-01,3.007344404572531160e-01,1.000301664466914653e-01,7.155182008645542824e-02,1.182830722311139920e-01,8.886439482381197885e-06,-1.832471098870568213e-03,2.723110325101190700e-03,-7.601808333553690122e-01,-3.395520012668603324e-04,2.197617133757461937e-03,-2.734075587737431756e-01
2.750000000000000000e+00,-3.664898723502157951e-01,3.154302479742603360e-01,1.000310665961308410e-01,7.523413359287656199e-02,1.168629025273291572e-01,5.831745213244797609e-06,-1.966661582048766579e-03,2.962759941199827850e-03,-7.943571699931359920e-01,1.508039300606878012e-03,2.128711680148999766e-03,-2.734081521430341555e-01
3.000000000000000000e+00,-3.568328024101280471e-01,3.299285654732920792e-01,1.000316621415774238e-01,7.919562028486672178e-02,1.150839493923912771e-01,3.930966061000952653e-06,-1.961614120946685372e-03,3.393841591511205340e-03,-8.285333156583134517e-01,3.457764395719370790e-03,2.615360394275700797e-03,-2.734106637849424981e-01
3.250000000000000000e+00,-3.466601315226384705e-01,3.441648432007088920e-01,1.000320800566444207e-01,8.348576009698123468e-02,1.126445984466149797e-01,2.910550740708040516e-06,-1.886096561540669299e-03,4.048997061430165134e-03,-8.627095857477832253e-01,5.062203667084824374e-03,3.417041623764539154e-03,-2.734140961926932456e-01
3.500000000000000000e+00,-3.359252593328042602e-01,3.580393816779023353e-01,1.000324095801567031e-01,8.819159952891306165e-02,1.092899951294469263e-01,2.438374531195282031e-06,-1.801022759168276199e-03,4.898445558506362221e-03,-8.968861787156824361e-01,6.158660722036435678e-03,4.113047080836746035e-03,-2.734171920583595705e-01
3.750000000000000000e+00,-3.245714537722527715e-01,3.714252713120450022e-01,1.000326955738380097e-01,9.337853760388932500e-02,1.048392400114849660e-01,2.147625420160978483e-06,-1.728200514488586114e-03,5.867598038303696931e-03,-9.310630649882427612e-01,6.728294611923006305e-03,4.317307883298420780e-03,-2.734188843701094718e-01
4.000000000000000000e+00,-3.125382900233045214e-01,3.841781406191377979e-01,1.000329386044219032e-01,9.903543261027625277e-02,9.919163515157977673e-02,1.708076524134236057e-06,-1.651808968579278033e-03,6.858038137632544579e-03,-9.652399404434732766e-01,6.762237667623804266e-03,3.828195656060104195e-03,-2.734185905023753804e-01
4.250000000000000000e+00,-2.997733817927604183e-01,3.961464302742681576e-01,1.000331044284074600e-01,1.050464644019411808e-01,9.233125154331602025e-02,9.008920804200181121e-07,-1.539362685541860757e-03,7.764711272025293445e-03,-9.994163095102999161e-01,6.213215114177588622e-03,2.671839757690610846e-03,-2.734163336011912748e-01
4.500000000000000000e+00,-2.862454258537240337e-01,4.071825726909560905e-01,1.000331419115913362e-01,1.111970741776854982e-01,8.433659532639506407e-02,-3.239466039011800559e-07,-1.364581294768114992e-03,8.488821557617575939e-03,-1.033591698087858779e+00,5.034530328671451768e-03,1.056650256775021508e-03,-2.734126920859279442e-01
4.750000000000000000e+00,-2.719545829688296834e-01,4.171554260779596901e-01,1.000330058939579714e-01,1.172078754390305649e-01,7.538928381064792517e-02,-1.827944690092093248e-06,-1.120460456895582772e-03,8.949145505650365692e-03,-1.067765882503277641e+00,3.256708336760547485e-03,-7.161395807627926428e-04,-2.734085973215573118e-01
5.000000000000000000e+00,-2.569375233073468712e-01,4.259630968343259272e-01,1.000326791711617092e-01,1.227831476780684161e-01,6.577011029775550743e-02,-3.318118481806749395e-06,-8.199824337952039922e-04,9.093341834564512560e-03,-1.101938997703616696e+00,1.041303582975267603e-03,-2.343902024182570147e-03,-2.734050392312121769e-01
5.250000000000000000e+00,-2.412662581053998945e-01,4.335439724291070274e-01,1.000321863628736846e-01,1.276595401116847051e-01,5.583434885061146907e-02,-4.440408240733617046e-06,-4.885966105743893293e-04,8.907606062028033955e-03,-1.136111473734235267e+00,-1.325354571413021442e-03,-3.590888529349076704e-03,-2.734027680694793294e-01
5.500000000000000000e+00,-2.250415005865080420e-01,4.398833241853871145e-01,1.000315930470259268e-01,1.316437915082109833e-01,4.596722511803578992e-02,-4.914610283136128843e-06,-1.546439928091469763e-04,8.420834903593082607e-03,-1.170283857693414697e+00,-3.498089075592076234e-03,-4.324742446095139470e-03,-2.734020826982829777e-01
5.750000000000000000e+00,-2.083823866390247526e-01,4.450135708818643843e-01,1.000309881845116572e-01,1.346332245996127719e-01,3.652957588979092313e-02,-4.655294228708003450e-06,1.577515606440667360e-04,7.700149517082270981e-03,-1.204456626105576911e+00,-5.167285775367774087e-03,-4.522821494373613013e-03,-2.734027757108850043e-01
6.000000000000000000e+00,-1.914148352708614775e-01,4.490078998760515527e-01,1.000304562493966598e-01,1.366178116520907482e-01,2.780820485896114830e-02,-3.808493444364504090e-06,4.318074934557509592e-04,6.837762011949184530e-03,-1.238630066999171442e+00,-6.140011996546887452e-03,-4.254744586990259758e-03,-2.734042581115067594e-01
6.250000000000000000e+00,-1.742606993199402043e-01,4.519687023888293576e-01,1.000300520640551721e-01,1.376667408615250832e-01,1.998364306981289390e-02,-2.677190495107662866e-06,6.580553957013499967e-04,5.932741945012730451e-03,-1.272804254006550506e+00,-6.377218436499325870e-03,-3.650041251256121513e-03,-2.734058118619807631e-01
6.500000000000000000e+00,-1.570293027561445454e-01,4.540134799808581145e-01,1.000297899050505007e-01,1.379050481653872062e-01,1.312150690140842860e-02,-1.582601760881402714e-06,8.328647721050910172e-04,5.073117647718666280e-03,-1.306979090852485204e+00,-5.980232249236270767e-03,-2.861029879270701997e-03,-2.734068557434490288e-01
6.750000000000000000e+00,-1.398121917883932142e-01,4.552611473174993928e-01,1.000296494841964173e-01,1.374867265781967995e-01,7.185923167647614851e-03,-7.456876360422458242e-07,9.568660562435454212e-04,4.323030383277343298e-03,-1.341154388495287009e+00,-5.142142571704042334e-03,-2.030242463693766788e-03,-2.734071094101572785e-01
7.000000000000000000e+00,-1.226811622736935226e-01,4.558210714963265575e-01,1.000295921057996057e-01,1.365699271722433938e-01,2.067946117016006020e-03,-2.446665288843371632e-07,1.033796292122799712e-03,3.717060974676000395e-03,-1.375329941063414552e+00,-4.089791295201965909e-03,-1.268372042331597461e-03,-2.734066073404353703e-01
7.250000000000000000e+00,-1.056890364842340557e-01,4.557861508017476693e-01,1.000295771451326504e-01,1.352980232243772840e-01,-2.379850986656030076e-03,-4.497886176669109861e-08,1.069646572477607688e-03,3.260996453896220903e-03,-1.409505579305158962e+00,-3.037641155662463600e-03,-6.440774046464635329e-04,-2.734055974216534346e-01
7.500000000000000000e+00,-8.887232636856652601e-02,4.552302063534353072e-01,1.000295722917968894e-01,1.337882356901446690e-01,-6.309907218119996906e-03,-6.016006612795907555e-08,1.071787920086701316e-03,2.936642317871708714e-03,-1.443681194630922482e+00,-2.161472227791686775e-03,-1.832455662826499340e-04,-2.734044013649264970e-01
7.750000000000000000e+00,-7.225482172592873065e-02,4.542092303111011642e-01,1.000295564889814304e-01,1.321278579030121525e-01,-9.851762556601618981e-03,-2.030089063913350364e-07,1.047899255790165230e-03,2.708332442587115755e-03,-1.477856738464679243e+00,-1.586618687317908893e-03,1.259044982320113722e-04,-2.734033017250876441e-01
8.000000000000000000e+00,-5.585120999950785037e-02,4.527656382699353221e-01,1.000295182218177287e-01,1.303770794774911923e-01,-1.309190530026762243e-02,-4.087413018689667070e-07,1.004777046936239501e-03,2.530023495073736080e-03,-1.512032207292101971e+00,-1.379557687704615048e-03,3.242055120062486951e-04,-2.734024802744104421e-01
8.250000000000000000e+00,-3.967000221797525872e-02,4.509344576508695912e-01,1.000294526508973131e-01,1.285767827731210400e-01,-1.606291926595592237e-02,-6.328376958022796941e-07,9.472785832965769119e-04,2.353224076020036734e-03,-1.546207623093165173e+00,-1.534594830815721577e-03,4.695606711792823964e-04,-2.734019993397904802e-01
8.500000000000000000e+00,-2.371527919116617547e-02,4.487501634019677721e-01,1.000293599233285646e-01,1.267591072027036692e-01,-1.874401122682950449e-02,-8.375289587928577140e-07,8.776786629064742967e-04,2.136586460841899144e-03,-1.580383014563598865e+00,-1.956273868904269408e-03,6.205634306685034376e-04,-2.734018072958517842e-01
8.750000000000000000e+00,-7.987093021871132306e-03,4.462525742121739025e-01,1.000292449712218285e-01,1.249578527898451558e-01,-2.107544232590493824e-02,-9.840660784859819876e-07,7.956432150461340697e-04,1.857294286903378010e-03,-1.614558400773714375e+00,-2.448966034697286614e-03,8.157920914410326683e-04,-2.734017583280984875e-01
9.000000000000000000e+00,7.519228179523492622e-03,4.434899620903278161e-01,1.000291171845048704e-01,1.232151166428212125e-01,-2.298815198307699315e-02,-1.042843816429103620e-06,6.989069955496304788e-04,1.522513325777023925e-03,-1.648733778736268363e+00,-2.731817808035299795e-03,1.052538142964319200e-03,-2.734016524689892313e-01
9.250000000000000000e+00,2.281416132799773261e-02,4.405175891588629100e-01,1.000289878128208104e-01,1.215805328216422593e-01,-2.444599313046807651e-02,-1.016330463569382728e-06,5.846183883757861402e-04,1.177031016824394783e-03,-1.682909119714192103e+00,-2.493260425810563206e-03,1.273282817155261789e-03,-2.734013088521682344e-01
9.500000000000000000e+00,3.791436122909017797e-02,4.373905768899768454e-01,1.000288651013581248e-01,1.201008524930748250e-01,-2.549211128482889444e-02,-9.469126096919255326e-07,4.511780333261055970e-04,9.022297709980982077e-04,-1.717084381651437841e+00,-1.483221876564714973e-03,1.370140329623229045e-03,-2.734006681482099577e-01
9.750000000000000000e+00,5.284112938764201628e-02,4.341514483950352221e-01,1.000287511877561708e-01,1.188006559796846578e-01,-2.628547358856142893e-02,-8.794367693979596611e-07,3.002388013466437532e-04,8.028158420039769759e-04,-1.751259539851570013e+00,3.798565662752499748e-04,1.213814313153393967e-03,-2.733998779635550269e-01
1.000000000000000000e+01,6.761614416518973991e-02,4.308146167694961171e-01,1.000286463056777181e-01,1.176591243054331271e-01,-2.711151227904164476e-02,-7.904892205299602016e-07,1.383732507508878386e-04,9.812935019835554700e-04,-1.785434621910120256e+00,2.925598497349146416e-03,7.043810029592973213e-04,-2.733992772736872912e-01
1.025000000000000000e+01,8.225448710804139640e-02,4.273519213812214668e-01,1.000285601026390525e-01,1.165915004308006042e-01,-2.835458332605290607e-02,-5.602059416053247949e-07,-2.218291202841205680e-05,1.504908303540665156e-03,-1.819609715314290721e+00,5.711201078114130567e-03,-1.701173110536175533e-04,-2.733992189369536252e-01
1.050000000000000000e+01,9.675620234953653809e-02,4.236842825927742417e-01,1.000285188770361766e-01,1.154452716048094824e-01,-3.042957080268576114e-02,-7.017696397330137140e-08,-1.642501719068775214e-04,2.373829102821156580e-03,-1.853784918488793343e+00,8.087086619430767370e-03,-1.289353272651141274e-03,-2.733997845587034514e-01
1.075000000000000000e+01,1.110987757631055617e-01,4.196840506213734834e-01,1.000285527343753172e-01,1.140188494326305202e-01,-3.368304488365678195e-02,5.938738506402222826e-07,-2.681644590258880898e-04,3.500982950720803438e-03,-1.887960243772979663e+00,9.344456056713438749e-03,-2.393193938680989764e-03,-2.734005925224710087e-01
1.100000000000000000e+01,1.252335383536524460e-01,4.151904945328138696e-01,1.000286596437332809e-01,1.121045008257221670e-01,-3.828671860689702999e-02,1.011749626630390093e-06,-3.157979852628978374e-04,4.712317278828987398e-03,-1.922135537557015939e+00,8.911059515060619843e-03,-3.124667924894576100e-03,-2.734009294476008600e-01
1.125000000000000000e+01,1.390886887104215985e-01,4.100374999589105340e-01,1.000287700493952270e-01,1.095489009751526438e-01,-4.415305918876930025e-02,5.848354774996580043e-07,-2.954228551398880914e-04,5.771466528909839806e-03,-1.956310507230251128e+00,6.540158146372133940e-03,-3.120821231899614714e-03,-2.734002385360753129e-01
1.150000000000000000e+01,1.525802584652625749e-01,4.040888011677417069e-01,1.000287520567522404e-01,1.063165752500477290e-01,-5.090157978124529303e-02,-1.005248227458538380e-06,-2.062487871841081209e-04,6.426074942237535760e-03,-1.990484889507873945e+00,2.433116287912131127e-03,-2.130471352546157299e-03,-2.733986633008625988e-01
1.175000000000000000e+01,1.656301437056613979e-01,3.972730921468580756e-01,1.000284782852470383e-01,1.025366864107499498e-01,-5.789392131778296063e-02,-3.342018814791673624e-06,-6.128852685604713852e-05,6.466343073372911310e-03,-2.024658675006070663e+00,-2.749175165736843490e-03,-1.240730271410063913e-04,-2.733971609353220145e-01
1.200000000000000000e+01,1.781878685109388183e-01,3.896101586414928430e-01,1.000279243581958105e-01,9.851443019832871462e-02,-6.433863281337737217e-02,-5.273701831290458165e-06,1.125842894161859680e-04,5.781749289410904186e-03,-2.058832212114415583e+00,-8.001019431543457058e-03,2.642779242803027298e-03,-2.733969238212282105e-01
1.225000000000000000e+01,1.902508034857561814e-01,3.812203169697388483e-01,1.000272253116163135e-01,9.469545700639853125e-02,-6.944718278031038194e-02,-5.554440207137749979e-06,2.779218283046159068e-04,4.400813996835443130e-03,-2.093006053732387794e+00,-1.219165978506999044e-02,5.641766749125911792e-03,-2.733984113655168469e-01
1.250000000000000000e+01,2.018768629687929250e-01,3.723128486104143042e-01,1.000266269267791608e-01,9.158393008986479011e-02,-7.260677740041393546e-02,-3.771417761885123975e-06,3.930230346992334982e-04,2.501779648294317950e-03,-2.127180594051334417e+00,-1.433688120593546410e-02,8.169493889061168329e-03,-2.734007560510914869e-01
1.275000000000000000e+01,2.131846893258239339e-01,3.631540188136474501e-01,1.000263418012699579e-01,8.962886354733147487e-02,-7.352798912182448299e-02,-8.327294220196914916e-07,4.201225648452721045e-04,3.886576767277152497e-04,-2.161355742308374683e+00,-1.385093034747299397e-02,9.513384620421056273e-03,-2.734021884688572213e-01
1.300000000000000000e+01,2.243389606371572753e-01,3.540204049857447188e-01,1.000264039271700489e-01,8.910498765054275516e-02,-7.232880503345158474e-02,1.499568125010694745e-06,3.336771635919602878e-04,-1.564286303151280356e-03,-2.195530915758437729e+00,-1.070887714958800724e-02,9.144655752871466356e-03,-2.734013783416617271e-01
1.325000000000000000e+01,2.355221566982982351e-01,3.451472297408646472e-01,1.000266362130976944e-01,9.001956847083927848e-02,-6.953107440927165650e-02,1.820993574204495985e-06,1.268112326133367170e-04,-2.988171494534651914e-03,-2.229705431176295605e+00,-5.472412363699910749e-03,6.884086722782477297e-03,-2.733987494728972178e-01
1.350000000000000000e+01,2.468979135376895562e-01,3.366830580259817518e-01,1.000267713833394301e-01,9.207309342024017074e-02,-6.596675058882831011e-02,1.581300530053926163e-07,-1.856982173427475420e-04,-3.598152741619004349e-03,-2.263879059494820378e+00,8.302240829347613382e-04,2.989953153443244711e-03,-2.733966360775595961e-01
1.375000000000000000e+01,2.585738962837328403e-01,3.286610656077935122e-01,1.000266473764501729e-01,9.468988903400031576e-02,-6.261386293735617115e-02,-1.981011537722104050e-06,-5.687961821164519037e-04,-3.256673831898969276e-03,-2.298052331402337334e+00,6.939323709183557211e-03,-1.862801248187967657e-03,-2.733978989657815384e-01
1.400000000000000000e+01,2.705730493066241249e-01,3.209933840534583416e-01,1.000263305570712746e-01,9.711749759307998497e-02,-6.039964263311410619e-02,-2.710692946806804151e-06,-9.728341791496388120e-04,-2.006302203533855740e-03,-2.332226313313632282e+00,1.165292676228792818e-02,-6.713753680880920477e-03,-2.734038178255814855e-01
1.425000000000000000e+01,2.828207530493503929e-01,3.134897248665881597e-01,1.000260663177373749e-01,9.857560499894538197e-02,-6.001611399043033784e-02,-1.225281893833365867e-06,-1.342548808293959157e-03,-6.418037010356503549e-05,-2.366401945869584189e+00,1.409722670889353331e-02,-1.053017953333118539e-02,-2.734127720664381034e-01
1.450000000000000000e+01,2.951520515507111142e-01,3.058959305099047676e-01,1.000260872730397571e-01,9.842140279164296457e-02,-6.178994841115837550e-02,1.520090414653186937e-06,-1.627536128203909901e-03,2.221041768928697611e-03,-2.400579377473117670e+00,1.391266689551060726e-02,-1.245145755909907517e-02,-2.734207908476155025e-01
1.475000000000000000e+01,3.073384947489349317e-01,2.979436711538105964e-01,1.000264221132951270e-01,9.629233007791160315e-02,-6.563464580187466924e-02,3.464859297791174204e-06,-1.792002577494944881e-03,4.440431609903938877e-03,-2.434757762773066769e+00,1.131325309341795621e-02,-1.200387528257439509e-02,-2.734237463504147758e-01
1.500000000000000000e+01,3.191294030532133563e-01,2.894002640257539172e-01,1.000268517313505912e-01,9.219098989124954735e-02,-7.109284291046387427e-02,2.956765592718901344e-06,-1.821647995245327363e-03,6.208429058232874803e-03,-2.468935684170370681e+00,7.008828572199891568e-03,-9.229350697909281462e-03,-2.734197589466250689e-01
1.525000000000000000e+01,3.302987176745754705e-01,2.801080269849579585e-01,1.000270484152446654e-01,8.649005100908530030e-02,-7.745496187073448724e-02,-2.460099008998019072e-08,-1.726135715610401834e-03,7.240362062447500482e-03,-2.503111920052278450e+00,2.014450678658581684e-03,-4.691029037202838238e-03,-2.734102119419342669e-01
1.550000000000000000e+01,3.406664111990883037e-01,2.700353201281274207e-01,1.000280033201915997e-01,7.893129684735790408e-02,-8.258247357437113745e-02,2.517038135006856300e-05,5.520291299186814299e-03,7.296760622290414736e-03,-2.522347721380961971e+00,-1.229033594909584304e-01,-8.164314901156691229e-02,3.833532274921546551e-02
1.575000000000000000e+01,3.495125486237458112e-01,2.601715965014536058e-01,1.000434892729225311e-01,6.068585513107024876e-02,-7.172883167485981371e-02,2.426610933104322431e-04,2.816319700939949947e-02,5.904785296226889441e-03,-2.503994382063395197e+00,-1.553366282688533051e-01,-9.401057751836471021e-02,2.101895152955467194e-01
1.600000000000000000e+01,3.551325554865494283e-01,2.531233580286684770e-01,1.000785757774713125e-01,2.845787484052736752e-02,-3.916985370321583032e-02,2.291921489410414633e-04,4.471879919666588848e-02,3.257895958182069514e-03,-2.474086621196245783e+00,-7.337092006630310803e-02,-2.744995201765599441e-02,2.558010644675791645e-01
1.625000000000000000e+01,3.562484852541419889e-01,2.509636752077035182e-01,1.000821258305594763e-01,-9.272913645847804739e-03,3.563479263599656464e-03,-1.776264464178689626e-04,4.547513268151454069e-02,3.681209044338189002e-04,-2.441145631493037094e+00,2.755677702485823805e-02,5.045605117960971775e-02,2.681857735221614969e-01
1.650000000000000000e+01,3.529144523704328962e-01,2.539798181233883234e-01,1.000422659423053917e-01,-4.128964871857096486e-02,4.166311044411885600e-02,-3.818035815093670298e-04,3.334548024643287090e-02,-1.603703900861455254e-03,-2.407340385400259297e+00,8.630129112694930049e-02,9.167867994776464358e-02,2.717184959684219581e-01
1.675000000000000000e+01,3.463450420873021574e-01,2.609392242856993782e-01,1.000028004215800376e-01,-6.092250872520918459e-02,6.635949467306162530e-02,-2.163645740488298781e-04,1.709872136563266032e-02,-2.117743376743037430e-03,-2.373259480911483976e+00,8.984007846119908269e-02,8.485896159533136418e-02,2.728285573828665433e-01
1.700000000000000000e+01,3.381427553818801557e-01,2.700540407941142140e-01,9.999057966570801259e-02,-6.836008030595408513e-02,7.709807166100565712e-02,-4.310175466856540452e-06,4.541223690217756695e-03,-1.400291218264139523e-03,-2.339102349080575127e+00,5.826215150011438554e-02,4.728463522100744693e-02,2.732339312559820543e-01
1.725000000000000000e+01,3.295413810490693263e-01,2.798546964216894750e-01,9.999601334963330312e-02,-6.857577744838261324e-02,7.863650157085659564e-02,6.641855669546325991e-05,-1.010602846330246104e-03,-6.687104447658661580e-05,-2.304931506985150147e+00,2.054264608478278964e-02,5.572729889812924955e-03,2.733880488260703179e-01
1.750000000000000000e+01,3.210491098492442297e-01,2.895706680340958683e-01,1.000040046041581754e-01,-6.755160598799771210e-02,7.669824334810551592e-02,5.724751847921925716e-05,-6.317307810157844327e-04,1.350073132943518852e-03,-2.270753529240463919e+00,-3.323154251055985501e-03,-2.086896099466378079e-02,2.734350349058781160e-01
1.775000000000000000e+01,3.125313806076736034e-01,2.990333048065413890e-01,1.000102709839372495e-01,-6.931363892239893187e-02,7.493977200776388847e-02,4.486174867720326391e-05,2.413790839332259370e-03,2.644901540360832318e-03,-2.236567130631515354e+00,-8.294712611805980101e-03,-2.665215432587415834e-02,2.734449343654206110e-01
1.800000000000000000e+01,3.035414447722780129e-01,3.083440467989966849e-01,1.000152959959455523e-01,-7.492905783663254826e-02,7.416327925070638483e-02,3.524839280305651888e-05,5.063421880839362628e-03,3.883345489526374584e-03,-2.202377846002395945e+00,-5.402840725607243894e-04,-1.774163690926361739e-02,2.734472663063760578e-01
1.825000000000000000e+01,2.936577584684949005e-01,3.175646048356250972e-01,1.000188309659732627e-01,-8.321461570150304188e-02,7.323051080778902877e-02,2.143792289947313686e-05,5.796514723823249608e-03,5.185881780820885203e-03,-2.168193786261103373e+00,1.010473873923928290e-02,-4.286290783375255181e-03,2.734480909442808527e-01
1.850000000000000000e+01,2.826745726733592701e-01,3.265701135869897298e-01,1.000207360331418355e-01,-9.217102409442315403e-02,7.054750991485847500e-02,1.059103243134364245e-05,4.701531052465795710e-03,6.541312925638554168e-03,-2.134019313516093419e+00,1.627361155829638167e-02,5.780085770170905260e-03,2.734489114242114605e-01
1.875000000000000000e+01,2.706201369523587030e-01,3.350715577184685823e-01,1.000217578835460586e-01,-1.001886208766606806e-01,6.518748681764803543e-02,6.798437671477928980e-06,2.752895042022120587e-03,7.762587268179034147e-03,-2.099852098994312133e+00,1.551414866766244113e-02,9.553874738395133626e-03,2.734506918513727181e-01
1.900000000000000000e+01,2.576673942359530289e-01,3.427316632034584920e-01,1.000225137444370055e-01,-1.065550332521417592e-01,5.727285715231041074e-02,5.218784126351634850e-06,9.655905242795108671e-04,8.577972954541653733e-03,-2.065685344431070547e+00,9.464809049323882895e-03,8.421323863138003435e-03,2.734511581076597975e-01
1.925000000000000000e+01,2.440253898963434809e-01,3.492853399818606208e-01,1.000229710859342758e-01,-1.113201259195609194e-01,4.773494975796815920e-02,1.900437213639254327e-06,-1.165610446369042913e-04,8.773306706274889080e-03,-2.031513594635998565e+00,1.526976995183040777e-03,5.532455060163213312e-03,2.734470836820591666e-01
1.950000000000000000e+01,2.298708948003416741e-01,3.546086309090913380e-01,1.000229505289608051e-01,-1.148629109449198493e-01,3.780194270002899815e-02,-1.946565217093172413e-06,-4.901453202123920742e-04,8.294635922438271455e-03,-1.997336449337082875e+00,-5.268680932026912657e-03,3.446509276157312240e-03,2.734387751851417581e-01
1.975000000000000000e+01,2.153338479072615386e-01,3.587243668444487499e-01,1.000225566232737229e-01,-1.175084125437800137e-01,2.853887569383917883e-02,-3.858565414260715790e-06,-4.685159923720028465e-04,7.265535890413598805e-03,-1.963157027457156589e+00,-9.333136570202904547e-03,3.047738849801500359e-03,2.734301702414215773e-01
2.000000000000000000e+01,2.005167943294921262e-01,3.617634877533018045e-01,1.000220858269996321e-01,-1.193713843822309106e-01,2.060334572937484385e-02,-3.359398997634530208e-06,-3.954440296872264765e-04,5.928972007666903805e-03,-1.928978142190977296e+00,-1.052385918138297460e-02,3.766778168262228943e-03,2.734250331185503202e-01
2.025000000000000000e+01,1.855192001179200578e-01,3.639105012354785229e-01,1.000217746020032605e-01,-1.204128090934709350e-01,1.421902599090832039e-02,-1.587809064373193103e-06,-4.623442130907619990e-04,4.556968878492054058e-03,-1.894800443617666641e+00,-9.564880773538725692e-03,4.479281924056573334e-03,2.734240344614723983e-01
2.050000000000000000e+01,1.704473533980977451e-01,3.653551819188534666e-01,1.000216941710807966e-01,-1.205876757454127229e-01,9.280382665329408101e-03,1.573337163600816203e-07,-6.767054138967650533e-04,3.372704148624640613e-03,-1.860623210065210698e+00,-7.407906783008641124e-03,4.359566205296912765e-03,2.734251400087807093e-01
2.075000000000000000e+01,1.554068797996772389e-01,3.662604978873656991e-01,1.000217879617515959e-01,-1.199599524373812787e-01,5.492797997010759325e-03,1.164659279578582404e-06,-9.358211433072160124e-04,2.509403733062570609e-03,-1.826445761341332519e+00,-4.839947715768337655e-03,3.266868536669713038e-03,2.734258995173101114e-01
2.100000000000000000e+01,1.404867124779022036e-01,3.667469129579474796e-01,1.000219539458579304e-01,-1.187238389976375819e-01,2.489399514969024233e-03,1.371558185592867544e-06,-1.126773041033766413e-03,2.006380801118320002e-03,-1.792267985128013885e+00,-2.380725591638684427e-03,1.635727715109637319e-03,2.734251687214854232e-01
2.125000000000000000e+01,1.257461478374588826e-01,3.668887880930335466e-01,1.000221107464273618e-01,-1.171424663860279186e-01,-9.057127835845620956e-05,1.099834676234361990e-06,-1.192494356208305580e-03,1.827971589267037358e-03,-1.758090081608387312e+00,-3.519963073016526395e-04,1.003029310782216186e-04,2.734232469954065436e-01
2.150000000000000000e+01,1.112121288241992162e-01,3.667186025498477830e-01,1.000222225429979461e-01,-1.154564885575889432e-01,-2.551478274314147605e-03,7.016097942860744073e-07,-1.144395718075246274e-03,1.889412867807228240e-03,-1.723912230337642848e+00,1.026965475116320761e-03,-8.692107113401836230e-04,2.734210504230366046e-01
2.175000000000000000e+01,9.688690675348468617e-02,3.662364322902716407e-01,1.000222863275957025e-01,-1.138158667784260475e-01,-5.105257296122431461e-03,3.392134081305111599e-07,-1.035894567538689099e-03,2.080251464209874508e-03,-1.689734501812354184e+00,1.603011658065543786e-03,-1.144711395451415183e-03,2.734193429393832475e-01
2.200000000000000000e+01,8.276107468301127645e-02,3.654233208326136406e-01,1.000223067513108383e-01,-1.122622884599632914e-01,-7.845039089451505063e-03,-3.310441642381174080e-09,-9.245487599546219895e-04,2.283464172994151796e-03,-1.655556906375501569e+00,1.317159812848213690e-03,-9.087951362998597472e-04,2.734184735952802092e-01
2.225000000000000000e+01,6.882558542588357309e-02,3.642570758248811491e-01,1.000222824580397213e-01,-1.107586920470624708e-01,-1.073356129190570184e-02,-3.799558345425421764e-07,-8.451474936929221325e-04,2.392205598527520627e-03,-1.621379420079795963e+00,2.515180971101441988e-04,-4.956848521980649703e-04,2.734184607263002720e-01
2.250000000000000000e+01,5.507825546943549005e-02,3.627281269465628677e-01,1.000222094214387736e-01,-1.092425117979922283e-01,-1.361405597058315022e-02,-7.712479273632812328e-07,-8.021831792863809213e-04,2.325264520208028193e-03,-1.587201972926886917e+00,-1.356467774795676491e-03,-2.158544301539686212e-04,2.734191266249431651e-01
2.275000000000000000e+01,4.152356610715064733e-02,3.608523999303118179e-01,1.000220918650634172e-01,-1.076757930516294287e-01,-1.624593934772347245e-02,-1.074153938442984478e-06,-7.777758131891819799e-04,2.039432975571344505e-03,-1.553024463091929430e+00,-3.156535177313227278e-03,-2.442756556417864286e-04,2.734201659813793595e-01
2.300000000000000000e+01,2.816744111066861456e-02,3.586784425362614659e-01,1.000219486444291206e-01,-1.060742751797695560e-01,-1.835865963034972320e-02,-1.173523537068974536e-06,-7.456077376849844056e-04,1.535215994322077296e-03,-1.518846816634135566e+00,-4.773235597190946672e-03,-5.969744669610994609e-04,2.734211926097034340e-01
2.325000000000000000e+01,1.501005983312584356e-02,3.562873687224443753e-01,1.000218088861493659e-01,-1.045108878197475305e-01,-1.971000944182867837e-02,-1.029701536666493727e-06,-6.825712080371664674e-04,8.532378410596631749e-04,-1.484669047233093231e+00,-5.902695846655901107e-03,-1.174982376228157982e-03,2.734218225898228938e-01
2.350000000000000000e+01,2.039587901519040233e-03,3.537860589085480845e-01,1.000216993713153174e-01,-1.030998400064151305e-01,-2.013378063230158999e-02,-7.158740714674536224e-07,-5.743372372548297827e-04,6.195134479663937728e-05,-1.450491267104047077e+00,-6.378600503467027512e-03,-1.834511709278147541e-03,2.734217869536598178e-01
2.375000000000000000e+01,-1.077143501486449093e-02,3.512956957209977249e-01,1.000216321801474101e-01,-1.019721630148971575e-01,-1.956635607563322193e-02,-3.799881725405995511e-07,-4.153880720055479420e-04,-7.591032863969485959e-04,-1.416313645098363994e+00,-6.183130892571944530e-03,-2.445884594806874927e-03,2.734210204329295402e-01
2.400000000000000000e+01,-2.346664305608110387e-02,3.489384897221384785e-01,1.000216003697200068e-01,-1.012523826383925907e-01,-1.805027886009981722e-02,-1.652789952816856661e-07,-2.062549412787373078e-04,-1.534293488867738767e-03,-1.382136343915404852e+00,-5.403021401962319371e-03,-2.920737040873649156e-03,2.734196808979418858e-01
2.425000000000000000e+01,-3.610384867130571329e-02,3.468251309565218987e-01,1.000215828992982586e-01,-1.010413178793624911e-01,-1.572126179846396882e-02,-1.504702645284492989e-07,4.933026395005644292e-05,-2.199638133706189203e-03,-1.347959467978518067e+00,-4.152714502791365024e-03,-3.205728010148001066e-03,2.734181020610536583e-01
2.450000000000000000e+01,-4.875129947133049341e-02,3.450443200108873620e-01,1.000215536836635416e-01,-1.014046915997510040e-01,-1.279014042513462041e-02,-3.429023495130723980e-07,3.459077636816521571e-04,-2.700914832893890581e-03,-1.313783031496221776e+00,-2.499776506533344343e-03,-3.254732351856643845e-03,2.734167315184791724e-01
2.475000000000000000e+01,-6.148268069168279226e-02,3.436542550336071922e-01,1.000214888818706932e-01,-1.023635629004027020e-01,-9.530951259561579875e-03,-7.056661828172320112e-07,6.762389770656635239e-04,-2.984195948508891905e-03,-1.279606937481113427e+00,-4.285583564947963013e-04,-2.998635887797430118e-03,2.734161141190737387e-01
2.500000000000000000e+01,-7.437077636381193846e-02,3.426748744757786569e-01,1.000213711964012542e-01,-1.038818587540195765e-01,-6.280579730453957413e-03,-1.170669042185670263e-06,1.030318750611090546e-03,-2.984952692659861243e-03,-1.245430955906290160e+00,2.135359350802524918e-03,-2.332558437553515756e-03,2.734169253440240088e-01
2.525000000000000000e+01,-8.747924138300769425e-02,3.420795429962639744e-01,1.000211954507825018e-01,-1.058487738822528751e-01,-3.446354699548541487e-03,-1.604635385441052374e-06,1.394158240778575189e-03,-2.623757135853009397e-03,-1.211254703881624373e+00,5.241966913431701618e-03,-1.134744726137097096e-03,2.734199670594931741e-01
2.550000000000000000e+01,-1.008519584811859299e-01,3.417859070794845855e-01,1.000209807858767619e-01,-1.080587399953492345e-01,-1.509294686269364036e-03,-1.746826316811156770e-06,1.748868362376141241e-03,-1.815221293531908957e-03,-1.177077656329550415e+00,8.804136875223604261e-03,6.800520348201556566e-04,2.734259800053257528e-01
2.575000000000000000e+01,-1.145001574491196494e-01,3.416475195129734521e-01,1.000207881937488080e-01,-1.101972442306161648e-01,-1.006525785780979215e-03,-1.202752224071548728e-06,2.070419228188557451e-03,-4.922037882819243039e-04,-1.142899236053139367e+00,1.250398473113012617e-02,3.085114222578047051e-03,2.734351827938097945e-01
2.600000000000000000e+01,-1.283887838442117069e-01,3.414497720279499049e-01,1.000207289010677375e-01,-1.118445293542686125e-01,-2.479536622688408281e-03,3.921242485266338387e-07,2.330432710486145947e-03,1.359156350349402086e-03,-1.108719021594777088e+00,1.576897360662194228e-02,5.871224144498614003e-03,2.734466477753405567e-01
2.625000000000000000e+01,-1.424251312595756769e-01,3.409147202894226569e-01,1.000209386418996066e-01,-1.125087209830480384e-01,-6.385644996261730447e-03,3.006533424911809841e-06,2.498376297859019636e-03,3.664159450462997798e-03,-1.074537048222749869e+00,1.785036546395038504e-02,8.615949226003285014e-03,2.734578966695013769e-01
2.650000000000000000e+01,-1.564538610907241223e-01,3.397187431942026437e-01,1.000215018019649654e-01,-1.116938533276714274e-01,-1.298544528278792153e-02,5.830064603204035748e-06,2.545378336543727398e-03,6.237891927343034576e-03,-1.040354072375628824e+00,1.800039507142047607e-02,1.072225833659690326e-02,2.734652370246783426e-01
2.675000000000000000e+01,-1.702625512640610350e-01,3.375243998632848630e-01,1.000223473722030437e-01,-1.089973567298739010e-01,-2.223356004509876097e-02,7.264567839377916233e-06,2.449474897027955483e-03,8.789534321984565635e-03,-1.006171588633487657e+00,1.570264313885957191e-02,1.153539348582348356e-02,2.734651166841310377e-01
2.700000000000000000e+01,-1.836004179304240314e-01,3.340238486885550029e-01,1.000231869409379248e-01,-1.042189950498034062e-01,-3.370746630402582378e-02,5.605143133310967393e-06,2.201497800520330322e-03,1.095832394890679934e-02,-9.719914301241387999e-01,1.088036863586387681e-02,1.051677335595104651e-02,2.734561024485245295e-01
2.725000000000000000e+01,-1.962099303882798573e-01,3.289869745618844155e-01,1.000235763523822929e-01,-9.745372405573601848e-02,-4.660518064527254672e-02,2.363074807408236652e-07,1.810244981002450630e-03,1.237693942967564402e-02,-9.378149982203555224e-01,4.004648465906403276e-03,7.425797967984398840e-03,2.734403622288505420e-01
2.750000000000000000e+01,-2.078673735107138265e-01,3.223044270852857274e-01,1.000231202200615038e-01,-8.913893335037764709e-02,-5.982692813121772563e-02,-7.432191355944491552e-06,1.305310924589703908e-03,1.274834715116119135e-02,-9.036424651099927985e-01,-3.946922257675530496e-03,2.448512806813817923e-03,2.734234069567553216e-01
2.775000000000000000e+01,-2.184251102452852145e-01,3.140153214325369646e-01,1.000217261050078549e-01,-8.003411990094583262e-02,-7.213301636963169450e-02,-1.418309136826553109e-05,7.362001921962971858e-04,1.191638151168937856e-02,-8.694724515964648015e-01,-1.168034228012864578e-02,-3.776977842212284660e-03,2.734117238293747865e-01
2.800000000000000000e+01,-2.278465061524678203e-01,3.043118347347087971e-01,1.000197399416262178e-01,-7.112684189350197694e-02,-8.234746726928060534e-02,-1.657339781010597473e-05,1.671445587787744557e-04,9.910758810847243930e-03,-8.353025084976786196e-01,-1.787262265920304058e-02,-1.025776819759158416e-02,2.734093959460150436e-01
2.825000000000000000e+01,-2.362249622929408488e-01,2.935178051133391919e-01,1.000178374977432200e-01,-6.347833105227329575e-02,-8.956222363739835268e-02,-1.302027063076671057e-05,-3.317954965000899197e-04,6.953822639007413951e-03,-8.011302587303815725e-01,-2.147236198344795732e-02,-1.584572526099213910e-02,2.734157659703456145e-01
2.850000000000000000e+01,-2.437813362975391474e-01,2.820443439282874776e-01,1.000167001035531661e-01,-5.803922011757310651e-02,-9.329509178219608234e-02,-4.969937679638474421e-06,-6.956543252468130748e-04,3.426781384202523366e-03,-7.669545918552956865e-01,-2.192792628633762411e-02,-1.948600671907143450e-02,2.734257687879022569e-01
2.875000000000000000e+01,-2.508385268948648550e-01,2.703306866872262071e-01,1.000166584988460977e-01,-5.547488031646209683e-02,-9.356642445354243498e-02,3.756314936886591407e-06,-8.751986285704478532e-04,-1.962485573615483487e-04,-7.327762002389607288e-01,-1.928636099970566092e-02,-2.044800972078358522e-02,2.734328904191870580e-01
2.900000000000000000e+01,-2.577769404113198215e-01,2.587815958815511963e-01,1.000175242516196245e-01,-5.603823038791613115e-02,-9.088037671828633202e-02,9.095439380731439529e-06,-8.450367663527546570e-04,-3.430795239089590078e-03,-6.985971171288078985e-01,-1.414921200643048070e-02,-1.848103250734400502e-02,2.734329773596460567e-01
2.925000000000000000e+01,-2.649786511338263484e-01,2.477129111279038898e-01,1.000187119849085260e-01,-5.951669188652631420e-02,-8.611936560108014727e-02,8.993802220005851496e-06,-6.076114929495839102e-04,-5.863103141799714917e-03,-6.644195226652371833e-01,-7.511179542321274466e-03,-1.386093564029419918e-02,2.734265645998200100e-01
2.950000000000000000e+01,-2.727703428334699587e-01,2.373145059135307045e-01,1.000195715274790897e-01,-6.526302331046271443e-02,-8.037870371918626189e-02,4.379857259894600043e-06,-1.924567714253833453e-04,-7.213798271502397386e-03,-6.302445173974159376e-01,-5.333169319199420819e-04,-7.324350877775421230e-03,2.734183722494626378e-01
2.975000000000000000e+01,-2.813751644879627922e-01,2.276358021491888262e-01,1.000197261670100757e-01,-7.230185760272700435e-02,-7.477825314782696187e-02,-1.632656543174732590e-06,3.489060869128132736e-04,-7.373674056950696096e-03,-5.960715511973557756e-01,5.690086163596491838e-03,8.596452844988314215e-05,2.734144092118851455e-01
3.000000000000000000e+01,-2.908816142344727851e-01,2.185942672068446890e-01,1.000192272074000577e-01,-7.948912600029982289e-02,-7.028835606538369474e-02,-5.668267261799772046e-06,9.512745401060026737e-04,-6.407969462643523656e-03,-5.618987770525336600e-01,1.032077669255445328e-02,7.223929336531395226e-03,2.734185035388040919e-01
3.025000000000000000e+01,-3.012340842537638008e-01,2.100030750021769921e-01,1.000184619015993537e-01,-8.569290729674569618e-02,-6.759984782088006294e-02,-5.906377738743576587e-06,1.545680251828609629e-03,-4.531938133181498060e-03,-5.277240647192098510e-01,1.289074046115157302e-02,1.304572448926674330e-02,2.734302387127308109e-01
3.050000000000000000e+01,-3.122455895484820831e-01,2.016111446221477976e-01,1.000178985940088222e-01,-8.996263420040437331e-02,-6.705573166473781377e-02,-2.797280974014236193e-06,2.069226400014018401e-03,-2.065236599596896247e-03,-4.935460824206092667e-01,1.333148804426408963e-02,1.677925716267501116e-02,2.734452751013286553e-01
3.075000000000000000e+01,-3.236293260100515101e-01,1.931474584434024477e-01,1.000178295177474863e-01,-9.165847968422544123e-02,-6.864838308000315026e-02,1.535812889617749424e-06,2.473308269872392679e-03,6.248997860398806947e-04,-4.593648910274157338e-01,1.192699489364342988e-02,1.803202481956638070e-02,2.734576244883238361e-01
3.100000000000000000e+01,-3.350427593504519130e-01,1.843619042596509883e-01,1.000182463590148091e-01,-9.052224349088985877e-02,-7.207376966463363566e-02,4.663693749807569690e-06,2.729025988156796780e-03,3.181505540288847352e-03,-4.251818208046478920e-01,9.211547695613048550e-03,1.682674364250728166e-02,2.734624827035093131e-01
3.125000000000000000e+01,-3.461363509679054040e-01,1.750565715537446831e-01,1.000188897779357849e-01,-8.668264695884850268e-02,-7.682522909630411234e-02,5.131872267995122502e-06,2.829141754251872625e-03,5.307999903281759163e-03,-3.909987946065262010e-01,5.839851109706817485e-03,1.356683507804000606e-02,2.734581611553916214e-01
3.150000000000000000e+01,-3.565988892870093352e-01,1.651039469602366416e-01,1.000194162024572037e-01,-8.059936366874828617e-02,-8.230496072295535870e-02,3.011583512963012940e-06,2.786587910469231349e-03,6.804159747928328374e-03,-3.568175031813475839e-01,2.456526693902366665e-03,8.943216673774017841e-03,2.734463562572636008e-01
3.175000000000000000e+01,-3.661925830641297175e-01,1.544512180988837913e-01,1.000195760694564812e-01,-7.295974483382818010e-02,-8.793154954819924762e-02,-4.172190780816500225e-07,2.630131056743685667e-03,7.584205045253539744e-03,-3.226388309497524309e-01,-4.126237939257551991e-04,3.800353039563751385e-03,2.734309390122726668e-01
3.200000000000000000e+01,-3.747732892827783102e-01,1.431123873133858526e-01,1.000193127870344506e-01,-6.454896580164777575e-02,-9.322572037593154781e-02,-3.516578940412310837e-06,2.398204134422981561e-03,7.675944854745182268e-03,-2.884627288800463152e-01,-2.432190022410209845e-03,-1.015719232951027605e-03,2.734161068962643326e-01
3.225000000000000000e+01,-3.822940834479233718e-01,1.311517293282330465e-01,1.000187501708611343e-01,-5.611747637370346348e-02,-9.786289907706724467e-02,-5.135274553439454355e-06,2.132087194842122429e-03,7.202571332557056172e-03,-2.542884790160362396e-01,-3.483977562896798264e-03,-4.801899031283606012e-03,2.734048502522367641e-01
3.250000000000000000e+01,-3.887933512624376919e-01,1.186630721829881330e-01,1.000180991500484728e-01,-4.826875614657065439e-02,-1.016887098359026131e-01,-5.022448082005761633e-06,1.869574433145445658e-03,6.351126557876321868e-03,-2.201151306367798710e-01,-3.649620956755909428e-03,-7.110210383279341045e-03,2.733983109889217555e-01
3.275000000000000000e+01,-3.943711817940665498e-01,1.057493791865083826e-01,1.000175483837420776e-01,-4.138553214042933054e-02,-1.047009221111723926e-01,-3.700383776638953148e-06,1.640059562914815590e-03,5.333614113889217911e-03,-1.859418724981553028e-01,-3.157190061714038216e-03,-7.807513122779241067e-03,2.733960463782514339e-01
3.300000000000000000e+01,-3.991596166585094085e-01,9.250626493490106406e-02,1.000171959540334249e-01,-3.560451291586718553e-02,-1.070073158855921330e-01,-1.997580811898334452e-06,1.461650388591854977e-03,4.347866486688517322e-03,-1.517682092713567577e-01,-2.306249924004165081e-03,-7.071279047888159343e-03,2.733967853778945245e-01
3.325000000000000000e+01,-4.032929311728005728e-01,7.901163999904049773e-02,1.000170430858654536e-01,-3.083969285176886219e-02,-1.087724161078916091e-01,-5.782145437956704076e-07,1.340534808772292190e-03,3.545287026593998969e-03,-1.175939475992333755e-01,-1.389558083115913396e-03,-5.322470737281233613e-03,2.733991659614644631e-01
3.350000000000000000e+01,-4.068834769732406209e-01,6.532200118616177109e-02,1.000170323605860806e-01,-2.684436665520493689e-02,-1.101664415455570756e-01,2.820648697207005833e-07,1.272423709970973678e-03,3.011169463395132334e-03,-8.341908569183040245e-02,-6.295298480686222550e-04,-3.111390846586616684e-03,2.734021378406409908e-01
3.375000000000000000e+01,-4.100068615923118664e-01,5.147435846997820696e-02,1.000170948904917784e-01,-2.329448411634869875e-02,-1.113271624389819275e-01,6.368555282468094432e-07,1.245554742458890220e-03,2.760527266084104436e-03,-4.924370666381371053e-02,-1.429038782236122381e-04,-9.844062289788724912e-04,2.734050154121567822e-01
3.400000000000000000e+01,-4.126978104419529170e-01,3.749175120593704197e-02,1.000171789722273247e-01,-1.987276175945337439e-02,-1.123404854138958520e-01,6.683288726747461687e-07,1.244508867139140296e-03,2.748864567379204985e-03,-1.506792371550652945e-02,6.128881657869830908e-05,6.360247071290525862e-04,2.734073645276083875e-01
3.425000000000000000e+01,-4.149555499353740351e-01,2.338994620387879753e-02,1.000172545216822528e-01,-1.633478809149170249e-02,-1.132398960566742968e-01,5.238273397531661672e-07,1.254005859581438674e-03,2.894053441369301947e-03,1.910813288850280595e-02,5.471897314043249448e-05,1.530482836634875637e-03,2.734089137411578885e-01
3.450000000000000000e+01,-4.167555655473139109e-01,9.183227743069288795e-03,1.000173047975855545e-01,-1.254452380478626033e-02,-1.140199588711803824e-01,2.749383132929404889e-07,1.261921864995615332e-03,3.103267086777349026e-03,5.328432156319191232e-02,-5.452858933034152966e-05,1.704506638208287597e-03,2.734095562157607406e-01
3.475000000000000000e+01,-4.180635654918906097e-01,-5.111996154130064342e-03,1.000173194511178171e-01,-8.475397144349094275e-03,-1.146561537816736392e-01,-3.642083368109486712e-08,1.261001970078061158e-03,3.298117912185949321e-03,8.746050923915314745e-02,-1.679237121505662176e-04,1.350791482652210574e-03,2.734093853273800723e-01
3.500000000000000000e+01,-4.188476106390325304e-01,-1.947603568911042762e-02,1.000172942043393576e-01,-4.182450792033685916e-03,-1.151230560739304049e-01,-3.515823429468567341e-07,1.249080804013691414e-03,3.431842006146657020e-03,1.216366001171444167e-01,-2.290589280290883920e-04,7.633770215687949064e-04,2.734086772327733450e-01
3.525000000000000000e+01,-4.190855656926206207e-01,-3.388659854154035117e-02,1.000172332404322406e-01,2.415246781793632398e-04,-1.154051476358400885e-01,-5.991404922928195429e-07,1.228001035406167630e-03,3.494434764777728381e-03,1.558125544126669482e-01,-2.325234367141134901e-04,2.274751013302566988e-04,2.734077907430089160e-01
3.550000000000000000e+01,-4.187669359808474101e-01,-4.832022959530802436e-02,1.000171484083045709e-01,4.709118173032424311e-03,-1.154985741381540643e-01,-7.338867697761834536e-07,1.201743899287811878e-03,3.504749265103059442e-03,1.899883845919371206e-01,-2.069580434293172776e-04,-8.357473499874987460e-05,2.734070267626678707e-01
3.575000000000000000e+01,-4.178902341791709274e-01,-6.275351254884520280e-02,1.000170538064050485e-01,9.164991928767405802e-03,-1.154065666395869827e-01,-7.652045267274352863e-07,1.174471450908341113e-03,3.492278774554420737e-03,2.241641318976514141e-01,-1.800692573524231041e-04,-1.709626131431980322e-04,2.734065159928242839e-01
3.600000000000000000e+01,-4.164586351262936081e-01,-7.716359867845809517e-02,1.000169589862022201e-01,1.358660895966214838e-02,-1.151343782579437036e-01,-7.512200400229328469e-07,1.149167708298489939e-03,3.474909030024279488e-03,2.583398357993756389e-01,-1.422435199383457278e-04,-2.066250656015038785e-04,2.734061811024937061e-01
3.625000000000000000e+01,-4.144772460696529159e-01,-9.152841870210438879e-02,1.000168646661938332e-01,1.795955748437507576e-02,-1.146899751587233673e-01,-7.684132915667916302e-07,1.127340999571979120e-03,3.441277414996954734e-03,2.925155094034495584e-01,-2.947520755839555504e-05,-4.547654238926819017e-04,2.734057838157261111e-01
3.650000000000000000e+01,-4.119545152846652569e-01,-1.058275524869317086e-01,1.000167629496184624e-01,2.223927792970050929e-02,-1.140936846592909698e-01,-8.716977492063287994e-07,1.109856782555015573e-03,3.346215406384543678e-03,3.266911297922054924e-01,2.583817704652888094e-04,-1.137969839594165635e-03,2.734050416342828638e-01
3.675000000000000000e+01,-4.089082406995159236e-01,-1.200447803876021208e-01,1.000166428896965970e-01,2.631920635518817525e-02,-1.133942752770774887e-01,-1.049901293386616148e-06,1.098513627959661447e-03,3.124122018816361240e-03,3.608666469626430340e-01,8.027419093738527404e-04,-2.295799771466339873e-03,2.734037755088049026e-01
3.700000000000000000e+01,-4.053739851088622448e-01,-1.341726188971439360e-01,1.000165009571553770e-01,3.002628740135722743e-02,-1.126828611119264772e-01,-1.198056491239589674e-06,1.097601865679384428e-03,2.718454371876215508e-03,3.950420067507989241e-01,1.593581691397966604e-03,-3.698085365140163592e-03,2.734020262108032284e-01
3.725000000000000000e+01,-4.014115313370018034e-01,-1.482178138325214445e-01,1.000163510219849866e-01,3.315642523629525745e-02,-1.120928153164822000e-01,-1.160029627412672879e-06,1.114545483564001547e-03,2.118057920574061437e-03,4.292171745420018114e-01,2.473444242375117362e-03,-4.863205090516456962e-03,2.734000860075878059e-01
3.750000000000000000e+01,-3.971044082157711430e-01,-1.622053697448797849e-01,1.000162227752716682e-01,3.554661611321787568e-02,-1.117761518760251038e-01,-8.628390000538690071e-07,1.158923603579957570e-03,1.386069793977014967e-03,4.633921497251073385e-01,3.134233033416871424e-03,-5.193578228925230245e-03,2.733984573062412382e-01
3.775000000000000000e+01,-3.925490765636580059e-01,-1.761779749829392727e-01,1.000161422629695651e-01,3.716300884173049518e-02,-1.118549949255023129e-01,-4.406728299942138486e-07,1.239692834553359066e-03,6.673408047779185587e-04,4.975669807468308115e-01,3.186082027050899084e-03,-4.190795094971351727e-03,2.733978117657393514e-01
3.800000000000000000e+01,-3.878338104964327848e-01,-1.901882407901642480e-01,1.000161076108127545e-01,3.817245743312380063e-02,-1.123582867415100217e-01,-1.678341752077636481e-07,1.361146132495806354e-03,1.664770905835482836e-04,5.317418043757353718e-01,2.287552988185957963e-03,-1.673493082790652228e-03,2.733989725101378943e-01
3.825000000000000000e+01,-3.830115033799887936e-01,-2.042831417120146431e-01,1.000160891197094809e-01,3.896511632093316996e-02,-1.131640862261306529e-01,-1.612882315996894788e-07,1.518801960831652051e-03,9.876215090225420759e-05,5.659169046129076674e-01,2.962867446773854996e-04,2.088047020897973883e-03,2.734027833935653296e-01
3.850000000000000000e+01,-3.780739703552242759e-01,-2.184829306996484699e-01,1.000160686221629458e-01,4.010859435488922653e-02,-1.139717846621905312e-01,-1.138235839772691169e-07,1.696751435685553639e-03,6.265928840678250573e-04,6.000927214023792367e-01,-2.617305662124251153e-03,6.380985612019481577e-03,2.734096701235020355e-01
3.875000000000000000e+01,-3.729363936531013834e-01,-2.327596110724690082e-01,1.000160889039007628e-01,4.223616296860303876e-02,-1.143234410412625468e-01,5.640985724986139219e-07,1.867815921561511230e-03,1.800706506556009603e-03,6.342697095742848568e-01,-5.945191049731705576e-03,1.021265898938507680e-02,2.734189492297876556e-01
3.900000000000000000e+01,-3.674387095403227610e-01,-2.470216404570585444e-01,1.000162531311169639e-01,4.589478610859615976e-02,-1.136798075448669371e-01,2.139338001261319080e-06,1.997167248953152577e-03,3.525789992411769609e-03,6.684480331665200170e-01,-8.930588743658755824e-03,1.258151079402906186e-02,2.734283833453323154e-01
3.925000000000000000e+01,-3.613663618673413347e-01,-2.611110882987243698e-01,1.000166430073171769e-01,5.139483733242544011e-02,-1.115385671957340868e-01,3.975994095433857894e-06,2.049016137953886454e-03,5.563754272121050268e-03,7.026272549921313004e-01,-1.075613947660570766e-02,1.277103385246015563e-02,2.734346388932190619e-01
3.950000000000000000e+01,-3.544872721683863248e-01,-2.748168057836516964e-01,1.000172035570538326e-01,5.870626604562167311e-02,-1.075660451896702646e-01,4.646710571566589057e-06,1.994911873412181375e-03,7.576958232734395081e-03,7.368062919829376778e-01,-1.077924014297471610e-02,1.057139623266905443e-02,2.734347990753345781e-01
3.975000000000000000e+01,-3.465968958652964060e-01,-2.879029253100124364e-01,1.000176992151793620e-01,6.743425766934420251e-02,-1.017052621253856926e-01,2.888708723503120164e-06,1.821489683899787850e-03,9.201517705706709419e-03,7.709837984383720588e-01,-8.740818392839288034e-03,6.356506253629426104e-03,2.734281660410964876e-01
4.000000000000000000e+01,-3.375604847461383673e-01,-3.001474396081131868e-01,1.000178111558659849e-01,7.688481397980989618e-02,-9.422630655135436073e-02,-1.262962985237138206e-06,1.535425578425621187e-03,1.013149098566335643e-02,8.051588352061291864e-01,-4.877421315990626734e-03,9.920335575376948520e-04,2.734170578257862916e-01
4.025000000000000000e+01,-3.273420658611307377e-01,-3.113821822283129315e-01,1.000173325743118208e-01,8.620459942996228087e-02,-8.569934469996931536e-02,-6.157126186306943359e-06,1.163981913382317176e-03,1.019120445779124126e-02,8.393314155441100599e-01,1.052137108795063534e-04,-4.395343801474279645e-03,2.734058049364586074e-01
4.050000000000000000e+01,-3.160130597904257654e-01,-3.215244119199843209e-01,1.000163235107743992e-01,9.455826578183408604e-02,-7.689200083902461569e-02,-9.433784555533965526e-06,7.506914233980477953e-04,9.376251029165928730e-03,8.735025397739032416e-01,5.195848210274901964e-03,-8.714840779652241812e-03,2.733984323422785634e-01
4.075000000000000000e+01,-3.037388288101720568e-01,-3.305918668695557172e-01,1.000151018863705832e-01,1.012967302725939073e-01,-6.861474618318293139e-02,-9.541742817016132851e-06,3.470896178187988027e-04,7.852522147671936112e-03,9.076736660469396645e-01,9.334555472085960190e-03,-1.118552636535304935e-02,2.733965454891887914e-01
4.100000000000000000e+01,-2.907471347392132643e-01,-3.386972133595876899e-01,1.000140685906448640e-01,1.060740475799964860e-01,-6.155353469593522614e-02,-6.708969545391338974e-06,2.535329026860110864e-06,5.914159210912068622e-03,9.418459604188326173e-01,1.168943825510563445e-02,-1.151058147717825761e-02,2.733988212295718201e-01
4.125000000000000000e+01,-2.772868404103931428e-01,-3.460231344272026166e-01,1.000134904236705535e-01,1.088866556736787922e-01,-5.613332397053606010e-02,-2.650433699979511463e-06,-2.453166567433695739e-04,3.912240683578671954e-03,9.760198076715297377e-01,1.187237804388601055e-02,-9.909086649176009065e-03,2.734023086827027660e-01
4.150000000000000000e+01,-2.635870328257179374e-01,-3.527843447114558662e-01,1.000133893565753329e-01,1.100314748710967822e-01,-5.244770867999445224e-02,6.756271878932525529e-07,-3.770696069615004872e-04,2.173548547976040385e-03,1.010194843301924994e+00,1.002890560507002822e-02,-7.006420076598850709e-03,2.734044585456749665e-01
4.175000000000000000e+01,-2.498257101084480625e-01,-3.591860810976524321e-01,1.000135946334828885e-01,1.100015399387375276e-01,-5.027090963942816570e-02,2.250093572449784912e-06,-3.937363033942737874e-04,9.309589207965276352e-04,1.044370383700719662e+00,6.774117304413411651e-03,-3.625529095624526691e-03,2.734044375033815588e-01
4.200000000000000000e+01,-2.361137597815174682e-01,-3.653891194687330923e-01,1.000138904086705777e-01,1.093529989912428585e-01,-4.914447179742859745e-02,2.291841471225098161e-06,-3.142826671221060218e-04,2.831408992283989128e-04,1.078545894709525221e+00,2.995189090211239184e-03,-5.484000310491912071e-04,2.734030310544151021e-01
4.225000000000000000e+01,-2.224953428482436546e-01,-3.714889736074331594e-01,1.000141391262822366e-01,1.085813038625070420e-01,-4.850980537813968929e-02,1.672524874021900350e-06,-1.695425016420868487e-04,1.922001820803931175e-04,1.112721201678838145e+00,-4.144075346283407216e-04,1.678542696706861789e-03,2.734015654398210260e-01
4.250000000000000000e+01,-2.089614513476435176e-01,-3.775124498132155781e-01,1.000143094494961721e-01,1.080368161162686413e-01,-4.784615850581418195e-02,1.113995078614153291e-06,5.682498668020372891e-06,5.163583940510556389e-04,1.146896399994355331e+00,-2.801054426901722176e-03,2.841521064492185094e-03,2.734008541479499010e-01
4.275000000000000000e+01,-1.954705922302264198e-01,-3.834296574003683289e-01,1.000144271423570874e-01,1.078942507135766671e-01,-4.677549818929653547e-02,8.139120677033004500e-07,1.802258997475130430e-04,1.064519127602073754e-03,1.181071637927425977e+00,-3.898816319278256871e-03,3.042663845206741106e-03,2.734008683366904169e-01
4.300000000000000000e+01,-1.819699244159767026e-01,-3.891755721489855713e-01,1.000145158053186156e-01,1.081723291903332190e-01,-4.510999533660852573e-02,6.086899718939455829e-07,3.320350469700825559e-04,1.654149809896066602e-03,1.215246967173680082e+00,-3.838812535251669416e-03,2.593152310254687436e-03,2.734010958951518244e-01
4.325000000000000000e+01,-1.684116057740911165e-01,-3.946735318878805132e-01,1.000145747431272492e-01,1.087859682087776309e-01,-4.283871474987678563e-02,3.250253415110632380e-07,4.504568516812021916e-04,2.154987728468550374e-03,1.249422332375414557e+00,-3.031513894919412450e-03,1.867095175111797064e-03,2.734010801720899719e-01
4.350000000000000000e+01,-1.547617909371823974e-01,-3.998539467715688800e-01,1.000145921757329415e-01,1.096074609383596438e-01,-4.006986375086046132e-02,-3.936540674658255482e-08,5.352644770935079599e-04,2.507830413527211127e-03,1.283597644005919802e+00,-1.977411652977527183e-03,1.172274510936094057e-03,2.734006985928952305e-01
