time_total,x,y,z,vx,vy,vz,roll,pitch,yaw,roll_rate,pitch_rate,yaw_rate
-01,9.990063866213270971e-02,-1.072572718938776259e-01,1.397888249033022445e-01,3.710323708788411824e-04,2.028287551374347800e-03,9.503477386649002503e-03,-2.330082145976475783e+00,-2.683533900257591143e-02,8.185693221011371493e-03,3.494245207585998658e-01
2.500000000000000000e-01,3.896308492026617776e-01,3.503646376396620798e-01,9.993945892670914877e-02,-1.157809895796275135e-01,1.341258144621166326e-01,2.618280566198088045e-04,3.891359346089736347e-03,6.011543160221375498e-03,-2.286399140204750324e+00,-3.179723161666924564e-02,8.313259614222906838e-03,3.492905249465364514e-01
5.000000000000000000e-01,3.746863279360327370e-01,3.670039344085130328e-01,9.996721874844601008e-02,-1.228291562068930948e-01,1.328438597066194937e-01,1.889472403266940841e-04,5.233080668802216062e-03,2.392275641720850634e-03,-2.242736154298328621e+00,-2.557694139612064904e-02,1.234473916921193654e-02,3.492359414844741217e-01
7.500000000000000000e-01,3.589745207007173367e-01,3.837290938854977518e-01,9.998722041082200307e-02,-1.280462929088961310e-01,1.351756925660733966e-01,1.354094450239472626e-04,5.404998062186461977e-03,-7.332135311921280730e-04,-2.199081548413799325e+00,-1.620763054499119865e-02,1.511587809387403107e-02,3.492375372833084746e-01
1.000000000000000000e+00,3.427452134588424015e-01,4.009082130942552280e-01,1.000014443170829798e-01,-1.311790099612351601e-01,1.398132965936182692e-01,9.552328123301562170e-05,4.759608133553102846e-03,-2.982426672122598290e-03,-2.155423917548209722e+00,-8.077495727894309571e-03,1.308950488263978945e-02,3.492642376646030167e-01
1.250000000000000000e+00,3.262426650475465650e-01,4.187509009444284058e-01,1.000113919379957694e-01,-1.326000046148608502e-01,1.455820166819843386e-01,6.607605906518709013e-05,4.039048966205356118e-03,-4.131974149855519550e-03,-2.111761193728740604e+00,-1.680616530656864381e-03,6.080756151347557412e-03,3.492969429026624439e-01
1.500000000000000000e+00,3.096184472430437151e-01,4.373354347461217984e-01,1.000181727151675110e-01,-1.333659131736446568e-01,1.515262688817023418e-01,4.430418916756866858e-05,3.818271066646102517e-03,-4.058112080242461985e-03,-2.068095828226520272e+00,4.403720349944597462e-03,-3.354961791813986828e-03,3.493339544669135655e-01
1.750000000000000000e+00,2.928657686245629832e-01,4.566237863586227741e-01,1.000226870988650957e-01,-1.348618362008305038e-01,1.567003496226140602e-01,2.964140642101669329e-05,4.251300264375900036e-03,-2.729010654762444379e-03,-2.024427619344807638e+00,1.133220251150846014e-02,-1.178190529418034378e-02,3.493810127541285282e-01
2.000000000000000000e+00,2.758111860055399434e-01,4.764501399291107275e-01,1.000258488218955244e-01,-1.382934195185375470e-01,1.599979330360280227e-01,2.238608371762053207e-05,5.122186983912298784e-03,-2.340267778090023443e-04,-1.980752660203694004e+00,1.888840572321456510e-02,-1.664741496155473441e-02,3.494387315612751399e-01
2.250000000000000000e+00,2.581645990981367156e-01,4.965010974978644187e-01,1.000285257182579324e-01,-1.442949397096376096e-01,1.601940440359254092e-01,2.128173430428423950e-05,6.055512479791998540e-03,3.187811646136954301e-03,-1.937067664849149828e+00,2.562889051451288855e-02,-1.712521172326239571e-02,3.494976756437416787e-01
2.500000000000000000e+00,2.396022326971276595e-01,5.163145691652285540e-01,1.000312916051057516e-01,-1.527949322421231215e-01,1.561794360487196165e-01,2.304949208618524485e-05,6.724222280079089446e-03,7.152780563123171433e-03,-1.893374023570105535e+00,2.974533957750159080e-02,-1.395620345838355716e-02,3.495424098132726143e-01
2.750000000000000000e+00,2.198496973511381014e-01,5.353133696426317645e-01,1.000342393889221554e-01,-1.631289158497994385e-01,1.472538383567182640e-01,2.356207520279495201e-05,6.959934513636410400e-03,1.118120230350442938e-02,-1.849677774686653287e+00,2.995068400475314752e-02,-8.711701453541295312e-03,3.495595156687320570e-01
3.000000000000000000e+00,1.987405221559782054e-01,5.528714477116053461e-01,1.000369803598637752e-01,-1.742931668368324361e-01,1.333382880332200648e-01,1.949257753854661491e-05,6.755565940257563483e-03,1.477712849507429455e-02,-1.805986297298660448e+00,2.595295915079030499e-02,-3.013437572515712676e-03,3.495438779608037172e-01
3.250000000000000000e+00,1.762405906032669389e-01,5.683968588483464535e-01,1.000388456826268452e-01,-1.852178677564558784e-01,1.150298844354401689e-01,9.813970349959553956e-06,6.204366734063312093e-03,1.751415984044720972e-02,-1.762304893569821784e+00,1.844665598457886913e-02,1.946134607609150248e-03,3.495004792819647599e-01
3.500000000000000000e+00,1.524418858899774798e-01,5.814110332332350639e-01,1.000392291395922340e-01,-1.949782413006543591e-01,9.349815939946026777e-02,-3.546874215291420454e-06,5.429902922612573485e-03,1.910423742685207066e-02,-1.718635315203425717e+00,8.795855668253969514e-03,5.521711437627943760e-03,3.494419885955604155e-01
3.750000000000000000e+00,1.275355449472290736e-01,5.916073733853114414e-01,1.000379202589556510e-01,-2.029169199864891138e-01,7.027195443766122429e-02,-1.651518157385195235e-05,4.541501591965797432e-03,1.943604852363403634e-02,-1.674976113869704797e+00,-1.366632862364494487e-03,7.505465740072716010e-03,3.493838735798174278e-01
4.000000000000000000e+00,1.017748627795285049e-01,5.988795991879762859e-01,1.000352512966811713e-01,-2.086885021834025133e-01,4.698035172834858636e-02,-2.486542229848862808e-05,3.621741630893863563e-03,1.858008767925870691e-02,-1.631323777316673329e+00,-1.048220072047342279e-02,7.966675888954935156e-03,3.493390493312946155e-01
4.250000000000000000e+00,7.543651004330939602e-02,6.033178143422767148e-01,1.000319772824620201e-01,-2.122490845226556178e-01,2.510293842818243568e-02,-2.627188918503324438e-05,2.733728051931377974e-03,1.676393591127092741e-02,-1.587673989433288080e+00,-1.731374837460308153e-02,7.145805894184106832e-03,3.493139881694461990e-01
4.500000000000000000e+00,4.878559967471085557e-02,6.051762151954716007e-01,1.000289620774631461e-01,-2.138086303362415896e-01,5.769676961418790558e-03,-2.125229837056311896e-05,1.931569719289003093e-03,1.432418548963447849e-02,-1.544022835135370419e+00,-2.111130620652216031e-02,5.409092169577348584e-03,3.493077215065283903e-01
4.750000000000000000e+00,2.204851490745376660e-02,6.048205088154788855e-01,1.000268455229843256e-01,-2.137567470868804165e-01,-1.036267862799723771e-02,-1.258933763268292289e-05,1.263706901655947028e-03,1.164327620961913730e-02,-1.500367765264663422e+00,-2.170251665521940113e-02,3.213588390936343922e-03,3.493139439461236950e-01
5.000000000000000000e+00,-4.603769444413663599e-03,6.026656886931737178e-01,1.000258579331081144e-01,-2.125714834861786029e-01,-2.314301572034484916e-02,-3.730920060874562430e-06,7.679477090614386312e-04,9.082034054339545998e-03,-1.456707994241586812e+00,-1.948802571006047132e-02,1.039428932937902506e-03,3.493248791265409214e-01
5.250000000000000000e+00,-3.106061605325110067e-02,5.991157065980157181e-01,1.000258458348269180e-01,-2.107254792663947607e-01,-3.286767998764468512e-02,2.812307413406590903e-06,4.633033209049195324e-04,6.921124344651966541e-03,-1.413044177091032028e+00,-1.531814809275198509e-02,-7.096292430086053498e-04,3.493347395791763232e-01
5.500000000000000000e+00,-5.726574261851725273e-02,5.945153385660940648e-01,1.000264486724154189e-01,-2.086077970359005718e-01,-4.015066840679435561e-02,6.212579653362276223e-06,3.448502456937932795e-04,5.324494761533709285e-03,-1.369377624497390311e+00,-1.026021406932562698e-02,-1.796548463472071077e-03,3.493411740098614771e-01
5.750000000000000000e+00,-8.320337490462408059e-02,5.891210242471974778e-01,1.000272994866160531e-01,-2.064771868113248476e-01,-4.575805503728527790e-02,7.033061419012068068e-06,3.851195018815425203e-04,4.333208293324153880e-03,-1.325709552160435178e+00,-5.316518945524253623e-03,-2.185149441729231697e-03,3.493445883262660256e-01
6.000000000000000000e+00,-1.088809693832702707e-01,5.830923465042471276e-01,1.000281465856674851e-01,-2.044525789133843086e-01,-5.045024560701903693e-02,6.389509844806571991e-06,5.415839366849586499e-04,3.889314581345360358e-03,-1.282040715179287416e+00,-1.185238264534196331e-03,-1.999357693610864274e-03,3.493464755114542020e-01
6.250000000000000000e+00,-1.343128323936862711e-01,5.765006229192385367e-01,1.000288724563809239e-01,-2.025337992396128994e-01,-5.486936995676987283e-02,5.234884497343014928e-06,7.669882318897783442e-04,3.879823946774129707e-03,-1.238371435225020134e+00,1.854283536959490082e-03,-1.429838290270168911e-03,3.493480698279836094e-01
6.500000000000000000e+00,-1.595074302589424842e-01,5.693475308530105972e-01,1.000294519220157191e-01,-2.006363945599200782e-01,-5.949034627409315740e-02,4.102460930114045835e-06,1.018560986358548175e-03,4.184727462704512790e-03,-1.194701801777330985e+00,3.901727119508147101e-03,-6.368147212706916967e-04,3.493499148353215733e-01
6.750000000000000000e+00,-1.844590101321529063e-01,5.615858974818020988e-01,1.000299038026481735e-01,-1.986233933589517942e-01,-6.463052936469657062e-02,3.204734383289017695e-06,1.263313923398638001e-03,4.713069394208535025e-03,-1.151031840548104812e+00,5.274653016457815820e-03,3.040293464813999800e-04,3.493521018127754840e-01
7.000000000000000000e+00,-2.091423792604648890e-01,5.531367324230476168e-01,1.000302628149904727e-01,-1.963236588674252547e-01,-7.049403331972947662e-02,2.613032908328216115e-06,1.478699264892057493e-03,5.416988297683486553e-03,-1.107361583201345923e+00,6.302893204456467766e-03,1.391454186191761529e-03,3.493546123566079187e-01
7.250000000000000000e+00,-2.335090743889686737e-01,5.439001730701340520e-01,1.000305689009252513e-01,-1.935371461936765680e-01,-7.721962158061709824e-02,2.346176048250255057e-06,1.649807146641128373e-03,6.282544967446403519e-03,-1.063691083754163325e+00,7.162238283474215046e-03,2.636576454068882171e-03,3.493574010187410206e-01
7.500000000000000000e+00,-2.574838179054302345e-01,5.337616550784995972e-01,1.000308605323629724e-01,-1.900363990957877613e-01,-8.490675278682191518e-02,2.355931509196370634e-06,1.765336085006392278e-03,7.304411562638818585e-03,-1.020020445965795775e+00,7.804720657090829031e-03,3.985208817090533755e-03,3.493602247573674990e-01
7.750000000000000000e+00,-2.809616075955984060e-01,5.225969115991304648e-01,1.000311626963948930e-01,-1.855768903607648568e-01,-9.360901401302586244e-02,2.469379163506548078e-06,1.814561696192198417e-03,8.456330161586237196e-03,-9.763498821584573051e-01,7.998780777700607511e-03,5.266506577234215079e-03,3.493624619106743268e-01
8.000000000000000000e+00,-3.038071947537700490e-01,5.102796495850917546e-01,1.000314686233060857e-01,-1.799251799874954927e-01,-1.033009997459082563e-01,2.357049750662452497e-06,1.786694598663849743e-03,9.669500257611152172e-03,-9.326797681387379857e-01,7.450312062897558422e-03,6.196448615352926834e-03,3.493631763804192492e-01
8.250000000000000000e+00,-3.258593070284030446e-01,4.966941190393632244e-01,1.000317228784973894e-01,-1.729053006300468598e-01,-1.138371045289568728e-01,1.593634950152174359e-06,1.672823100027141232e-03,1.082721493898574847e-02,-8.890106275799803948e-01,5.949275695747445296e-03,6.439633267566882008e-03,3.493615162400082741e-01
8.500000000000000000e+00,-3.469413946906452773e-01,4.817521342117608851e-01,1.000318202223136888e-01,-1.644542455713457474e-01,-1.249245593622772127e-01,-1.552721782898154988e-07,1.469563254118151120e-03,1.177779302018349024e-02,-8.453429960949472299e-01,3.483347801219967461e-03,5.707332369651902694e-03,3.493572838477858600e-01
8.750000000000000000e+00,-3.668790783252968701e-01,4.654115658924008470e-01,1.000316332544672893e-01,-1.546711011918564527e-01,-1.361278381792017655e-01,-2.881512897721816437e-06,1.182927096141417594e-03,1.236151013651215665e-02,-8.016771843106949014e-01,2.791602852604684352e-04,3.855196795391638374e-03,3.493513223723864747e-01
9.000000000000000000e+00,-3.855224406285848726e-01,4.476918745642001762e-01,1.000310673106598186e-01,-1.438437664691604445e-01,-1.469102391704655008e-01,-6.077448942170672390e-06,8.308902051568815362e-04,1.244310797712314988e-02,-7.580130459041488633e-01,-3.236628718092977083e-03,9.462662989203887362e-04,3.493453883968608009e-01
9.250000000000000000e+00,-4.027695740620551024e-01,4.286823526825221942e-01,1.000301199952681047e-01,-1.324422560830806339e-01,-1.567058957769504879e-01,-8.827587038638284826e-06,4.436086965329273223e-04,1.194070871901694968e-02,-7.143498961420151616e-01,-6.535248007633905239e-03,-2.739793119123568998e-03,3.493414581342821901e-01
9.500000000000000000e+00,-4.185869478649613673e-01,4.085402368642087612e-01,1.000289115383312943e-01,-1.210760522638399950e-01,-1.650062231410387159e-01,-1.016100042543929411e-05,6.098325021518707288e-05,1.084415862603829196e-02,-6.706866732502578810e-01,-9.106009969750313016e-03,-6.750750031903428490e-03,3.493407835501092240e-01
9.750000000000000000e+00,-4.328644699003810770e-01,3.876900761442007015e-01,1.000370948505722307e-01,-1.055623526987186922e-01,-1.648996633113389565e-01,2.234941737176864202e-04,-2.228151100342020199e-02,8.643685432887640574e-03,-6.633463036026615578e-01,-2.485311372475418057e-01,1.622420337774024279e-01,-1.467654582940216279e-01
1.000000000000000000e+01,-4.439051455581380368e-01,3.688345256936830241e-01,1.001094862649466455e-01,-6.800927489859309727e-02,-1.315270723100170069e-01,8.520322772186130454e-04,-5.953715688479017942e-02,4.439314942124945526e-03,-6.933648587360456972e-01,-2.231306438304796746e-01,1.322469157938342965e-01,-2.930732002702161054e-01
1.025000000000000000e+01,-4.487707445306787779e-01,3.563309642935896249e-01,1.001970077963765943e-01,-9.530586909314122876e-03,-6.719580117793530483e-02,3.227531493400181127e-04,-7.873436858988554221e-02,-1.036944093667246849e-03,-7.330968999110875073e-01,-6.410597492742456383e-02,-1.174238294878462117e-03,-3.324488799629859437e-01
1.050000000000000000e+01,-4.459024327785666708e-01,3.526448322427264692e-01,1.001596348862012764e-01,5.219836885108562752e-02,5.016992767184758062e-03,-8.190762979508074346e-04,-7.122514280267303044e-02,-5.709689261480008216e-03,-7.755630858998474597e-01,8.420418999734345655e-02,-1.230722719145686955e-01,-3.438368680646277653e-01
1.075000000000000000e+01,-4.361287685299923833e-01,3.572553722305574220e-01,1.000330142924236027e-01,9.909875011078098095e-02,6.325830778017108025e-02,-9.970450948863893333e-04,-4.657854002725222986e-02,-7.864603840913864108e-03,-8.189872052075906073e-01,1.484671512417211348e-01,-1.673671068617528790e-01,-3.473810354273494383e-01
1.100000000000000000e+01,-4.219470542821695536e-01,3.676584755819143346e-01,9.994566862038274657e-02,1.232087472724595623e-01,9.807736695985419528e-02,-3.761994906532755713e-04,-2.011758730064485898e-02,-7.344818299263088622e-03,-8.627077842887812542e-01,1.300447754266942091e-01,-1.331302471561232048e-01,-3.486092163668973454e-01
1.125000000000000000e+01,-4.060767497965911410e-01,3.810175670077439736e-01,9.993381234476966801e-02,1.280931063528699121e-01,1.124816675843944708e-01,9.906717573178206392e-05,-2.815233881780225544e-03,-5.301117252023765727e-03,-9.064327230255871948e-01,7.038514400665309145e-02,-5.992082195197537264e-02,-3.490993003027913488e-01
1.150000000000000000e+01,-3.903085128349590427e-01,3.953498486154126690e-01,9.995468253360535738e-02,1.237062009312383248e-01,1.156838896309331927e-01,1.860426867063504259e-04,2.472815057769319879e-03,-3.146560913883763872e-03,-9.501079207658057468e-01,1.358577611848461528e-02,6.981122942143281988e-03,-3.492773456224037565e-01
1.175000000000000000e+01,-3.751404079123010216e-01,4.098488098962361215e-01,9.997537622132701696e-02,1.198071694680012955e-01,1.163827079584519308e-01,1.448127975027273446e-04,-6.874829835870090427e-04,-1.642732072846764041e-03,-9.937648949557209566e-01,-1.565174173154937343e-02,4.116492753364459772e-02,-3.493309134372232228e-01
1.200000000000000000e+01,-3.601084844340664559e-01,4.245404893533993862e-01,9.999162564800737063e-02,1.217825632154330984e-01,1.190344293805250114e-01,1.185594586722983450e-04,-6.479377669101011282e-03,-6.486674925935091837e-04,-1.037427420341425988e+00,-1.560174340524530384e-02,4.123828580997754983e-02,-3.493755989110720050e-01
1.225000000000000000e+01,-3.444071530143980042e-01,4.397067643442584273e-01,1.000046272168860773e-01,1.300413602818726866e-01,1.236210686496262284e-01,8.737090868969694577e-05,-1.044905619566372304e-02,5.013101335172220549e-04,-1.081102404411289353e+00,1.338027328000467812e-03,2.203422819470794020e-02,-3.494353768240399671e-01
1.250000000000000000e+01,-3.274043470933512556e-01,4.554367357659250826e-01,1.000128399956151937e-01,1.419285875957332355e-01,1.275597231562786704e-01,4.609897196594841189e-05,-1.101243871304701145e-02,2.400948816733881018e-03,-1.124785725307203554e+00,2.023601496552944468e-02,1.200912923541679923e-03,-3.494893967515648736e-01
1.275000000000000000e+01,-3.088576249204260105e-01,4.714575104672773520e-01,1.000168116642460581e-01,1.542664362911123077e-01,1.279863247790366532e-01,2.274395044489882866e-05,-8.979465089277226947e-03,5.168668869964278094e-03,-1.168466462531303707e+00,3.134906008641612229e-02,-1.038126033977151627e-02,-3.495255299665670501e-01
1.300000000000000000e+01,-2.888564977524814004e-01,4.872061549936330116e-01,1.000194576933235852e-01,1.650544248092946920e-01,1.232356590586942274e-01,2.204854411793337753e-05,-6.129288647811694142e-03,8.413086936403845265e-03,-1.212139133905572708e+00,3.215786544454751761e-02,-1.113236201384057086e-02,-3.495419089473577046e-01
1.325000000000000000e+01,-2.676377382080015743e-01,5.020142761938692910e-01,1.000224850250635428e-01,1.738486121302846299e-01,1.132145276118202981e-01,2.543068475228402460e-05,-3.912965998426334684e-03,1.148494975701644556e-02,-1.255809759374289847e+00,2.531200418277822564e-02,-5.725539507759173224e-03,-3.495335886502825007e-01
1.350000000000000000e+01,-2.454217400556058803e-01,5.152834256925815648e-01,1.000254458978029476e-01,1.811828539970853080e-01,9.899080646971146480e-02,2.056729970570160638e-05,-2.861772151900825959e-03,1.380324230807948929e-02,-1.299486232099846816e+00,1.525665086517253438e-02,-1.494284612407386162e-04,-3.494973098604273187e-01
1.375000000000000000e+01,-2.223453656367361808e-01,5.265869062076722340e-01,1.000273185528547937e-01,1.877274036127688783e-01,8.211841596854445313e-02,9.246109946049354655e-06,-2.699068495179281907e-03,1.506959941250735763e-02,-1.343167630427781978e+00,5.639399808139555943e-03,1.925558833846088055e-03,-3.494419713493920887e-01
1.400000000000000000e+01,-1.984854180167733850e-01,5.356926759553132245e-01,1.000277132288281690e-01,1.937338516639020569e-01,6.409129917515324348e-02,-2.104595423276143493e-06,-2.811089562769970504e-03,1.530045500608389654e-02,-1.386845910191229381e+00,-1.726610501932191290e-03,1.806799783981400623e-04,-3.493866926847692400e-01
1.425000000000000000e+01,-1.739210643670162371e-01,5.425356799048046685e-01,1.000269308907670573e-01,1.989512226254127325e-01,4.607668774863916961e-02,-9.315722098107624775e-06,-2.696964104842627680e-03,1.472093737046000633e-02,-1.430514862696325329e+00,-6.616937418636411813e-03,-3.418483599775908998e-03,-3.493488431551994844e-01
1.450000000000000000e+01,-1.487822804093160423e-01,5.471731270146562576e-01,1.000255819673554203e-01,2.028835880828299409e-01,2.888341190304677050e-02,-1.139627211548414647e-05,-2.183015108850858404e-03,1.361881734032841657e-02,-1.474175048321656911e+00,-9.580863518741369531e-03,-6.448495705693940185e-03,-3.493345846632230911e-01
1.475000000000000000e+01,-1.232579841467111581e-01,5.497442282593643093e-01,1.000242449333951233e-01,2.051315694541361867e-01,1.303934108389174021e-02,-9.582254102741154977e-06,-1.389466918708111764e-03,1.224263548718435013e-02,-1.517831738992143409e+00,-1.118689731728673108e-02,-7.422858220172215589e-03,-3.493386038345910327e-01
1.500000000000000000e+01,-9.756800502092140281e-02,5.504403419234110695e-01,1.000232696655223713e-01,2.056090805648549402e-01,-1.133670609636708553e-03,-6.021172499672083721e-06,-5.641787589296871387e-04,1.077585638570057597e-02,-1.561490293348723579e+00,-1.164044644494754976e-02,-6.238678456541770639e-03,-3.493504931336805508e-01
1.525000000000000000e+01,-7.192082812262243219e-02,5.494811441363638416e-01,1.000227546485145114e-01,2.045598471672535335e-01,-1.349985309581348131e-02,-2.420534228891685157e-06,8.292332364959276799e-05,9.367738965045396479e-03,-1.605153317249997658e+00,-1.078901003781487095e-02,-3.818440028317245018e-03,-3.493615189339393523e-01
1.550000000000000000e+01,-4.648021737246745694e-02,5.470898129058657799e-01,1.000226492777166326e-01,2.024182613536414932e-01,-2.413894445286534143e-02,5.101552276978704526e-07,4.652160003087499459e-04,8.176720291782050079e-03,-1.648820589828597249e+00,-8.368053246142924048e-03,-1.416621625064511071e-03,-3.493676546445071418e-01
1.575000000000000000e+01,-2.135394913816403978e-02,5.434634007961296476e-01,1.000228632022507197e-01,1.996139729403298979e-01,-3.338559487503921924e-02,2.734666548906265154e-06,6.161497345203562938e-04,7.387372887665049660e-03,-1.692490486761122348e+00,-4.306595771992370938e-03,-2.729697389839969081e-05,-3.493688472584979277e-01
1.600000000000000000e+01,3.394458003279876741e-03,5.387401386888901467e-01,1.000233209156231456e-01,1.964100970768452303e-01,-4.183343103620271175e-02,4.477967753326296114e-06,6.352015740026784561e-04,7.185609743080786059e-03,-1.736161345296481029e+00,1.049146328558164549e-03,-9.959376944098787356e-05,-3.493668048672580739e-01
1.625000000000000000e+01,2.771877252116198773e-02,5.329703065335972267e-01,1.000239855307575587e-01,1.928224302172352467e-01,-5.027287617089327282e-02,6.121319502029131968e-06,6.294216633023310466e-04,7.702281080136206756e-03,-1.779832016016168472e+00,6.872928930947147866e-03,-1.538887692999767014e-03,-3.493632266472179171e-01
1.650000000000000000e+01,5.155866581723985570e-02,5.260996273939442247e-01,1.000248701436353971e-01,1.886249824729157032e-01,-5.955661764291270838e-02,8.021756036874203415e-06,6.791094210493751676e-04,8.950696695155083843e-03,-1.823501731065019449e+00,1.197475244828730481e-02,-3.857891438350014284e-03,-3.493589796526266333e-01
1.675000000000000000e+01,7.481363726497458622e-02,5.179731767869945047e-01,1.000260022523767195e-01,1.834230787482974412e-01,-7.041301551113567092e-02,9.962160921447461357e-06,8.315108869817127270e-04,1.078527166308869065e-02,-1.867169777847147882e+00,1.506383251376514076e-02,-6.351379253269777425e-03,-3.493540476946878082e-01
1.700000000000000000e+01,9.732908202945576848e-02,5.083638169465908296e-01,1.000273161938882438e-01,1.767690372899188844e-01,-8.324878731042215096e-02,1.067550455586227045e-05,1.110196714503736267e-03,1.289957349979493385e-02,-1.910835345203462987e+00,1.508679120565701789e-02,-8.240628312714397621e-03,-3.493482578153968010e-01
1.725000000000000000e+01,1.188983016139161797e-01,4.970231986702161597e-01,1.000285344158349798e-01,1.682972581312396632e-01,-9.799261930104127827e-02,8.219792379082873751e-06,1.524872982469416835e-03,1.486842565311232225e-02,-1.954497711803484528e+00,1.154589825025132549e-02,-8.798025282952386464e-03,-3.493427492274964741e-01
1.750000000000000000e+01,1.392814548595581459e-01,4.837470068089161912e-01,1.000291655583097211e-01,1.578564344689400156e-01,-1.140275593605582366e-01,1.378431038957349614e-06,2.073058005357050759e-03,1.622559061142723677e-02,-1.998156817777870797e+00,4.701011168186744645e-03,-7.479711371262099187e-03,-3.493413490189708481e-01
1.775000000000000000e+01,1.582395263528917073e-01,4.684411794759034131e-01,1.000287009882256661e-01,1.456141584377843301e-01,-1.302418722812500873e-01,-8.787920818200310681e-06,2.734171075631520662e-03,1.655911975431919800e-02,-2.041814016401755971e+00,-4.414043270689539666e-03,-4.068367090345020344e-03,-3.493502914567552242e-01
1.800000000000000000e+01,1.755781422920313917e-01,4.511738984183150669e-01,1.000269398603552545e-01,1.321073739595630125e-01,-1.451993516904087622e-01,-1.860471048558700290e-05,3.462402638382588386e-03,1.560221558826516662e-02,-2.085472444086639676e+00,-1.417790490997573177e-02,1.209797994613007275e-03,-3.493753117589994961e-01
1.825000000000000000e+01,1.911929525845867950e-01,4.322000761560580440e-01,1.000242327141655924e-01,1.182167431477374880e-01,-1.573986096525799572e-01,-2.336636443725650198e-05,4.185257847931115466e-03,1.329871278527564558e-02,-2.129136373639214597e+00,-2.272732677434207565e-02,7.648254614447349067e-03,-3.494171370694406087e-01
1.850000000000000000e+01,2.051063576033511637e-01,4.119505957068784197e-01,1.000214351096792020e-01,1.050568501816674799e-01,-1.655660172980540634e-01,-2.011275241934244466e-05,4.811202142154180454e-03,9.828285385459652884e-03,-2.172809455981232762e+00,-2.837134098641513197e-02,1.414371523431329908e-02,-3.494682802824351509e-01
1.875000000000000000e+01,2.174856411462651740e-01,3.909863307403416144e-01,1.000195333300517853e-01,9.379483356114701187e-02,-1.689164247474033709e-01,-9.788786905923379015e-06,5.245212673956343823e-03,5.585469447166220743e-03,-2.216492642910094624e+00,-2.996656403718096426e-02,1.940162940333200678e-02,-3.495140150697372272e-01
1.900000000000000000e+01,2.286355370388852559e-01,3.699249483017991724e-01,1.000191336443440465e-01,8.543102644629695097e-02,-1.673225495603902491e-01,2.836261542002989069e-06,5.407722526454752411e-03,1.116340140403588883e-03,-2.260183089170974213e+00,-2.716201002876330803e-02,2.222157630586504840e-02,-3.495380776790470989e-01
1.925000000000000000e+01,2.389634639180570341e-01,3.493546161299345698e-01,1.000201266043193177e-01,8.058918273780765751e-02,-1.613555264582725857e-01,1.168840500929880743e-05,5.251519427455759656e-03,-2.974768357302770300e-03,-2.303874936571781884e+00,-2.045993452097953635e-02,2.178958489330190540e-02,-3.495304715706064602e-01
1.950000000000000000e+01,2.489218743818353285e-01,3.297515326202263286e-01,1.000217501543711335e-01,7.936579292510491379e-02,-1.521891428220200349e-01,1.286747639513097593e-05,4.772319244993742000e-03,-6.130164545106448273e-03,-2.347561773346157565e+00,-1.108640995350995348e-02,1.789656265049488840e-02,-3.494929747739578541e-01
1.975000000000000000e+01,2.589377494824927628e-01,3.114171232429821523e-01,1.000230286044557354e-01,8.127663099210115372e-02,-1.413908379795414394e-01,6.876088617161649261e-06,4.010932836719438566e-03,-7.934696976204037508e-03,-2.391239494619390893e+00,-7.106639057836443198e-04,1.102016560244976039e-02,-3.494389294176205030e-01
2.000000000000000000e+01,2.693427125668370614e-01,2.944462256097384878e-01,1.000233234622828621e-01,8.531690011196423062e-02,-1.306462922058343190e-01,-1.835887462973811454e-06,3.047154053529654936e-03,-8.184062989406127100e-03,-2.434907999959089686e+00,8.914268417219418233e-03,2.245626998208846009e-03,-3.493871448077390252e-01
2.025000000000000000e+01,2.803175978055660877e-01,2.787308304964340455e-01,1.000226618985917970e-01,9.012510810325814747e-02,-1.214762032277514336e-01,-7.687259312884824031e-06,1.987128202287072841e-03,-6.913038217717232085e-03,-2.478570839584043117e+00,1.630356099861735714e-02,-6.954394128884380626e-03,-3.493532125340199634e-01
2.050000000000000000e+01,2.918624832843365047e-01,2.639966143777108254e-01,1.000216562719840607e-01,9.421709713886265714e-02,-1.150017592871083322e-01,-7.301436256692158376e-06,9.468722104047930591e-04,-4.379799105152911744e-03,-2.522233108054961814e+00,2.050827387818093817e-02,-1.502500012962890499e-02,-3.493429725867776559e-01
2.075000000000000000e+01,3.037979036723965076e-01,2.498632502029065616e-01,1.000210895211796486e-01,9.624136963194163119e-02,-1.118010248313282412e-01,-1.283519772196393709e-06,3.491904160663871631e-05,-1.011551161893424738e-03,-2.565898832023391307e+00,2.124806758563622597e-02,-2.064552417739091983e-02,-3.493514173495866904e-01
2.100000000000000000e+01,3.157964961422957129e-01,2.359155852564943090e-01,1.000214391227161881e-01,9.520339437939033533e-02,-1.118762527984886596e-01,6.508507070369662169e-06,-6.630648094160444903e-04,2.675972462357234082e-03,-2.609569260044163119e+00,1.889297459884599351e-02,-2.298545959586775767e-02,-3.493670269900593928e-01
2.125000000000000000e+01,3.274382362269842583e-01,2.217718681965687444e-01,1.000226237623102754e-01,9.061524239101698130e-02,-1.147275073368675402e-01,1.150384444187211998e-05,-1.095271186681587815e-03,6.168315506859155077e-03,-2.653242813342230555e+00,1.431278846329484683e-02,-2.184597182010404939e-02,-3.493785380233331295e-01
2.150000000000000000e+01,3.382780546442542002e-01,2.071372330196441236e-01,1.000240927346656289e-01,8.254495489951751974e-02,-1.195064709227937755e-01,1.105024864621509571e-05,-1.248696439559617965e-03,9.034017589752087532e-03,-2.696916458934730088e+00,8.640596052862492549e-03,-1.766155218154718751e-02,-3.493802245117842986e-01
2.175000000000000000e+01,3.479128686202845877e-01,1.918349003980826806e-01,1.000251620243747669e-01,7.156267116988496158e-02,-1.252105624753850899e-01,5.596185561578529773e-06,-1.147497490847190077e-03,1.098385019454770940e-02,-2.740587541931887028e+00,3.012458560829044639e-03,-1.136927193769908181e-02,-3.493732239988859289e-01
2.200000000000000000e+01,3.560361297816604931e-01,1.758128744432548851e-01,1.000253738856190511e-01,5.860227399715825514e-02,-1.308740533136786288e-01,-2.015536408531807890e-06,-8.454924099640810089e-04,1.189883406754582880e-02,-2.784255043851977085e+00,-1.655744495150512615e-03,-4.182861157388816781e-03,-3.493630636953357071e-01
2.225000000000000000e+01,3.624714505916227236e-01,1.591289955577051274e-01,1.000246819765081563e-01,4.477335091664925992e-02,-1.357194526436634463e-01,-8.400751114081904286e-06,-4.146582902338143443e-04,1.182516675390942948e-02,-2.827919749944232120e+00,-4.809655233331556687e-03,2.672490462624342068e-03,-3.493555815223135519e-01
2.250000000000000000e+01,3.671817920762379672e-01,1.419209629828010188e-01,1.000233990340454182e-01,3.116557754767613000e-02,-1.392462644567407370e-01,-1.138077964771162618e-05,6.785420236817932033e-05,1.094056819333017253e-02,-2.871583500923123644e+00,-6.296757755301810727e-03,8.205811084074180264e-03,-3.493537987819204660e-01
2.275000000000000000e+01,3.702559164397974945e-01,1.243697190550244469e-01,1.000219864756743404e-01,1.868551324437512165e-02,-1.412511451205873680e-01,-1.070759925937820672e-05,5.315952619193589721e-04,9.501168750834234136e-03,-2.915248138948191237e+00,-6.312241064023351410e-03,1.183774306784140043e-02,-3.493571398077569556e-01
2.300000000000000000e+01,3.718782195730823692e-01,1.066642801809533220e-01,1.000208302603456806e-01,7.955573466564121177e-03,-1.417893235879930380e-01,-7.643045304406716783e-06,9.214787736820794373e-04,7.780568997782792012e-03,-2.958914749887286977e+00,-5.276612755468607779e-03,1.347694362720373330e-02,-3.493627483478203843e-01
2.325000000000000000e+01,3.722907968900855957e-01,8.897406947475122729e-02,1.000201160612626400e-01,-7.109470085200918265e-04,-1.410985792712697307e-01,-3.932483560694493023e-06,1.202033449362870186e-03,6.013388711819078226e-03,-3.002583474426820498e+00,-3.682792103178721480e-03,1.348092017919007984e-02,-3.493675851977545155e-01
2.350000000000000000e+01,3.717571437502621423e-01,7.143174837095979390e-02,1.000198321266829449e-01,-7.263450443336843219e-03,-1.395120678524973956e-01,-8.904516993314149865e-07,1.357101129594151480e-03,4.354710336634577336e-03,-3.046253784462176650e+00,-1.954096275804216055e-03,1.250765447939242853e-02,-3.493699490507021221e-01
2.375000000000000000e+01,3.705351438675784648e-01,5.412632183474517383e-02,1.000198536115056436e-01,-1.181846547304870980e-02,-1.373841746314689305e-01,9.737156692094590444e-07,1.385812758557557417e-03,2.864150003951591861e-03,-3.089924921252626078e+00,-3.502838527704754982e-04,1.128813212453301171e-02,-3.493697806953987017e-01
2.400000000000000000e+01,3.688633223361634239e-01,3.710375750358350239e-02,1.000200380322529420e-01,-1.454994567270900298e-02,-1.350451344711459389e-01,1.812194400125163732e-06,1.296388254955143466e-03,1.518652390213013487e-03,-3.133596221248984737e+00,1.053729635559076932e-03,1.037351919256447944e-02,-3.493679723131245529e-01
2.425000000000000000e+01,3.669596056849227517e-01,2.037121265477512960e-02,1.000290805817654338e-01,-1.560412492556917732e-02,-1.327871471582049989e-01,2.077436756648803071e-05,1.099589119258709670e-03,2.519186492056754473e-04,3.105485000643243954e+00,2.317410213361555203e-03,9.924655535628747194e-03,-3.446785087707213702e-01
2.450000000000000000e+01,3.650271904601155026e-01,3.901207318002197777e-03,1.000284312477951743e-01,-1.507423691970605564e-02,-1.308751591577698714e-01,-1.555484792408625794e-05,8.042218186994217703e-04,-9.915763144828294070e-04,3.062132755761757252e+00,3.498997779625123792e-03,9.644587676159744119e-03,-3.481107514871558117e-01
2.475000000000000000e+01,3.632592131475417818e-01,-1.236553801551442365e-02,1.000264862679775546e-01,-1.304032831547812660e-02,-1.295548761792260917e-01,-1.413968350382218470e-05,4.150955639149488444e-04,-2.199953275188520126e-03,3.018548282933085414e+00,4.579049053200010336e-03,8.820890435056197298e-03,-3.490243449939894327e-01
2.500000000000000000e+01,3.618342537935760883e-01,-2.851772473864381749e-02,1.000249957547818952e-01,-9.672954630616686575e-03,-1.290486563224104710e-01,-9.992606428305600880e-06,-6.482533288910572941e-05,-3.258991108314528932e-03,2.974902746512924967e+00,5.344702353542296787e-03,6.612073483435839533e-03,-3.492651128685740347e-01
2.525000000000000000e+01,3.608970241657062927e-01,-4.466844762984488459e-02,1.000239320113650299e-01,-5.355512042827787096e-03,-1.295174572299397364e-01,-7.439030260983708833e-06,-6.290572907471846066e-04,-3.953688239327934548e-03,2.931241793442231902e+00,5.423276553832119366e-03,2.393974215771694017e-03,-3.493275130558289865e-01
2.550000000000000000e+01,3.605254604048717115e-01,-6.094347649260278138e-02,1.000230680190491162e-01,-7.717732055063551092e-04,-1.309949090621338741e-01,-6.644275017231607996e-06,-1.260649366077266995e-03,-4.012631084524731842e-03,2.887577017865279316e+00,4.405142694674136702e-03,-3.895414487800305612e-03,-3.493465488633066829e-01
2.575000000000000000e+01,3.606919730875930430e-01,-7.746053549696048368e-02,1.000222451482619401e-01,3.092658210189353201e-03,-1.333142332196718127e-01,-6.485123637430119145e-06,-1.926144273592343518e-03,-3.187926912842869217e-03,2.843910234244044766e+00,2.041117556535489846e-03,-1.155992974294851698e-02,-3.493614002617004277e-01
2.600000000000000000e+01,3.612318238487285393e-01,-9.430076765423825447e-02,1.000215040348359230e-01,5.063923727453997770e-03,-1.360614646893303081e-01,-5.042964749680495010e-06,-2.573260676065568502e-03,-1.349125834717092168e-03,2.800240258973550667e+00,-1.561369787394329594e-03,-1.919670248213331196e-02,-3.493833790865294442e-01
2.625000000000000000e+01,3.618328446980834667e-01,-1.114779298263833401e-01,1.000211152325437836e-01,3.999197728035521968e-03,-1.385887544263536275e-01,-8.199978598819667562e-07,-3.134397632646255833e-03,1.438769319607206268e-03,2.756565578901789770e+00,-5.833388689875620287e-03,-2.501310867291013998e-02,-3.494117919398876948e-01
2.650000000000000000e+01,3.620568691641236625e-01,-1.289142811837060421e-01,1.000214163907425652e-01,-9.383443772743349552e-04,-1.401067349602054535e-01,5.587044093783822906e-06,-3.536499490025882091e-03,4.882078892161644673e-03,2.712886118594393103e+00,-9.799597087813001831e-03,-2.733132617895658173e-02,-3.494381875002103288e-01
2.675000000000000000e+01,3.613949641088438081e-01,-1.464328768369575762e-01,1.000224924118911368e-01,-1.002716090253007696e-02,-1.398484866220486011e-01,1.089842197056411504e-05,-3.715750701229304526e-03,8.487941559109627235e-03,2.669204196615397873e+00,-1.230824930399021695e-02,-2.512670593475370417e-02,-3.494509844190808456e-01
2.700000000000000000e+01,3.593482104309769221e-01,-1.637731238952205570e-01,1.000239252286009572e-01,-2.283998517167019904e-02,-1.372683166971074564e-01,1.085171224503296320e-05,-3.633651836826718492e-03,1.165633863138841771e-02,2.625524052519589979e+00,-1.238173602597058762e-02,-1.841883871863895031e-02,-3.494422657333760562e-01
2.725000000000000000e+01,3.555167423407294969e-01,-1.806303643685380489e-01,1.000248777352105156e-01,-3.826001676998320306e-02,-1.322176802079126912e-01,3.485282508357012083e-06,-3.289970464708189164e-03,1.381443236584729319e-02,2.581849920778012564e+00,-9.574724759349045183e-03,-8.369629562283620663e-03,-3.494134650063132064e-01
2.750000000000000000e+01,3.496752343487925518e-01,-1.967126375341167466e-01,1.000245553068774551e-01,-5.467329831075166957e-02,-1.250377718005269700e-01,-8.564319550526403320e-06,-2.728321513379402489e-03,1.455766249205029186e-02,2.538183712635349920e+00,-4.206445836194442310e-03,2.965471024028514761e-03,-3.493756915946190644e-01
2.775000000000000000e+01,3.418149203828907967e-01,-2.118012218501586497e-01,1.000227542668149228e-01,-7.029631144415454669e-02,-1.165272862682776855e-01,-1.907912712343358370e-05,-2.031763465866214761e-03,1.375717816439294555e-02,2.494523888556222868e+00,2.634213239259638410e-03,1.316853789469231602e-02,-3.493437006572986392e-01
2.800000000000000000e+01,3.321403396754258330e-01,-2.257985738870423864e-01,1.000200677914225705e-01,-8.355462623913825770e-02,-1.077799687310488225e-01,-2.230047901582338886e-05,-1.308446359575178878e-03,1.160131421786955719e-02,2.450866408941997587e+00,9.335916221487418343e-03,2.010807134849635497e-02,-3.493274011267402113e-01
2.825000000000000000e+01,3.210209800169018801e-01,-2.387493105429454587e-01,1.000175495087025218e-01,-9.341088151720175481e-02,-9.992809838216092089e-02,-1.693475708579365475e-05,-6.702873310258576460e-04,8.557635207710417510e-03,2.407207145350654720e+00,1.419926133469876471e-02,2.250082701577230809e-02,-3.493269595951957740e-01
2.850000000000000000e+01,3.089100971208676993e-01,-2.508266570337192580e-01,1.000160656878957832e-01,-9.955486231625775007e-02,-9.386043812963594524e-02,-6.858880487929410010e-06,-2.098896009995856245e-04,5.265065560189506090e-03,2.363544042646152477e+00,1.592531708216220199e-02,2.021630081553808453e-02,-3.493347941814481383e-01
2.875000000000000000e+01,2.962514385781491733e-01,-2.622863521196548420e-01,1.000158201499432437e-01,-1.024098056754975394e-01,-8.999473168150513847e-02,2.004420161984681730e-06,1.840347342398190167e-05,2.385107466965591221e-03,2.319877591093664648e+00,1.400403918925052608e-02,1.424480770611560171e-02,-3.493423134664815910e-01
2.900000000000000000e+01,2.833969013662597791e-01,-2.733993831946929243e-01,1.000163825782539873e-01,-1.029627705138320276e-01,-8.817112054473960625e-02,5.964541991090859306e-06,8.561704914878208366e-06,4.514570110140817883e-04,2.276209559233114632e+00,8.878849346125382985e-03,6.359450056458767347e-03,-3.493458190218447501e-01
2.925000000000000000e+01,2.705539100508282946e-01,-2.843811522996630980e-01,1.000171320214630621e-01,-1.024752183002250877e-01,-8.769820326370234009e-02,5.544159130840228708e-06,-1.982651077398690960e-04,-2.437261667490143535e-04,2.232541245593052004e+00,1.834054356305576082e-03,-1.408310509485743382e-03,-3.493473270708551404e-01
2.950000000000000000e+01,2.577721796121809628e-01,-2.953357976140762453e-01,1.000177158344403849e-01,-1.021585693557138658e-01,-8.753898105845990540e-02,3.933293147192538972e-06,-5.254233356962498920e-04,3.000652706286659828e-04,2.188872665373605919e+00,-5.360990984707564126e-03,-7.314880515983805329e-03,-3.493506761039659181e-01
2.975000000000000000e+01,2.449685114948990383e-01,-3.062300820985661143e-01,1.000181741860559637e-01,-1.029016244206583802e-01,-8.658362922774667791e-02,3.724906363439041750e-06,-8.797549575005414804e-04,1.814183987477771022e-03,2.145203095510103797e+00,-1.094129222114752394e-02,-1.031608497851497011e-02,-3.493570026445562138e-01
3.000000000000000000e+01,2.319786498669572372e-01,-3.169028760245615750e-01,1.000187091059060451e-01,-1.051140999616332894e-01,-8.393234291716722417e-02,4.884088563061883040e-06,-1.173086898700190705e-03,3.845518901822288747e-03,2.101532222655278836e+00,-1.362070156537111693e-02,-1.024183693837779456e-02,-3.493634953787463360e-01
3.025000000000000000e+01,2.186195800490380037e-01,-3.271063978497822933e-01,1.000193711269055930e-01,-1.087119950113805272e-01,-7.911130134421372195e-02,5.395136522302115845e-06,-1.341030843763777814e-03,5.877571548250713762e-03,2.057860772770343516e+00,-1.291320623523632173e-02,-7.711759931037571146e-03,-3.493659529382940332e-01
3.050000000000000000e+01,2.047451620562690811e-01,-3.365669995407515325e-01,1.000199532889784471e-01,-1.132288868744510818e-01,-7.216717941416464499e-02,3.538954738370962576e-06,-1.354847378795265506e-03,7.454834723850979616e-03,2.014190125857827862e+00,-9.216126405046371275e-03,-3.848313347741935848e-03,-3.493623963575425151e-01
3.075000000000000000e+01,1.902822102935188830e-01,-3.450487530724559160e-01,1.000201529588722743e-01,-1.180050891412930125e-01,-6.362255042345577039e-02,-4.307384544496460715e-07,-1.224072642556107158e-03,8.279643650127229554e-03,1.970521353777173079e+00,-3.646857390883704621e-03,1.032719516946414227e-04,-3.493545573804787141e-01
3.100000000000000000e+01,1.752412729577093597e-01,-3.524034712919796863e-01,1.000198232440690227e-01,-1.223922747430469804e-01,-5.431390255223385310e-02,-4.531539545709771604e-06,-9.900418824923269256e-04,8.260921692691625476e-03,1.926854532469663539e+00,2.302123099956900933e-03,3.126416417482990803e-03,-3.493463491417652111e-01
3.125000000000000000e+01,1.597040086715572071e-01,-3.585956022668513321e-01,1.000190901243523667e-01,-1.259165596576388158e-01,-4.516408942552738864e-02,-6.691032107387573134e-06,-7.127107057002737963e-04,7.508650954927158575e-03,1.883188822827795761e+00,7.179668235115971991e-03,4.661140746756868396e-03,-3.493410186387458927e-01
3.150000000000000000e+01,1.437949674109281206e-01,-3.636979613310192261e-01,1.000182592538402110e-01,-1.283637323525102514e-01,-3.695420482597686768e-02,-6.214715392440255446e-06,-4.546572400933830758e-04,6.281888873373625386e-03,1.839523126954972332e+00,9.945772781205303864e-03,4.665075713610643965e-03,-3.493393753472337493e-01
3.175000000000000000e+01,1.276483600668157359e-01,-3.678622142645837645e-01,1.000176164046864408e-01,-1.297779691646604727e-01,-3.015429752227100080e-02,-3.977337412524369928e-06,-2.664787234867972785e-04,4.908178310588011059e-03,1.795856734282197165e+00,1.020200977122442607e-02,3.519074639026183605e-03,-3.493401247730321679e-01
3.200000000000000000e+01,1.113797646729071944e-01,-3.712742335068679456e-01,1.000172848453333568e-01,-1.303910171050874089e-01,-2.485149712290020060e-02,-1.479800341372096990e-06,-1.769748920565916706e-04,3.696701897767776940e-03,1.752189523664866355e+00,8.233966672456799127e-03,1.830647898006811840e-03,-3.493414828835375019e-01
3.225000000000000000e+01,9.506939731779143199e-02,-3.741074247773940598e-01,1.000172216095949196e-01,-1.305155393067816416e-01,-2.078481682648445489e-02,2.431667797942025910e-07,-1.898913898812436924e-04,2.866650662485167086e-03,1.708521732463034626e+00,4.866871050715202048e-03,2.085574822648554941e-04,-3.493425053399029645e-01
3.250000000000000000e+01,7.875894667231406188e-02,-3.764863226535828389e-01,1.000173108601832006e-01,-1.304407192941205440e-01,-1.746617450967543131e-02,1.024752183655999905e-06,-2.871246295963031359e-04,2.506980538091153465e-03,1.664853615267343212e+00,1.182171363535925628e-03,-9.202934130128109964e-04,-3.493432462217091472e-01
3.275000000000000000e+01,6.245958399769408614e-02,-3.784686318834511454e-01,1.000174553166170432e-01,-1.303607027298457344e-01,-1.434465820405134845e-02,1.215841743820503223e-06,-4.366886479447893116e-04,2.575179136345161213e-03,1.621185283323603121e+00,-1.820744017678730450e-03,-1.401534011381818517e-03,-3.493440541391122367e-01
3.300000000000000000e+01,4.616590140789010588e-02,-3.800477549096765717e-01,1.000176042734669396e-01,-1.303506185252831240e-01,-1.096168433282942480e-02,1.138375120478155961e-06,-6.027678844832011279e-04,2.932295833564357423e-03,1.577516765198201387e+00,-3.515223640048361145e-03,-1.335205783031329562e-03,-3.493449166577990428e-01
3.325000000000000000e+01,2.986988496550549779e-02,-3.811715658120313766e-01,1.000177313339090240e-01,-1.303864981394808609e-01,-7.051416375275844708e-03,8.694521314519796338e-07,-7.549771474323282733e-04,3.401239200535848689e-03,1.533848130729452919e+00,-3.795637745526316172e-03,-9.706505222374926019e-04,-3.493454297656107821e-01
3.350000000000000000e+01,1.357050394176677680e-02,-3.817687487315961636e-01,1.000178114207179031e-01,-1.303908014009562411e-01,-2.562381948636853393e-03,3.972144504440780300e-07,-8.744978710702928405e-04,3.827980247110234543e-03,1.490179525037024888e+00,-3.030169201692343474e-03,-5.676373530413929541e-04,-3.493452314954760829e-01
