time_total,x,y,z,vx,vy,vz,roll,pitch,yaw,roll_rate,pitch_rate,yaw_rate
e-01,9.991069882510553168e-02,7.465675230567429821e-02,1.077307829829605434e-01,3.797675476532841429e-04,-1.394667580448663785e-03,1.312886348042024455e-02,-7.551499099650842428e-01,2.764250199392866581e-03,1.662367768037321947e-02,-2.621462499928159939e-01
2.500000000000000000e-01,-3.989491606593055795e-01,3.332095858918326381e-01,9.995003118614154136e-02,8.799400604826103367e-02,9.713566096278550277e-02,2.599188809866173036e-04,-2.658803985728207774e-03,1.439176114223267126e-02,-7.879299295306205764e-01,-1.586871921589776829e-03,1.088994522324100538e-02,-2.620597826583346279e-01
5.000000000000000000e-01,-3.870142952522335755e-01,3.446536395886427018e-01,9.997659024826098528e-02,1.025607877822923425e-01,8.629083504559560691e-02,1.724868734593194819e-04,-3.244851250229727983e-03,1.475432026535221028e-02,-8.206916028439283917e-01,-4.981186740513246069e-04,-2.196638421767184868e-04,-2.619977158156635011e-01
7.500000000000000000e-01,-3.732659362096162337e-01,3.547219617895102095e-01,9.999386734650278497e-02,1.167219936132458252e-01,7.510491054543903811e-02,1.098562021293614526e-04,-2.661045167548818473e-03,1.422762667624465419e-02,-8.534308370977580216e-01,-5.847650953516917143e-05,-1.164751437788203933e-02,-2.619726303421073821e-01
1.000000000000000000e+00,-3.578684856540653714e-01,3.633674834188738711e-01,1.000047354972502939e-01,1.287605746334486712e-01,6.357820442999757848e-02,6.868453064932093398e-05,-1.230421615270690938e-03,1.279866409034861527e-02,-8.861583706985076692e-01,-3.228474409638248943e-03,-1.951827271014047044e-02,-2.619823981984614747e-01
1.250000000000000000e+00,-3.411721919305514827e-01,3.705768652073223590e-01,1.000116174825243232e-01,1.374769142037408076e-01,5.225858619039702724e-02,4.461860969008917162e-05,3.878068224116278193e-04,1.052954216212749830e-02,-9.188889591353663899e-01,-9.323534772500285603e-03,-2.233054125715726659e-02,-2.620117608035843482e-01
1.500000000000000000e+00,-3.236278679373468248e-01,3.764378038450470476e-01,1.000162974003059452e-01,1.424486795351529722e-01,4.214704334403561459e-02,3.217887057398782698e-05,1.641604312450469861e-03,7.637725990080324739e-03,-9.516309026174819552e-01,-1.554593038525127827e-02,-2.068265141266323326e-02,-2.620422951502082154e-01
1.750000000000000000e+00,-3.056912116059353757e-01,3.811701399190099426e-01,1.000199070467422263e-01,1.439648328023714063e-01,3.427527534792649405e-02,2.653789785885989273e-05,2.298821837905721307e-03,4.501703504510762288e-03,-9.843834337621107933e-01,-1.906049802417615624e-02,-1.624807960370429696e-02,-2.620614927662952010e-01
2.000000000000000000e+00,-2.877490289665544654e-01,3.851001444212974190e-01,1.000230256998113770e-01,1.427749688384878368e-01,2.926804332939647590e-02,2.360131634280939999e-05,2.424287324068919499e-03,1.583926481013104388e-03,-1.017141052993451922e+00,-1.844257782823874314e-02,-1.077408607240700963e-02,-2.620655856218414570e-01
2.250000000000000000e+00,-2.700801642896996646e-01,3.885920324913497148e-01,1.000257722290997520e-01,1.398076054958584391e-01,2.711387875746179912e-02,2.021100585125818524e-05,2.230594506548769750e-03,-6.941275145868192314e-04,-1.049898852333270183e+00,-1.406176331320724629e-02,-5.530465155830584581e-03,-2.620573038332853488e-01
2.500000000000000000e+00,-2.528481080866528674e-01,3.919685662863046094e-01,1.000279924523602287e-01,1.359524693217909197e-01,2.720852742977640168e-02,1.525650925139940246e-05,1.926267871516800304e-03,-2.071009382916667949e-03,-1.082654638033086369e+00,-7.601978613814099929e-03,-1.226884776730800689e-03,-2.620423602100592220e-01
2.750000000000000000e+00,-2.361150335125628275e-01,3.954514838301354529e-01,1.000295437428632417e-01,1.319318929805069762e-01,2.860322199078199276e-02,9.820320453624384614e-06,1.633728372486451062e-03,-2.513346471293859043e-03,-1.115408214533322617e+00,-1.208990715334887309e-03,1.821472225134854531e-03,-2.620267636186534022e-01
3.000000000000000000e+00,-2.198669987056336428e-01,3.991393455946686819e-01,1.000304804357280697e-01,1.282438805462914611e-01,3.033033287495750727e-02,5.612885080585637054e-06,1.384716125965745892e-03,-2.213540522087669923e-03,-1.148160144019792162e+00,3.285611360807891290e-03,3.517938174517854129e-03,-2.620150125350739212e-01
3.250000000000000000e+00,-2.040430683815868951e-01,4.030244460579136545e-01,1.000310137800258375e-01,1.251512021325650592e-01,3.168756772625405671e-02,3.286060488645783850e-06,1.159748901203630110e-03,-1.525229206803021447e-03,-1.180911148295002322e+00,4.829125864446635885e-03,3.916397852888591630e-03,-2.620090154527115467e-01
3.500000000000000000e+00,-1.885636705836282456e-01,4.070383203910983294e-01,1.000313471320306846e-01,1.227023323696204843e-01,3.240730531972361300e-02,2.205829920583386558e-06,9.310783251603978530e-04,-8.621365518347537827e-04,-1.213661903855931090e+00,3.281527549358455222e-03,3.244062922416904825e-03,-2.620080690655869904e-01
3.750000000000000000e+00,-1.733544377467311493e-01,4.111095026259194429e-01,1.000315756969396980e-01,1.207818562239749705e-01,3.268753182782602185e-02,1.494755436146693599e-06,6.848457139734257437e-04,-5.902186524800373318e-04,-1.246412848398313233e+00,-6.840285841215004541e-04,1.926752312672568935e-03,-2.620099061404261853e-01
4.000000000000000000e+00,-1.583618881564100578e-01,4.152167686463403284e-01,1.000317257633829005e-01,1.191888574897651820e-01,3.309706684081392680e-02,9.871944631761286205e-07,4.199836408755313753e-04,-9.379067763981980806e-04,-1.279164045243524228e+00,-5.805883577530418851e-03,5.387807124201011988e-04,-2.620120525465937100e-01
4.250000000000000000e+00,-1.435580385138504611e-01,4.194241335045729713e-01,1.000318490884086059e-01,1.177321290030726719e-01,3.438804574160853750e-02,1.123939542225486124e-06,1.355535258483739401e-04,-1.940830489523456218e-03,-1.311915217655915455e+00,-1.051984699593985079e-02,-3.390155609491990571e-04,-2.620126783281459537e-01
4.500000000000000000e+00,-1.289332358927360034e-01,4.238887342101881894e-01,1.000320419798945148e-01,1.163190763714575249e-01,3.725907816721339000e-02,2.015100596844851867e-06,-1.794747089791145622e-04,-3.429469529136051475e-03,-1.344665872475000690e+00,-1.328025019521074032e-02,-3.041853936314430898e-04,-2.620109216083396642e-01
4.750000000000000000e+00,-1.144798126412304162e-01,4.288385832084163907e-01,1.000323505924793771e-01,1.150103484635515011e-01,4.211858813908970350e-02,2.746673602809992257e-06,-5.461179268163994949e-04,-5.061178008094131646e-03,-1.377415445667978355e+00,-1.289092026242924863e-02,7.206360056364610007e-04,-2.620072666443247211e-01
5.000000000000000000e+00,-1.001723311443195319e-01,4.345235488938213320e-01,1.000326579826845835e-01,1.140193408197911346e-01,4.889975655614874767e-02,1.821431025639076867e-06,-9.853781099325780932e-04,-6.390851794718026106e-03,-1.410163583888417005e+00,-8.795477199956033831e-03,2.447105530253646313e-03,-2.620041615268377533e-01
5.250000000000000000e+00,-8.595176018872166535e-02,4.411490649192463254e-01,1.000326974403132757e-01,1.136528415933348440e-01,5.697250910114773359e-02,-1.423957826389235729e-06,-1.504342259631821560e-03,-6.967003420083183775e-03,-1.442910638533805523e+00,-1.256005917971676463e-03,4.308391240707102644e-03,-2.620061148511289573e-01
5.500000000000000000e+00,-7.172007859051889034e-02,4.488067740520155779e-01,1.000322439996703255e-01,1.142092056750948631e-01,6.518105305848244380e-02,-5.623324123638598003e-06,-2.085469424645791138e-03,-6.433800303607728303e-03,-1.475658105940535370e+00,8.641379151348663884e-03,5.643319806994035771e-03,-2.620182258224891814e-01
5.750000000000000000e+00,-5.734869690163997558e-02,4.574182323866858857e-01,1.000313678661490790e-01,1.158654138124163291e-01,7.200884183377011249e-02,-7.687605701109693438e-06,-2.683760816764577724e-03,-4.617138904523514914e-03,-1.508408488677478898e+00,1.917431439496719917e-02,5.911608198493695926e-03,-2.620431159145782951e-01
6.000000000000000000e+00,-4.269976189454575272e-02,4.667060794589997785e-01,1.000305340938180965e-01,1.185887447978924009e-01,7.584266699724542815e-02,-4.803794384548012131e-06,-3.232802732695299296e-03,-1.575504078366601543e-03,-1.541164283412437719e+00,2.833165848900837114e-02,4.868329655749710841e-03,-2.620778573206712370e-01
6.250000000000000000e+00,-2.765529695144359687e-02,4.762018156434715266e-01,1.000304062857866882e-01,1.221015814931114829e-01,7.528229730193725100e-02,3.148049150192811767e-06,-3.657503736444973029e-03,2.396334914903835381e-03,-1.573926454570603317e+00,3.424327732889998616e-02,2.644918094597133087e-03,-2.621132703617514159e-01
6.500000000000000000e+00,-1.214652152347271523e-02,4.852916278270767991e-01,1.000314254378479456e-01,1.259120863573185145e-01,6.942892330383958199e-02,1.265363261710860944e-05,-3.889641625645418824e-03,6.812743434334100380e-03,-1.606693311082003417e+00,3.559337495549120406e-02,-2.834000479265089568e-04,-2.621369423834952750e-01
6.750000000000000000e+00,3.824670006244854092e-03,4.932933583542472578e-01,1.000334315285873743e-01,1.294043882418348113e-01,5.808822318547933461e-02,1.813995473326176873e-05,-3.882164583443263768e-03,1.108320522299159963e-02,-1.639460656252702098e+00,3.192022270907000914e-02,-3.229587068644387392e-03,-2.621389616841441894e-01
7.000000000000000000e+00,2.017816358461073031e-02,4.995506962598551537e-01,1.000356128014260465e-01,1.319652098358852776e-01,4.184170078127456838e-02,1.530536585203742979e-05,-3.619108102229035354e-03,1.462121401901172665e-02,-1.672223373114859690e+00,2.372733616715313673e-02,-5.484508901211684190e-03,-2.621172682887000782e-01
7.250000000000000000e+00,3.676450657057206417e-02,5.035266763574283155e-01,1.000368694792562740e-01,1.331141497757271086e-01,2.196919213044176353e-02,4.025827504152158765e-06,-3.119382369526085049e-03,1.695262280256423087e-02,-1.704977695793414849e+00,1.237347826669997312e-02,-6.507846533387416990e-03,-2.620793055946746830e-01
7.500000000000000000e+00,5.338848937013834089e-02,5.048786177154179766e-01,1.000363955348965023e-01,1.326045792839783410e-01,2.393337902782311953e-04,-1.121674167003799564e-05,-2.434072192893310498e-03,1.779953643421312154e-02,-1.737722931194536136e+00,-2.333584878045498706e-04,-6.065570718702699947e-03,-2.620387069807643687e-01
7.750000000000000000e+00,6.984206069432379038e-02,5.035007494271488415e-01,1.000341221826735183e-01,1.304709617630949448e-01,-2.138535585684019774e-02,-2.376110888829991856e-05,-1.638066109678407720e-03,1.712180158077523592e-02,-1.770461682736899744e+00,-1.205578871470969204e-02,-4.278068602930197410e-03,-2.620088073154968056e-01
8.000000000000000000e+00,8.593910541232473166e-02,4.995278985036282760e-01,1.000307532197258625e-01,1.270132614564878915e-01,-4.106458201412722941e-02,-2.844376935780034281e-05,-8.177907784243640182e-04,1.510938330389853708e-02,-1.803198505971864929e+00,-2.134548214024752089e-02,-1.572278293815297483e-03,-2.619967056056309307e-01
8.250000000000000000e+00,1.015445063253569563e-01,4.933018561529058377e-01,1.000273902960825134e-01,1.227253367636800402e-01,-5.735287990490092747e-02,-2.415975604036029489e-05,-5.754063325445781099e-05,1.213178780031542309e-02,-1.835937809599379023e+00,-2.695240397085803610e-02,1.439640212591172591e-03,-2.620010579459798872e-01
8.500000000000000000e+00,1.165916686648508505e-01,4.853092465582800608e-01,1.000249956553622560e-01,1.181872458379321922e-01,-6.937991452898213673e-02,-1.389717511852883513e-05,5.728697316614239860e-04,8.660573710620260088e-03,-1.868682140066120212e+00,-2.846278692284685830e-02,4.113889197264129424e-03,-2.620142700661595159e-01
8.750000000000000000e+00,1.310856769233351704e-01,4.761041980785699623e-01,1.000240022572969623e-01,1.139479233910479922e-01,-7.691575887716582682e-02,-2.613457317275716542e-06,1.026879968060402963e-03,5.184579563211907591e-03,-1.901431613389736430e+00,-2.616632022362753648e-02,5.917793217653304419e-03,-2.620271974549446270e-01
9.000000000000000000e+00,1.450925750684295135e-01,4.662301754685584387e-01,1.000242453787424934e-01,1.104237833369296068e-01,-8.032538514291910625e-02,5.467042726147709529e-06,1.285198427437062073e-03,2.134585236303468588e-03,-1.934184524036406172e+00,-2.090154739039252682e-02,6.531703385216260614e-03,-2.620334944753715534e-01
9.250000000000000000e+00,1.587180764223798390e-01,4.561534232144165979e-01,1.000251816636888585e-01,1.078322688961682735e-01,-8.043639935262275609e-02,8.585291404228614551e-06,1.355058928290364412e-03,-1.723677161077693946e-04,-1.966938568825232325e+00,-1.384304353754438333e-02,5.897763729376266292e-03,-2.620315994630552647e-01
9.500000000000000000e+00,1.720808112473001805e-01,4.462167341501645512e-01,1.000262216339291160e-01,1.061702679114103487e-01,-7.835383339147530823e-02,7.568680358778754637e-06,1.265619547706179401e-03,-1.564947177785195763e-03,-1.999691966494119733e+00,-6.278708705028124455e-03,4.215406605267664648e-03,-2.620240282923755326e-01
9.750000000000000000e+00,1.852858506055703181e-01,4.366178497710567208e-01,1.000269882336436295e-01,1.052379488687336107e-01,-7.525763084798509084e-02,4.688698915337990795e-06,1.060856090553573966e-03,-2.025319465988967716e-03,-2.032443995660478286e+00,5.980594940610676254e-04,1.887940814057385581e-03,-2.620150277217236368e-01
1.000000000000000000e+01,1.984037474227294540e-01,4.274124774506408153e-01,1.000273979178646494e-01,1.046999509818215823e-01,-7.221593364969712547e-02,2.137290644428949134e-06,7.913806567666766901e-04,-1.673683954542156500e-03,-2.065194881335033816e+00,5.868089912575985209e-03,-5.726330822563072522e-04,-2.620081274155254825e-01
1.025000000000000000e+01,2.114588369357261743e-01,4.185380660494267269e-01,1.000275748880087856e-01,1.041685482310970856e-01,-7.004234443227233542e-02,9.810280354114811508e-07,5.064786839497306030e-04,-7.318610315229330185e-04,-2.097945289352280085e+00,9.019565580408707428e-03,-2.667796041625741538e-03,-2.620047697422557831e-01
1.050000000000000000e+01,2.244282709393158881e-01,4.098514284845946598e-01,1.000276915895666335e-01,1.032886110864813106e-01,-6.921749004692685781e-02,1.019203048174533640e-06,2.474437707572023880e-04,5.286712374979369872e-04,-2.130695801891858032e+00,1.000609731625009408e-02,-4.034445403043479018e-03,-2.620043721816874283e-01
1.075000000000000000e+01,2.372506582403318409e-01,4.011714890312713111e-01,1.000278441130784679e-01,1.018038179529894699e-01,-6.988320213776876011e-02,1.388920427738513666e-06,4.304887910208440030e-05,1.844426253797485336e-03,-2.163446642980243251e+00,9.204336577920638890e-03,-4.530218530057865574e-03,-2.620053634900432193e-01
1.100000000000000000e+01,2.498409058100925229e-01,3.923183745773617392e-01,1.000280217906829860e-01,9.958903551948607158e-02,-7.190208503502155957e-02,1.354233183378183564e-06,-9.231252958616779935e-05,3.009957798724290003e-03,-2.196197705697980229e+00,7.270314345532402113e-03,-4.250288857336264117e-03,-2.620063403963030502e-01
1.125000000000000000e+01,2.621066172422769625e-01,3.831419938786346790e-01,1.000281562115046957e-01,9.664445597779819375e-02,-7.495989493933863379e-02,7.341521965191900276e-07,-1.577138922348735755e-04,3.907497063933691901e-03,-2.228948749910674820e+00,4.930778678064910887e-03,-3.465167152070802031e-03,-2.620066737761724829e-01
1.150000000000000000e+01,2.739616723685789346e-01,3.735367800096772162e-01,1.000281893863525368e-01,9.305970423407033953e-02,-7.867852193099544866e-02,-1.883352668879217264e-07,-1.624636795459633433e-04,4.508837440615218704e-03,-2.261699590337337362e+00,2.774665639298280057e-03,-2.499695412360582007e-03,-2.620064345325984756e-01
1.175000000000000000e+01,2.853343274197557289e-01,3.634433908738259333e-01,1.000281091709322029e-01,8.896596400624703915e-02,-8.270768669451977750e-02,-1.028887873230849258e-06,-1.215560069261410975e-04,4.850970236584760051e-03,-2.294450171974250718e+00,1.112968821694114430e-03,-1.598638329540710140e-03,-2.620059702280973513e-01
1.200000000000000000e+01,2.961697089862695420e-01,3.528415550917344823e-01,1.000279413795021055e-01,8.449715415540490215e-02,-8.677411693167044748e-02,-1.586993681539067713e-06,-5.114160194217452830e-05,4.995725746733500026e-03,-2.327200541918707177e+00,-4.975017082439871723e-05,-8.320807557425745479e-04,-2.620055492589496438e-01
1.225000000000000000e+01,3.064289415598746569e-01,3.417398354355992707e-01,1.000277211647156300e-01,7.977582574033689755e-02,-9.068409928482389082e-02,-1.895935091711006711e-06,3.470354573787608286e-05,4.988975386231041600e-03,-2.359950786130482925e+00,-9.300541505414047913e-04,-8.112315977510066369e-05,-2.620052648811623808e-01
1.250000000000000000e+01,3.160883834029835082e-01,3.301674445368735777e-01,1.000274705563787975e-01,7.492746382853497644e-02,-9.429260424434178500e-02,-2.101508767327045195e-06,1.251357715693148008e-04,4.834946401269012498e-03,-2.392700988509567139e+00,-1.804949095510157862e-03,8.844396817878795100e-04,-2.620051311843395458e-01
1.275000000000000000e+01,3.251419803701163791e-01,3.181707816146236434e-01,1.000271949650944764e-01,7.011262367181822497e-02,-9.746343210111169109e-02,-2.300904465939337794e-06,2.116492703056186873e-04,4.495793650839056792e-03,-2.425451226208079181e+00,-2.841050284814111877e-03,2.261270454130234839e-03,-2.620051958257604841e-01
1.300000000000000000e+01,3.336076608830881862e-01,3.058141122963488612e-01,1.000268971044232930e-01,6.555549664542965893e-02,-1.000460010845330705e-01,-2.435679573582970157e-06,2.859583914953281827e-04,3.917221277013024743e-03,-2.458201579616641208e+00,-3.982827859872794911e-03,4.057372048760009113e-03,-2.620055376288196736e-01
1.325000000000000000e+01,3.415357622757350109e-01,2.931811163106798346e-01,1.000265970187244335e-01,6.154518430553423264e-02,-1.018850550604342986e-01,-2.307694614718595325e-06,3.379882344587850185e-04,3.070601187245359902e-03,-2.490952123596051671e+00,-4.946908712224994120e-03,5.996770728844301110e-03,-2.620061333455912522e-01
1.350000000000000000e+01,3.490149496914028426e-01,2.803730026304004364e-01,1.000263397460144782e-01,5.839441765954593577e-02,-1.028632894371379614e-01,-1.754378319014193632e-06,3.552913620096331371e-04,1.994495103305768662e-03,-2.523702882369291078e+00,-5.327348030680424326e-03,7.538793986679337422e-03,-2.620067135983691897e-01
1.375000000000000000e+01,3.561702234257095312e-01,2.675000035287607991e-01,1.000261749259564736e-01,5.635760245604962138e-02,-1.029602075906727587e-01,-8.888951395046866031e-07,3.246544583137079068e-04,8.169598717763636858e-04,-2.556453773059117029e+00,-4.771091173090236462e-03,8.025450649830918187e-03,-2.620068106904883676e-01
1.400000000000000000e+01,3.631491305784673718e-01,2.546658979432229186e-01,1.000261153789967217e-01,5.552973289971072784e-02,-1.023003915957687443e-01,-1.564279277846735639e-07,2.357460481584419448e-04,-2.543769855233871872e-04,-2.589204605099488354e+00,-3.152409156969186461e-03,6.917741951672939059e-03,-2.620061069506534612e-01
1.425000000000000000e+01,3.700959993251250468e-01,2.419486310724499045e-01,1.000261118300395657e-01,5.576181979562080948e-02,-1.011653080639927094e-01,-2.564024294544864100e-08,8.571448357463934279e-05,-9.763132724775412099e-04,-2.621955189469726832e+00,-6.727541024894870747e-04,4.038442342360468694e-03,-2.620048923671940977e-01
1.450000000000000000e+01,3.771187348497815339e-01,2.293826506907708784e-01,1.000260820238185050e-01,5.663022490627672711e-02,-9.995488118545699241e-02,-5.000487394185801370e-07,-1.169644824816161156e-04,-1.137036158983284343e-03,-2.654705517114353430e+00,2.160010617822386968e-03,-2.757795305675194743e-04,-2.620041714040400316e-01
1.475000000000000000e+01,3.842566908917240953e-01,2.169491213742504310e-01,1.000259854401628762e-01,5.748417037913201855e-02,-9.910386751988783938e-02,-9.546478477469805293e-07,-3.511120055362367746e-04,-6.251039208203118275e-04,-2.687455857795175262e+00,4.671520957447847754e-03,-5.185393821026365764e-03,-2.620050897343036422e-01
1.500000000000000000e+01,3.914596614060603108e-01,2.045783326443954830e-01,1.000258770079120035e-01,5.757116042739646167e-02,-9.897612862571780745e-02,-6.202582600677096016e-07,-5.850416737513131071e-04,5.231057473901411497e-04,-2.720206636510775322e+00,6.230196536627757332e-03,-9.536495439885215794e-03,-2.620079405434656561e-01
1.525000000000000000e+01,3.985862161740172382e-01,1.921649725954426846e-01,1.000258725742020904e-01,5.621279750892102522e-02,-9.976984970341831738e-02,6.103585823970529529e-07,-7.823361013774557046e-04,2.114813888032287138e-03,-2.752958113335025825e+00,6.447768461949109596e-03,-1.217139509311817094e-02,-2.620115624512805441e-01
1.550000000000000000e+01,4.054247816926124237e-01,1.795928234486610653e-01,1.000260353382829981e-01,5.298411770103749613e-02,-1.014644505975345751e-01,1.839390138891993595e-06,-9.100109329853935287e-04,3.835530849775092063e-03,-2.785710098129885459e+00,5.297701720848467868e-03,-1.225667490652090387e-02,-2.620138141048612979e-01
1.575000000000000000e+01,4.117345867851032182e-01,1.667623733820673138e-01,1.000262789028684429e-01,4.784586500886148230e-02,-1.038263743825575958e-01,1.753041631079769665e-06,-9.469718986947636913e-04,5.317082552730162739e-03,-2.818461964512657847e+00,3.113776030870687040e-03,-9.519841605612510901e-03,-2.620129524419948508e-01
1.600000000000000000e+01,4.172979554092971499e-01,1.536139083992305587e-01,1.000263869955880791e-01,4.119212132775928320e-02,-1.064717951409507035e-01,-2.541828840509757098e-07,-8.904044714410820497e-04,6.219297697383426547e-03,-2.851213012172168160e+00,4.795112996514452148e-04,-4.327980423204415457e-03,-2.620088927922414324e-01
1.625000000000000000e+01,4.219721968831939840e-01,1.401400591580183597e-01,1.000261565698454536e-01,3.379938037059521810e-02,-1.089671095714433713e-01,-3.376717780186094745e-06,-7.582151069417161337e-04,6.304068873985520585e-03,-2.883962929381296281e+00,-1.943458452732575725e-03,2.393981485775004744e-03,-2.620033226361959677e-01
1.650000000000000000e+01,4.257292432041628327e-01,1.263848766448008309e-01,1.000255620122197237e-01,2.668794780922427792e-02,-1.109386485750567669e-01,-5.769801066018802926e-06,-5.867028413230613833e-04,5.486226722003595228e-03,-2.916711994659016760e+00,-3.588824217246504213e-03,9.356735922840721947e-03,-2.619985359351332255e-01
1.675000000000000000e+01,4.286738041723380244e-01,1.124301720637654184e-01,1.000248103173762976e-01,2.092459273842503520e-02,-1.121630773173636075e-01,-5.786332188771064530e-06,-4.239065165349265290e-04,3.854447856902453069e-03,-2.949460841750875861e+00,-4.115432760045401213e-03,1.514811566775673031e-02,-2.619958775902160308e-01
1.700000000000000000e+01,4.310350739413258969e-01,9.837300377218716196e-02,1.000242317772599421e-01,1.740392924723380141e-02,-1.126173290414512057e-01,-3.204113457993629743e-06,-3.201226338800094041e-04,1.662527770107046074e-03,-2.982209953029143712e+00,-3.472477939557957333e-03,1.847628961090144739e-02,-2.619949994397210991e-01
1.725000000000000000e+01,4.331318373626716900e-01,8.430014976588746933e-02,1.000240679052661202e-01,1.664712717609180895e-02,-1.124778558155292568e-01,4.404096476757830033e-07,-3.176270664793460759e-04,-7.054919026394739466e-04,-3.014959275941134553e+00,-1.898847283717217853e-03,1.839475450707424992e-02,-2.619945351119277177e-01
1.750000000000000000e+01,4.353155021740411912e-01,7.026594311033212970e-02,1.000242969417126232e-01,1.865390056475021638e-02,-1.120702953425697784e-01,2.737318783262862364e-06,-4.416088559360923120e-04,-2.792547751327840912e-03,-3.047708298614158373e+00,1.357148125685602032e-04,1.450036879690665484e-02,-2.619937624943127208e-01
1.775000000000000000e+01,4.378997990834758158e-01,5.627904201390779293e-02,1.000246285502163213e-01,2.283907731878053599e-02,-1.117807445841892955e-01,2.064740251516722188e-06,-6.939109684619075135e-04,-4.143860634059294730e-03,-3.080456601368114722e+00,2.037861122119136604e-03,7.083903991233278519e-03,-2.619940127802012908e-01
1.800000000000000000e+01,4.410893363667929279e-01,4.230175080580120262e-02,1.000247013952574732e-01,2.807701374274627210e-02,-1.119481186054188254e-01,-1.019608000178318177e-06,-1.050630373262312215e-03,-4.393004618589187518e-03,-3.113204519670908166e+00,3.232954492698119405e-03,-2.810066007708057235e-03,-2.619985233903503463e-01
1.825000000000000000e+01,4.449212549688882357e-01,2.826266750371037723e-02,1.000264825959168435e-01,3.286322805248947237e-02,-1.127630431278333345e-01,1.750332865613787956e-04,-1.463560444436806185e-03,-3.346090418345651438e-03,3.136253099551745915e+00,3.478606330802967890e-03,-1.353967674987421876e-02,-2.835972348981688484e-01
1.850000000000000000e+01,4.492338609682698936e-01,1.408000784251394084e-02,1.000329140403139749e-01,3.557444750183946097e-02,-1.141995659667855434e-01,-5.567616218889768328e-06,-1.868702510707826586e-03,-1.044170889779519893e-03,3.104189375147102581e+00,2.190085011954365050e-03,-2.277251566017620549e-02,-2.588748592557016392e-01
1.875000000000000000e+01,4.536729518809416439e-01,-3.093093414662873909e-04,1.000310113202031309e-01,3.480270848580058196e-02,-1.159979472047662080e-01,-1.633696790021704759e-05,-2.194475376113183551e-03,2.214300185712552316e-03,3.071648292852507289e+00,1.391724001743401863e-04,-2.863452826000143295e-02,-2.612077966213842695e-01
1.900000000000000000e+01,4.577390978761942120e-01,-1.492396683376467567e-02,1.000295923418677985e-01,2.966455449589682630e-02,-1.177253155896398062e-01,-6.193989768117556795e-06,-2.375514143665372578e-03,5.904381243585345683e-03,3.038947533074391139e+00,-2.261323448258840182e-03,-2.947772839520386781e-02,-2.618386312378900849e-01
1.925000000000000000e+01,4.608703543321308049e-01,-2.972259379957383971e-02,1.000293690595157603e-01,2.004638673005262883e-02,-1.188783886502503689e-01,1.204453813071750603e-06,-2.366182860167593931e-03,9.364443796062485101e-03,3.006204869792197698e+00,-4.229863090204249824e-03,-2.470182317349118445e-02,-2.620026583308073254e-01
1.950000000000000000e+01,4.625460489816987097e-01,-4.460411944549982910e-02,1.000295413579325304e-01,6.693502892103174798e-03,-1.190274464388568348e-01,5.460150369535711177e-08,-2.152130903115630819e-03,1.192684972010813263e-02,2.973454359513247436e+00,-5.028653216871966682e-03,-1.491090795136885971e-02,-2.620304394117213831e-01
1.975000000000000000e+01,4.623899711496469167e-01,-5.942610631305888375e-02,1.000290352827259283e-01,-8.884837804386690532e-03,-1.179533882049401128e-01,-8.746075461549339647e-06,-1.756117752307080311e-03,1.306058676704043194e-02,2.940706227017742425e+00,-4.195800050537565849e-03,-1.848461827386722748e-03,-2.620173168455246504e-01
2.000000000000000000e+01,4.602500856692989251e-01,-7.403758158781054144e-02,1.000272459391226970e-01,-2.468453068312425128e-02,-1.157380309239913335e-01,-1.914780240977533799e-05,-1.236558763621744194e-03,1.249037129164557586e-02,2.907962054714510192e+00,-1.711537774624354415e-03,1.197249521485792972e-02,-2.619980770971238049e-01
2.025000000000000000e+01,4.562362118460163707e-01,-8.831843855293733392e-02,1.000244649057668994e-01,-3.859339706517953689e-02,-1.127780394165701777e-01,-2.373712651994217367e-05,-6.783256558164349253e-04,1.026095335085096261e-02,2.875219510520795385e+00,1.962422393279662867e-03,2.385024123199120868e-02,-2.619878138940253676e-01
2.050000000000000000e+01,4.507191492716448589e-01,-1.021735436456622098e-01,1.000232920944544024e-01,-4.826226374905458888e-02,-1.079398694525680741e-01,2.059010726303718496e-05,7.369131991826364213e-03,6.609263999070014856e-03,2.858066483075357489e+00,-1.350498800510886999e-01,7.564094259770931528e-02,4.608654305530234668e-02
2.075000000000000000e+01,4.446000295668535163e-01,-1.144796546310933028e-01,1.000399539779183861e-01,-4.750825214533863777e-02,-8.556662448503184193e-02,2.563501627730208348e-04,2.969054448437050825e-02,1.623613031648331404e-03,2.876191575660125288e+00,-1.561363842511142574e-01,8.783638202243188031e-02,2.033599755475196114e-01
2.100000000000000000e+01,4.393828854375461668e-01,-1.224574167878854924e-01,1.000755209842376647e-01,-3.467839550776458807e-02,-4.063715176560494385e-02,2.233898001966361105e-04,4.509762192801318459e-02,-3.969420028294416702e-03,2.904861908380480084e+00,-5.261827902871835799e-02,5.777785758292572349e-02,2.452802169354118267e-01
2.125000000000000000e+01,4.363042842267675359e-01,-1.240652790238709613e-01,1.000783048645582651e-01,-1.454988842732206702e-02,1.304210475469595037e-02,-1.782155215792226972e-04,4.480747284589332857e-02,-8.786985001205773957e-03,2.936427298172483269e+00,6.497421355218420402e-02,1.896944292220191508e-02,2.568915476694486610e-01
2.150000000000000000e+01,4.358913390308569724e-01,-1.193482140452616636e-01,1.000397191782793904e-01,7.063664893587056660e-03,5.843057922858019976e-02,-3.636011414994169645e-04,3.231669511918370402e-02,-1.153632699608995830e-02,2.968932229332706285e+00,1.254640882040465866e-01,-9.607764407532463913e-03,2.603092263361911352e-01
2.175000000000000000e+01,4.380476863293961687e-01,-1.100586983732226021e-01,1.000023637642959984e-01,2.618219031070219416e-02,8.611480757880447812e-02,-2.055428957518797256e-04,1.646013875647947891e-02,-1.175323256743804508e-02,3.001739842553241555e+00,1.159614840830211352e-01,-2.386636872079102301e-02,2.613748031981583120e-01
2.200000000000000000e+01,4.423303015530452020e-01,-9.845495578261470593e-02,9.999005311948794272e-02,4.109144714054815267e-02,9.685799090013795520e-02,-1.526789316612852534e-05,4.746575523509083579e-03,-9.873960523367142361e-03,3.034568378772828368e+00,6.438074320240204373e-02,-2.802148088839774565e-02,2.617425327788047151e-01
2.225000000000000000e+01,4.481856106621522895e-01,-8.622592669458373216e-02,9.999346749596803308e-02,5.151189867077869688e-02,9.787693582652429169e-02,4.896308218183430727e-05,9.870345915705167441e-05,-6.794913001754686321e-03,3.067338845616643273e+00,9.231539659249689972e-03,-2.772452141522761468e-02,2.619106262070551305e-01
2.250000000000000000e+01,4.550639225278776956e-01,-7.404956799624619335e-02,9.999985089331014931e-02,5.763972725632147964e-02,9.722906335418322887e-02,5.014053016279884563e-05,1.160019286109761081e-03,-3.352349144971047013e-03,3.100081102455922277e+00,-2.348018609656545713e-02,-2.649070739927796014e-02,2.620237637687898857e-01
2.275000000000000000e+01,4.624404334087978685e-01,-6.177211883189965419e-02,1.000060048753040887e-01,5.963744874186083234e-02,9.985066189253233304e-02,4.877978209088778806e-05,4.573938094458081596e-03,-3.293666969448446946e-05,3.132834263115349849e+00,-2.812759626828641515e-02,-2.528335537372372252e-02,2.621071027581401980e-01
2.300000000000000000e+01,4.698041491177929463e-01,-4.889340875985539320e-02,1.000203371034143751e-01,5.758430408457793775e-02,1.065496903238091070e-01,7.226342189721769184e-05,7.336673663840199110e-03,3.011927509231631002e-03,-3.117086209555197662e+00,-1.427026422080917255e-02,-2.363901626139144202e-02,2.568022150119331215e-01
2.325000000000000000e+01,4.766580477167715046e-01,-3.501590518383093653e-02,1.000242877312745304e-01,5.165558449139576874e-02,1.153025468387840480e-01,1.010468926627279271e-05,8.040416375931551396e-03,5.789748360998134107e-03,-3.084676879166166064e+00,3.842071047220999534e-03,-2.101951144210267505e-02,2.607312382042593635e-01
2.350000000000000000e+01,4.825406674631723125e-01,-2.006405591241073108e-02,1.000245267130898535e-01,4.224742671501539176e-02,1.233383899895227342e-01,-2.634204672132042401e-06,6.872373160482483402e-03,8.280177509326355073e-03,-3.052013158520789471e+00,1.577597846841011231e-02,-1.724066671964259376e-02,2.617650408358181968e-01
2.375000000000000000e+01,4.870563239398758570e-01,-4.265613695476684619e-03,1.000240946396490083e-01,3.000307469428238963e-02,1.287311229314028471e-01,-3.195431684641234104e-06,4.853098712966204438e-03,1.037011342953414808e-02,-3.019290840579986313e+00,1.829468050545387039e-02,-1.264441824816986935e-02,2.620268976620995227e-01
2.400000000000000000e+01,4.899014974524982247e-01,1.200082831598997708e-02,1.000238134989948624e-01,1.572844500534668899e-02,1.309525836465150195e-01,-1.597634839628134458e-06,2.994149663617887407e-03,1.190633008716540653e-02,-2.986553548843115635e+00,1.391201016193579706e-02,-7.775947500741742409e-03,2.620834111985296255e-01
2.425000000000000000e+01,4.908771614696744168e-01,2.836642783596530007e-02,1.000235757946516535e-01,2.684391740661528584e-04,1.305505452723379756e-01,-2.671916959862794529e-06,1.812036734114437367e-03,1.278595714360835668e-02,-2.953807508883679933e+00,7.326742823423089933e-03,-3.126410600760887257e-03,2.620819934300780418e-01
2.450000000000000000e+01,4.898868292494722443e-01,4.456351498770321634e-02,1.000230586661044890e-01,-1.559187559728210208e-02,1.284676386846621832e-01,-5.585992794245682202e-06,1.284039358101020248e-03,1.301451688561918417e-02,-2.921055244733451683e+00,2.280111906412865801e-03,9.887156083005187168e-04,2.620627658559798179e-01
2.475000000000000000e+01,4.869252544090460488e-01,6.043539433469210381e-02,1.000221967091446396e-01,-3.117859944399269112e-02,1.254737433781564215e-01,-7.884225047278255145e-06,1.085051469196821874e-03,1.269774438512665318e-02,-2.888301373881412726e+00,1.539243704917668759e-04,4.449510881332826434e-03,2.620415533593434265e-01
2.500000000000000000e+01,4.820636113683832713e-01,7.589616728543141511e-02,1.000211524937167223e-01,-4.593752675707953731e-02,1.219366327832861613e-01,-8.525338987335447498e-06,8.749898800469988781e-04,1.198169790895416663e-02,-2.855549799064309280e+00,2.606670464809973447e-04,7.305469709143427338e-03,2.620271195078092696e-01
2.525000000000000000e+01,4.754355681920531818e-01,9.088320768395102833e-02,1.000201229559850857e-01,-5.941494033552006254e-02,1.179030933735178560e-01,-7.800601167552428120e-06,4.764281201102025316e-04,1.098239557401130446e-02,-2.822801367769627756e+00,9.958225431674248233e-04,9.726616252192558931e-03,2.620226411295208946e-01
2.550000000000000000e+01,4.672267205041034654e-01,1.053312028769137904e-01,1.000192344082643375e-01,-7.122580756801148716e-02,1.133269616190715479e-01,-6.406697052957002284e-06,-9.886693313500744028e-05,9.743560004263764757e-03,-2.790054310422040995e+00,9.592278529076556310e-04,1.192590772846564319e-02,2.620266426928962167e-01
2.575000000000000000e+01,4.576680755968227099e-01,1.191748296424491871e-01,1.000185321058682242e-01,-8.102297796570248622e-02,1.082770743976496780e-01,-4.882557532881858027e-06,-7.255177667804237280e-04,8.239349654808684684e-03,-2.757306090788789188e+00,-4.597348057479167384e-04,1.405164262186138838e-02,2.620355184634047818e-01
2.600000000000000000e+01,4.470325890227561105e-01,1.323706637208622305e-01,1.000180215213689050e-01,-8.848091309415767602e-02,1.030331476030544591e-01,-3.310733955243043346e-06,-1.263765730419605469e-03,6.414742127282132070e-03,-2.724554963900090776e+00,-3.072945379878064438e-03,1.607694116489266634e-02,2.620458948214651751e-01
2.625000000000000000e+01,4.356321090147395880e-01,1.449231049498651003e-01,1.000177282518949495e-01,-9.330627722540167646e-02,9.806256332913008966e-02,-1.345068296964329037e-06,-1.624718409727482884e-03,4.241780076393800690e-03,-2.691800559100415491e+00,-6.213328611723909975e-03,1.773366016772747258e-02,2.620555099377763764e-01
2.650000000000000000e+01,4.238108607888550483e-01,1.569019690589358307e-01,1.000177246818342719e-01,-9.528190000702713158e-02,9.392188977626934887e-02,1.311804484551876952e-06,-1.784490705782597851e-03,1.768577814048183372e-03,-2.659043642374395500e+00,-9.092592031464634753e-03,1.853158523545406916e-02,2.620627812318627736e-01
2.675000000000000000e+01,4.119314506389373798e-01,1.684457965607218666e-01,1.000180833950239517e-01,-9.433970985936412923e-02,9.113522853603228668e-02,4.308146084891692101e-06,-1.762476228566349458e-03,-8.544996426007907134e-04,-2.626285554388950061e+00,-1.102586910644017329e-02,1.787562939211957691e-02,2.620661470678062321e-01
2.700000000000000000e+01,4.003507642298419489e-01,1.797504398560286765e-01,1.000187784784692668e-01,-9.064517287977919002e-02,9.008371040435081412e-02,6.477932941926350184e-06,-1.590622770257097340e-03,-3.377710363036233367e-03,-2.593527748033942260e+00,-1.150906408140638278e-02,1.525922960588680863e-02,2.620641893582404403e-01
2.725000000000000000e+01,3.893860488342453796e-01,1.910453618326707348e-01,1.000196121278181388e-01,-8.466523483689686325e-02,9.091956799005443401e-02,6.393293198668106075e-06,-1.294101608955528990e-03,-5.483408670771934904e-03,-2.560771504729358217e+00,-1.023164159624959796e-02,1.048291625185228393e-02,2.620567084764809374e-01
2.750000000000000000e+01,3.792752871208305843e-01,2.025610032474947642e-01,1.000202469831703855e-01,-7.718828946812851532e-02,9.350887758523518389e-02,3.406998225735606155e-06,-8.895496913212377812e-04,-6.841801229084129923e-03,-2.528017634245322665e+00,-7.112364607779092171e-03,3.829412283179140213e-03,2.620459115365662561e-01
2.775000000000000000e+01,3.701395906385777090e-01,2.144912073108072303e-01,1.000203656843706018e-01,-6.927131291588398132e-02,9.741042922621391542e-02,-1.483832360277806641e-06,-3.951369475477885295e-04,-7.183019028904314394e-03,-2.495266066081241352e+00,-2.383181065643254562e-03,-3.874823769804861245e-03,2.620364084860016818e-01
2.800000000000000000e+01,3.619574413753214870e-01,2.269561004597586418e-01,1.000198831867836480e-01,-6.210646929156061341e-02,1.019052000102572686e-01,-5.737453379199346759e-06,1.579849619472839105e-04,-6.372139737614489208e-03,-2.462515603354598515e+00,3.329176639901731093e-03,-1.136142740327615933e-02,2.620332931826380718e-01
2.825000000000000000e+01,3.545600282946068105e-01,2.399727191487302791e-01,1.000190625928266130e-01,-5.682414609684727919e-02,1.060901916393516137e-01,-6.648413396522896782e-06,7.212055662662600558e-04,-4.467846007758721760e-03,-2.429764262655027540e+00,9.012618255632565481e-03,-1.719005457960873923e-02,2.620390443960492477e-01
2.850000000000000000e+01,3.476531377215471563e-01,2.534416066603777384e-01,1.000184069506251661e-01,-5.427455510798935567e-02,1.090360142890312717e-01,-3.326691001378813169e-06,1.233847633210524751e-03,-1.743168694512800369e-03,-2.397010266599154615e+00,1.343544018908008481e-02,-2.012852728768197916e-02,2.620513033960946703e-01
2.875000000000000000e+01,3.408646062500333973e-01,2.671559982399527855e-01,1.000183460123509060e-01,-5.484608739862741056e-02,1.099830382471026075e-01,2.243084326995494809e-06,1.636075562026795402e-03,1.347405614540886365e-03,-2.364253142547518838e+00,1.546064539363243076e-02,-1.952911088056385677e-02,2.620635049991560384e-01
2.900000000000000000e+01,3.338089650565754241e-01,2.808354621145338625e-01,1.000189215938130788e-01,-5.837695010967982462e-02,1.085273510831404747e-01,6.259355554108110282e-06,1.884005894121749090e-03,4.255654609926756010e-03,-2.331494115975235371e+00,1.441824274270069907e-02,-1.556782982817040209e-02,2.620684879182588189e-01
2.925000000000000000e+01,3.261550637336768643e-01,2.941789332519181843e-01,1.000197280187275078e-01,-6.419457612384221745e-02,1.047378774153499698e-01,5.828090608436088950e-06,1.961432751938744709e-03,6.464599660277549342e-03,-2.298735421260739376e+00,1.039622789153265073e-02,-9.248594510749816311e-03,2.620628254076849961e-01
2.950000000000000000e+01,3.176804204284565114e-01,3.069252532582841808e-01,1.000201900526186960e-01,-7.128065815513290326e-02,9.915748804373021585e-02,1.234692485746024654e-06,1.884286953685814989e-03,7.617721673338838720e-03,-2.265978980021218447e+00,4.322236399170532699e-03,-2.152536467319845180e-03,2.620487779324144340e-01
2.975000000000000000e+01,3.082988777386637125e-01,3.189052970644697949e-01,1.000199770497854773e-01,-7.852075023779753193e-02,9.267241914579306405e-02,-4.273136045940054953e-06,1.696538788478119206e-03,7.614082198999310401e-03,-2.233225394566833000e+00,-2.223554906623398299e-03,3.996101113814883032e-03,2.620324817761223168e-01
3.000000000000000000e+01,2.980552229541478249e-01,3.300704541695174132e-01,1.000192190956439159e-01,-8.497009324297752353e-02,8.627577945290212935e-02,-7.119884896100534829e-06,1.458799347854004705e-03,6.638806295086820131e-03,-2.200473913829889216e+00,-7.426259895083200425e-03,7.809886237797175439e-03,2.620199455239609065e-01
3.025000000000000000e+01,2.870895976018832951e-01,3.404879505950568208e-01,1.000183571548111244e-01,-9.006157173361924173e-02,8.078758565938394531e-02,-6.139606505640576963e-06,1.232792180762048041e-03,5.116999526789793758e-03,-2.167723214030154555e+00,-9.760462625206061532e-03,8.610523652433890035e-03,2.620140042684676596e-01
3.050000000000000000e+01,2.755828518852037612e-01,3.503027295542289754e-01,1.000177837952445081e-01,-9.369967162808598427e-02,7.661207552063649395e-02,-3.003301636281154070e-06,1.065833979406716507e-03,3.602247562079202454e-03,-2.134972240556700651e+00,-8.453815786949155087e-03,6.579069364538612727e-03,2.620141671136101413e-01
3.075000000000000000e+01,2.636988530920119644e-01,3.596755076013973818e-01,1.000176036741200342e-01,-9.621974775274207137e-02,7.360576769643648043e-02,-1.677870963167115446e-07,9.793339468151486191e-04,2.630610388177535494e-03,-2.102220491221461707e+00,-3.738780111217593002e-03,2.646411335928691971e-03,2.620185578815686367e-01
3.100000000000000000e+01,2.515396950006556498e-01,3.687140023048276483e-01,1.000176980361151546e-01,-9.823264219283515952e-02,7.109854310818079781e-02,1.466593758505218180e-06,9.641732697236408012e-04,2.581071955304823414e-03,-2.069467777668673403e+00,3.190661462935946539e-03,-1.827549471033063175e-03,2.620255699734929666e-01
3.125000000000000000e+01,2.391250049490359353e-01,3.774167729835690710e-01,1.000179680475170030e-01,-1.004071464007681436e-01,6.806496814263569839e-02,2.897331645638000571e-06,9.839929827553041582e-04,3.580583700560065717e-03,-2.036713993116959109e+00,1.050242920468536303e-02,-5.472203010551239706e-03,2.620338038099301881e-01
3.150000000000000000e+01,2.263988508239774544e-01,3.856458390349436494e-01,1.000184708055314037e-01,-1.032568925701205370e-01,6.339918049876536177e-02,5.233344369359239222e-06,9.853988287824987525e-04,5.477205848170698353e-03,-2.003959273575558253e+00,1.622204039529630618e-02,-7.285443424606926829e-03,2.620410904795089646e-01
3.175000000000000000e+01,2.132596932795097489e-01,3.931363608843922441e-01,1.000192991477674848e-01,-1.069908199145314931e-01,5.621845841509019032e-02,7.802788877314898323e-06,9.123983313980653766e-04,7.883670389595280256e-03,-1.971204368797886852e+00,1.874194761735008610e-02,-6.863753711438354624e-03,2.620444934217542876e-01
3.200000000000000000e+01,1.996028826904515663e-01,3.995417774122661525e-01,1.000203360718619205e-01,-1.114619094443262959e-01,4.611644000088609835e-02,8.183969927508156857e-06,7.214262578049493186e-04,1.027381443430127467e-02,-1.938450667770612590e+00,1.719806793485197105e-02,-4.435823214738975062e-03,2.620420498692211386e-01
3.225000000000000000e+01,1.853628839748167889e-01,4.045039224105790865e-01,1.000211532320620517e-01,-1.162173935130823565e-01,3.330567445546222388e-02,4.231262984895854256e-06,3.933073069392633062e-04,1.210272655730265136e-02,-1.905699555093281594e+00,1.163138046309133977e-02,-7.224379983067041574e-04,2.620349481889686083e-01
3.250000000000000000e+01,1.705438810577127318e-01,4.077321077673943805e-01,1.000211983101166047e-01,-1.206260898367455675e-01,1.862141374904381641e-02,-3.710027216486265199e-06,-6.058591056748923131e-05,1.292081149836275984e-02,-1.872951401944364047e+00,2.932706677470787136e-03,3.306456105125261946e-03,2.620279822873976538e-01
3.275000000000000000e+01,1.552316394874248273e-01,4.090738621548121734e-01,1.000201606870311094e-01,-1.240423446371836103e-01,3.392145034934854978e-03,-1.233907878779028044e-05,-5.991811074586389464e-04,1.245983926262349793e-02,-1.840204933772693785e+00,-7.373306043826550506e-03,6.694376326281046598e-03,2.620273074853871620e-01
3.300000000000000000e+01,1.395848886017748425e-01,4.085624832738135592e-01,1.000182465755217465e-01,-1.259631552322489356e-01,-1.079171845000815450e-02,-1.716198749934296855e-05,-1.159037532887962837e-03,1.068000914227194495e-02,-1.807457563028790792e+00,-1.743050814438019264e-02,8.714968397537352016e-03,2.620366487503213437e-01
3.325000000000000000e+01,1.238095054295966641e-01,4.064315702871135749e-01,1.000161484163056974e-01,-1.261427149132259284e-01,-2.236457034349090267e-02,-1.529201749196875190e-05,-1.666206522920497639e-03,7.776211757666673212e-03,-1.774706637040722068e+00,-2.537880003350944866e-02,9.007136029930347051e-03,2.620544125418405867e-01
3.350000000000000000e+01,1.081224045520651489e-01,4.030929397537257319e-01,1.000146991662024254e-01,-1.246423538636612233e-01,-3.007594058756059979e-02,-7.421044394225763578e-06,-2.049902648507560734e-03,4.146880781689946636e-03,-1.741950906822381295e+00,-2.966882348605583142e-02,7.619542982983359622e-03,2.620737256697056039e-01
3.375000000000000000e+01,9.271378562374681109e-02,3.990807761320207536e-01,1.000144107681759098e-01,-1.218094506326850152e-01,-3.323395484416188234e-02,2.349436990876904874e-06,-2.255274506719435329e-03,3.309539421283617488e-04,-1.709191321858521961e+00,-2.933936277823159799e-02,4.971189471720124757e-03,2.620856787167046287e-01
3.400000000000000000e+01,7.771622883842964347e-02,3.949708232244836248e-01,1.000151800305508487e-01,-1.181935144211323507e-01,-3.185763188417233688e-02,8.826851329146558810e-06,-2.253129406960990497e-03,-3.080151920963674402e-03,-1.676430623387942243e+00,-2.423013160834653484e-02,1.741606771904430275e-03,2.620841066087586380e-01
3.425000000000000000e+01,6.318728827048608609e-02,3.912883094175597654e-01,1.000163570253114892e-01,-1.144197867508464916e-01,-2.670465513773065749e-02,8.877132719892252534e-06,-2.045222555388059079e-03,-5.545796861192188280e-03,-1.643671916871961347e+00,-1.508788910696875693e-02,-1.291300330474442516e-03,2.620691755689089630e-01
3.450000000000000000e+01,4.910908544743007587e-02,3.884214312649961198e-01,1.000171534771800291e-01,-1.110494192131607077e-01,-1.915850948638479073e-02,3.426057354212018063e-06,-1.664414607415656529e-03,-6.679880415825333387e-03,-1.610917036011087600e+00,-3.513267498612459520e-03,-3.439451054245918574e-03,2.620475055219880223e-01
3.475000000000000000e+01,3.540446318889831079e-02,3.865577088998184974e-01,1.000171406945534192e-01,-1.084591590632965480e-01,-1.098366667730553588e-02,-3.155767783276864629e-06,-1.169606489097130319e-03,-6.335035578912713919e-03,-1.578165676725120425e+00,8.290697424650357930e-03,-4.280206219422702171e-03,2.620284916744455295e-01
3.500000000000000000e+01,2.196524991274289781e-02,3.856575162850472416e-01,1.000165010338697896e-01,-1.067705836072896791e-01,-3.987781537987808086e-03,-6.097968141559652717e-06,-6.359971156954533425e-04,-4.645080149715458129e-03,-1.545415829524457996e+00,1.796026478543535573e-02,-3.771821525061248674e-03,2.620189403649784143e-01
3.525000000000000000e+01,8.685052655439073205e-03,3.854722886907845369e-01,1.000158463032585765e-01,-1.058479697723753721e-01,3.412531083289393184e-04,-3.650594051110279407e-06,-1.419704511870223927e-04,-2.008215622539305523e-03,-1.512665202639780659e+00,2.352501282374747787e-02,-2.265856400337556628e-03,2.620194696709663429e-01
3.550000000000000000e+01,-4.512285436368412318e-03,3.856051462525070250e-01,1.000157307151302438e-01,-1.053659227695296907e-01,1.138492476449107877e-03,1.742276871984751915e-06,2.452447745094025609e-04,9.938543097673582100e-04,-1.479912654576120756e+00,2.393088107704085393e-02,-3.979354025111052611e-04,2.620250918292361120e-01
3.575000000000000000e+01,-1.765622707322241428e-02,3.856011057473616166e-01,1.000162325549498465e-01,-1.049271746202811301e-01,-1.674715523418784241e-03,5.553370783634280775e-06,4.822969290224477889e-04,3.727436378075644346e-03,-1.447158666159312546e+00,1.936265675041793158e-02,1.121364652611482127e-03,2.620294000465184792e-01
3.600000000000000000e+01,-3.072913348584264265e-02,3.850457697609961927e-01,1.000169327038248762e-01,-1.041941583414851269e-01,-7.416531495018842401e-03,4.878855867279977519e-06,5.577708234372476086e-04,5.657559831424929277e-03,-1.414404627882926535e+00,1.123272172893230274e-02,1.751005368208672893e-03,2.620290617988716986e-01
3.625000000000000000e+01,-4.368087909315226947e-02,3.836483648539386060e-01,1.000172874449676147e-01,-1.029919404220499962e-01,-1.485791431960398375e-02,5.950607434553315916e-07,4.932289880958758057e-04,6.476065221984779983e-03,-1.381651628251072905e+00,1.801549448545425574e-03,1.310199309479054535e-03,2.620252535992935172e-01
3.650000000000000000e+01,-5.645256529752954583e-02,3.812888698481377570e-01,1.000170597476598283e-01,-1.013488530557916101e-01,-2.256578836380762274e-02,-3.799568362377898472e-06,3.365271488836052449e-04,6.168169101224313042e-03,-1.348899737540488974e+00,-6.473504205619187192e-03,3.710417299587196366e-05,2.620214392824198324e-01
3.675000000000000000e+01,-6.900051037777338303e-02,3.780190929400192856e-01,1.000164474843256573e-01,-9.946305777773968571e-02,-2.927724387173164314e-02,-5.363371425491970471e-06,1.488885650524087139e-04,4.995943969081646611e-03,-1.316148237562332568e+00,-1.165435463554625670e-02,-1.514345151973203827e-03,2.620199822127327605e-01
3.700000000000000000e+01,-8.131198411855256047e-02,3.740209407821137311e-01,1.000158488037319604e-01,-9.761059071066346959e-02,-3.419587240888190965e-02,-3.886877412302769191e-06,-1.080712443389065456e-05,3.403725288269237714e-03,-1.283396391525342350e+00,-1.286118407779723340e-02,-2.702447879986151404e-03,2.620206328039163535e-01
3.725000000000000000e+01,-9.340762418055303939e-02,3.695373801120728219e-01,1.000155286713368119e-01,-9.603230014395187919e-02,-3.712791150834059833e-02,-1.337511601456414758e-06,-1.001033846342271245e-04,1.876323894060774036e-03,-1.250643985047754647e+00,-1.045345260003094010e-02,-3.059281664061657725e-03,2.620216727908273313e-01
3.750000000000000000e+01,-1.053307959844182878e-01,3.647985800003489820e-01,1.000154848329345841e-01,-9.484428601396992231e-02,-3.843008182476721768e-02,3.493025623571385916e-07,-1.014813076313785006e-04,7.960399130429280604e-04,-1.217891258898393891e+00,-5.803893190904960316e-03,-2.478484910638122617e-03,2.620219442285558475e-01
3.775000000000000000e+01,-1.171292226332244640e-01,3.599651965992572977e-01,1.000155647320572355e-01,-9.400578828547143106e-02,-3.880295013652527991e-02,7.440633768052793294e-07,-2.316644798960990114e-05,3.434294150647830210e-04,-1.185138495694568084e+00,-7.614960477961025404e-04,-1.251452859221651630e-03,2.620216417476463056e-01
3.800000000000000000e+01,-1.288369872205677724e-01,3.551032141956805277e-01,1.000156472439591299e-01,-9.335424752847379382e-02,-3.901115044970219353e-02,5.556421326169981440e-07,1.074540600991975148e-04,4.706213968256290573e-04,-1.152385755381530208e+00,2.998012096985900633e-03,6.392750146205772310e-05,2.620215079780680578e-01
3.825000000000000000e+01,-1.404644011171461704e-01,3.501931121888901544e-01,1.000157054961094416e-01,-9.268936386590817533e-02,-3.962909683357190155e-02,4.024460437567231942e-07,2.552017373818401972e-04,9.509580766018121446e-04,-1.119632951425354239e+00,4.508809491597901183e-03,8.893299439287207864e-04,2.620217402518981165e-01
3.850000000000000000e+01,-1.519995192342503132e-01,3.451645620356978417e-01,1.000157479295159940e-01,-9.186770637752184054e-02,-4.089378301133776011e-02,2.590222684253261274e-07,3.892957635139345364e-04,1.483645525081705562e-03,-1.086880059886780270e+00,3.766047021809875318e-03,8.869042940782541438e-04,2.620218317076170589e-01
3.875000000000000000e+01,-1.634197984817994942e-01,3.399402623055623462e-01,1.000157596077573263e-01,-9.086491510762570445e-02,-4.270285472665391602e-02,-1.000808974029230297e-07,4.923550304376393726e-04,1.815145360429153100e-03,-1.054127188536334137e+00,1.625741258767973620e-03,1.269164027413211167e-04,2.620212575225457918e-01
3.900000000000000000e+01,-1.747077070761966222e-01,3.344711931973687880e-01,1.000157163382778686e-01,-8.977573551131139140e-02,-4.474268457824259748e-02,-5.665864280927773247e-07,5.634768695917598573e-04,1.835119278337022340e-03,-1.021374472289208635e+00,-5.907745727151106525e-04,-9.128035983814088844e-04,2.620200743471757243e-01
3.925000000000000000e+01,-1.858619665595011017e-01,3.287505588299617920e-01,1.000156261132331692e-01,-8.874819382117671296e-02,-4.668628046283258837e-02,-8.115070126294770933e-07,6.147937986562405140e-04,1.614493700716364754e-03,-9.886219541602699890e-01,-1.635680054604985063e-03,-1.527297735341271974e-03,2.620188902439620771e-01
3.950000000000000000e+01,-1.968975534192713150e-01,3.228028941120116291e-01,1.000155273843611331e-01,-8.787728924696731891e-02,-4.837929946682329591e-02,-7.252031754804550193e-07,6.631950953412414076e-04,1.373221203352193581e-03,-9.558695597618727113e-01,-8.228878302289550396e-04,-1.085685368630297373e-03,2.620184727065764108e-01
3.975000000000000000e+01,-2.078322362046773619e-01,3.166548128130010631e-01,1.000154531917178541e-01,-8.710425717016240243e-02,-4.994054994503151212e-02,-4.499299347028371073e-07,7.205627612199709585e-04,1.389063402202623480e-03,-9.231171281969985376e-01,1.703662823655943464e-03,6.581854347299665852e-04,2.620194217713590623e-01
4.000000000000000000e+01,-2.186636160888487945e-01,3.103011029155333111e-01,1.000154235709231482e-01,-8.617099910968512022e-02,-5.173726991420769111e-02,6.958012770445527521e-09,7.863549727073458357e-04,1.878743862891503469e-03,-8.903644504388958936e-01,5.011495004862060766e-03,3.370885040557109434e-03,2.620218941243335209e-01
4.025000000000000000e+01,-2.293459761686069964e-01,3.036818378380219952e-01,1.000154738753229883e-01,-8.466285876570964208e-02,-5.424282163116200817e-02,8.405226554714001537e-07,8.455258169515266842e-04,2.892872406258623422e-03,-8.576113634903800298e-01,7.713052496283990221e-03,6.153157588277212778e-03,2.620252211239172402e-01
4.050000000000000000e+01,-2.397784505780747588e-01,2.966822424577668094e-01,1.000156465232425740e-01,-8.214110614431772983e-02,-5.782863342554752512e-02,1.855192312577698811e-06,8.728953950013810473e-04,4.262746656480345328e-03,-8.248579360743824029e-01,8.472809092943680079e-03,7.784358224790211521e-03,2.620277528526805955e-01
4.075000000000000000e+01,-2.498138223262925117e-01,2.891586602278105600e-01,1.000159042455697062e-01,-7.833009404458474156e-02,-6.256790226934538790e-02,2.000549444122535120e-06,8.428000924955782484e-04,5.621249389760486076e-03,-7.921046001275493520e-01,6.510557746343657165e-03,7.134445590072262429e-03,2.620275703406616530e-01
4.100000000000000000e+01,-2.592909408429431295e-01,2.809840867606996917e-01,1.000160548041607034e-01,-7.329650165995296729e-02,-6.812688075393176501e-02,8.381171920719943545e-08,7.408981427375931550e-04,6.496405815770950158e-03,-7.593519822212617676e-01,1.925172082285939515e-03,3.611168524423646973e-03,2.620239939682342256e-01
4.125000000000000000e+01,-2.680851941006011652e-01,2.720988531107804698e-01,1.000158357233952300e-01,-6.755058210773835781e-02,-7.379109534554825767e-02,-3.614343647881533339e-06,5.740203513782764742e-04,6.452154505164714622e-03,-7.266004226952751388e-01,-4.275188531566083763e-03,-2.516613048286396592e-03,2.620185992423403332e-01
4.150000000000000000e+01,-2.761635723186541269e-01,2.625489603215057643e-01,1.000151653084906667e-01,-6.201663665392383867e-02,-7.862832469241531896e-02,-6.613068333579814015e-06,3.742954803118181168e-04,5.234202312840029354e-03,-6.938495857924873444e-01,-1.045045672065025681e-02,-1.005010368697014690e-02,2.620143294487791152e-01
4.175000000000000000e+01,-2.836265671884096173e-01,2.524974482918218022e-01,1.000143386439301812e-01,-5.785826084642186479e-02,-8.174312823452245524e-02,-5.841683656268773205e-06,1.954017316822676930e-04,2.875008026765642731e-03,-6.610986626293935409e-01,-1.482349000557913431e-02,-1.709934881965186407e-02,2.620129875719339752e-01
4.200000000000000000e+01,-2.907204088666859865e-01,2.422021556438697654e-01,1.000139070774591354e-01,-5.619166778959736042e-02,-8.254520922894224844e-02,-6.654992056630694596e-07,1.012354161758578027e-04,-2.775007882981287820e-04,-6.283471716694712939e-01,-1.603006365111743492e-02,-2.158098854660086066e-02,2.620134245145198104e-01
4.225000000000000000e+01,-2.978101306874108012e-01,2.319636845632586652e-01,1.000142449953815571e-01,-5.776181206116269562e-02,-8.094699013067754856e-02,5.610771059117796738e-06,1.497584651637564159e-04,-3.621051810204749342e-03,-5.955956568745927049e-01,-1.354585863693525370e-02,-2.183529845212010129e-02,2.620127022332288114e-01
4.250000000000000000e+01,-3.053148925332950236e-01,2.220568817129091044e-01,1.000151554191583692e-01,-6.267654240414828604e-02,-7.742665302279440331e-02,7.852608162496593143e-06,3.764497214076993658e-04,-6.437148284206720833e-03,-5.628454436526733051e-01,-7.855844131527843152e-03,-1.717366001891197994e-02,2.620098058628596571e-01
4.275000000000000000e+01,-3.136186581959465869e-01,2.126645935238921925e-01,1.000159214436665417e-01,-7.028541512897924781e-02,-7.293424498298589631e-02,3.521626717631891362e-06,7.821016670557544900e-04,-8.070197735235559375e-03,-5.300973687419473501e-01,-3.166907771316746639e-04,-8.177030259324606989e-03,2.620084795252580201e-01
4.300000000000000000e+01,-3.229780354821388255e-01,2.038321413556774542e-01,1.000158483685476690e-01,-7.925306387018996035e-02,-6.866645040366818609e-02,-4.552250100475425467e-06,1.328630245281633895e-03,-8.098488200742997786e-03,-4.973504618181665560e-01,7.239763938491757152e-03,3.366878760489620294e-03,2.620157182013482244e-01
4.325000000000000000e+01,-3.334518828052761563e-01,1.954550586450078120e-01,1.000148672061466626e-01,-8.782193242056555993e-02,-6.577496905593019361e-02,-1.000135535529366761e-05,1.944491525849597171e-03,-6.448630745768694529e-03,-4.646018772736530411e-01,1.303458519646529847e-02,1.489178066530201343e-02,2.620360734630533539e-01
4.350000000000000000e+01,-3.448728643154088114e-01,1.873030479429571848e-01,1.000136535516657765e-01,-9.420191301048685961e-02,-6.509217997070129713e-02,-8.156664021166127736e-06,2.538809065884934171e-03,-3.420159005909043960e-03,-4.318484827963460781e-01,1.583578478456662206e-02,2.373287336903310077e-02,2.620661804072728085e-01
4.375000000000000000e+01,-3.568704220418045248e-01,1.790728485621708721e-01,1.000131141562982801e-01,-9.698343511531344607e-02,-6.695057061334781789e-02,-1.274620859931738684e-07,3.020954054912961071e-03,3.876343087578677793e-04,-3.990890797130072776e-01,1.526790183083352390e-02,2.786001112117499068e-02,2.620945961745638209e-01
4.400000000000000000e+01,-3.689406646565969172e-01,1.704549164654498017e-01,1.000136592672984520e-01,-9.546008656683972748e-02,-7.114185561852957862e-02,7.997994649910589941e-06,3.320636773496247161e-03,4.226682232690758857e-03,-3.663255443588970817e-01,1.185139909912133645e-02,2.644536901308353061e-02,2.621080089251697776e-01
4.425000000000000000e+01,-3.805456406579634243e-01,1.611958316936688007e-01,1.000148788489661350e-01,-8.977078856238464299e-02,-7.701809141561022365e-02,1.015669377990375120e-05,3.403180567158121256e-03,7.387394273878053301e-03,-3.335619351581782244e-01,6.776571187247422759e-03,2.009550618164410510e-02,2.620995132398211691e-01
4.450000000000000000e+01,-3.912162924381691331e-01,1.511408690823773104e-01,1.000158825686987274e-01,-8.082247635810922703e-02,-8.369504731253175900e-02,5.080280843415073621e-06,3.275869287922417508e-03,9.371010684003660066e-03,-3.008021962868027699e-01,1.499169146392095127e-03,1.067282241097342217e-02,2.620727858804440813e-01
4.475000000000000000e+01,-4.006325455087741960e-01,1.402480995585306256e-01,1.000159851907136133e-01,-7.001733201780296900e-02,-9.029088652190228603e-02,-3.202624355737109659e-06,2.983757539473837206e-03,1.000002566922576948e-02,-2.680481280416027179e-01,-2.706017140182249286e-03,7.459682169898001081e-04,2.620393015603813547e-01
4.500000000000000000e+01,-4.086608606501488383e-01,1.285743192650690148e-01,1.000151551203816297e-01,-5.886618939697408487e-02,-9.612834662285076048e-02,-9.126709713886648872e-06,2.596327093818405138e-03,9.436084454559573106e-03,-2.352989308720080941e-01,-5.092442932446697088e-03,-7.182976783362953269e-03,2.620111864309113692e-01
