time_total,x,y,z,vx,vy,vz,roll,pitch,yaw,roll_rate,pitch_rate,yaw_rate
e-01,9.990676409173436523e-02,2.063038657384664437e-02,1.324607892454269520e-01,3.704518883121168927e-04,-1.745527417850322024e-03,1.627765548688331083e-03,-4.340346132118348965e-01,-1.792229922993971228e-02,-8.174910856943102058e-03,-2.620189739559098396e-01
2.500000000000000000e-01,-4.854368178798723066e-01,1.912792586531787409e-01,9.994561572984900222e-02,2.269638087134006471e-02,1.341213738580707138e-01,2.615134439562175474e-04,-3.541925969263319800e-03,-3.212525799568889434e-04,-4.667851416685533938e-01,-1.912098626883709795e-02,-7.185988094442128521e-03,-2.619792304456051713e-01
5.000000000000000000e-01,-4.825209735764938168e-01,2.083049028430812299e-01,9.997302131265009550e-02,2.379134745747724794e-02,1.385258758202844720e-01,1.833390853534992801e-04,-4.850572919645218528e-03,-1.847685110429680543e-03,-4.995306999426861183e-01,-1.002290798415228675e-02,-4.529623478897702726e-03,-2.619773719049302008e-01
7.500000000000000000e-01,-4.795062936621868332e-01,2.259951325903371000e-01,9.999194963993850160e-02,2.439480279753919109e-02,1.444261825261283494e-01,1.243651009310916969e-04,-5.143991107448684166e-03,-2.335401131343689367e-03,-5.322785628978227157e-01,1.600112886135707669e-03,1.765567995788567873e-04,-2.620000700338479538e-01
1.000000000000000000e+00,-4.764096618442281716e-01,2.444259278182228101e-01,1.000046278229941021e-01,2.523542834635563240e-02,1.501082930482131594e-01,8.276373361150889585e-05,-4.668137608884298170e-03,-1.547187951030423465e-03,-5.650315700420462939e-01,1.052912370313851924e-02,6.542514953352769266e-03,-2.620325178244554132e-01
1.250000000000000000e+00,-4.731434017730208885e-01,2.634748498371551340e-01,1.000131849221913422e-01,2.723101506667567270e-02,1.541880427135686182e-01,5.743708237531055139e-05,-3.973035277071153976e-03,4.131832348133798586e-04,-5.977882252729517232e-01,1.519147262991670140e-02,1.321459147374349358e-02,-2.620649444498237002e-01
1.500000000000000000e+00,-4.695021981008796752e-01,2.828846201973150287e-01,1.000194112153837411e-01,3.130645144442268518e-02,1.558777273872628544e-01,4.416320317820390665e-05,-3.489435741182549729e-03,3.210413941485891487e-03,-6.305473720897010192e-01,1.648065287034310156e-02,1.830872351318321017e-02,-2.620914676836400004e-01
1.750000000000000000e+00,-4.651786021364867629e-01,3.023333841940480382e-01,1.000244440525187850e-01,3.813498453878628319e-02,1.548817689862510838e-01,3.715530378987637154e-05,-3.341145084771847320e-03,6.390620940963824721e-03,-6.633092976531472784e-01,1.590277180699739557e-02,2.016986001279956475e-02,-2.621065373312649882e-01
2.000000000000000000e+00,-4.598103763699580293e-01,3.214827568953099179e-01,1.000287066472772962e-01,4.790528379192276337e-02,1.511913731134766903e-01,3.102378134484819449e-05,-3.390801547195596705e-03,9.467486557275715808e-03,-6.960731321470903232e-01,1.431787565917867766e-02,1.803213847383805871e-02,-2.621052289603414409e-01
2.250000000000000000e+00,-4.530497588952581700e-01,3.400047208446745350e-01,1.000320532764081005e-01,6.021246208779214293e-02,1.449676973389735779e-01,2.222411647879554120e-05,-3.403852380268277984e-03,1.198507947990406185e-02,-7.288353720565963201e-01,1.171039126428380026e-02,1.228346728399845947e-02,-2.620869181134076742e-01
2.500000000000000000e+00,-4.446355445678373819e-01,3.576024454790323603e-01,1.000340812971930726e-01,7.411812246436821905e-02,1.365518512879859703e-01,1.022165611165342540e-05,-3.203944225079548118e-03,1.357292762942814875e-02,-7.615917936353517881e-01,7.702227368050138835e-03,4.280779551975470720e-03,-2.620574395085011332e-01
2.750000000000000000e+00,-4.344476280659011480e-01,3.740368242074824656e-01,1.000345257231877588e-01,8.835736317489550906e-02,1.265272664166283423e-01,-2.484991697702283680e-06,-2.747202314679794179e-03,1.400064451356925962e-02,-7.943406017416778653e-01,2.227898676126478881e-03,-4.135349666206766805e-03,-2.620268155753366912e-01
3.000000000000000000e+00,-4.225298723838849524e-01,3.891585508452898856e-01,1.000335497010889779e-01,1.016219072914033711e-01,1.157327803561224028e-01,-1.196793791872085290e-05,-2.110030970886087390e-03,1.322375996419747519e-02,-8.270836482959137426e-01,-4.094822948970950997e-03,-1.119700182983862646e-02,-2.620041826398533669e-01
3.250000000000000000e+00,-4.090773478121275675e-01,4.029351622900826380e-01,1.000317681970658013e-01,1.128336770418877921e-01,1.051687383069422888e-01,-1.528701880038979433e-05,-1.427721079496826508e-03,1.140307089638663805e-02,-8.598249085788729484e-01,-1.005398020889679972e-02,-1.564223656770796778e-02,-2.619936745241694398e-01
3.500000000000000000e+00,-3.943939084232722103e-01,4.154597383372523600e-01,1.000299955113303912e-01,1.213394215874783744e-01,9.580788344004574630e-02,-1.227496543031486625e-05,-8.290540663858295264e-04,8.883084789948881774e-03,-8.925679066175218335e-01,-1.426474829871416175e-02,-1.692870717404000580e-02,-2.619936694443281699e-01
3.750000000000000000e+00,-3.788326689752970489e-01,4.269331161317603263e-01,1.000288739132355054e-01,1.269906629951517707e-01,8.837473875341636531e-02,-5.603320180596440085e-06,-3.958118367191616575e-04,6.128280991533141889e-03,-9.253141460295668530e-01,-1.566688944366817493e-02,-1.522859378475847035e-02,-2.619991332062828193e-01
4.000000000000000000e+00,-3.627340693258611637e-01,4.376207400878476261e-01,1.000286133781536635e-01,1.301087235954564159e-01,8.317081480997760845e-02,9.001987416813207580e-07,-1.533213957822127940e-04,3.631019667928721533e-03,-9.580632222829985611e-01,-1.387314631020531222e-02,-1.126742478822348979e-02,-2.620050593793468718e-01
4.250000000000000000e+00,-3.463744071515779677e-01,4.477938489463251792e-01,1.000289966358730298e-01,1.313610378796582490e-01,8.000174364374912361e-02,4.531601502981835378e-06,-8.229590111636601174e-05,1.814400542253683446e-03,-9.908139162178118964e-01,-9.263142786078306865e-03,-6.087112275527132785e-03,-2.620089016686990013e-01
4.500000000000000000e+00,-3.299334482616715358e-01,4.576693004628583084e-01,1.000296207717153302e-01,1.315882506523737006e-01,7.822393635633943798e-02,5.017652046042077366e-06,-1.377866930928623032e-04,9.538261016662236830e-04,-1.023565235446184607e+00,-2.841321181988175782e-03,-8.004447321163383469e-04,-2.620109252683495149e-01
4.750000000000000000e+00,-3.134845809854968079e-01,4.673620587098053503e-01,1.000301892604281290e-01,1.316231787359840033e-01,7.689153051661962168e-02,4.054270559121952326e-06,-2.651563188448347649e-04,1.133856888168588515e-03,-1.056316836720080365e+00,4.048536780053873206e-03,3.619820367338592859e-03,-2.620127727547860719e-01
5.000000000000000000e+00,-2.970061902159355505e-01,4.768602844243525762e-01,1.000306556678424441e-01,1.321364562103207185e-01,7.496101235190266721e-02,3.624571925883930237e-06,-4.098277239894422140e-04,2.246199142788540045e-03,-1.089068834841761424e+00,1.004475234700969236e-02,6.493759224494678912e-03,-2.620155232391128686e-01
5.250000000000000000e+00,-2.804092201486458880e-01,4.860270253495448944e-01,1.000311508529314747e-01,1.335332338394016327e-01,7.150384082051008949e-02,4.445502424619244130e-06,-5.225089687672025045e-04,4.024423866853431113e-03,-1.121821321019729867e+00,1.404215390041333063e-02,7.516858365259883497e-03,-2.620186371996560126e-01
5.500000000000000000e+00,-2.635736305965927784e-01,4.946265752395135884e-01,1.000317862398073243e-01,1.359130348700385016e-01,6.588343461244888788e-02,5.601391009698948037e-06,-5.629513035838682334e-04,6.103920634816065692e-03,-1.154573977577621813e+00,1.537366450300849119e-02,6.767779628628943847e-03,-2.620204089503977984e-01
5.750000000000000000e+00,-2.463857535132995824e-01,5.023689477315087526e-01,1.000324970378884959e-01,1.390923287665206953e-01,5.786656508121615361e-02,5.431190061380420318e-06,-5.039601798059934650e-04,8.092523942934427492e-03,-1.187326059101168285e+00,1.388563568139732779e-02,4.645947833611351920e-03,-2.620194358993748196e-01
6.000000000000000000e+00,-2.287693617270656621e-01,5.089632159912951259e-01,1.000330366885875261e-01,1.426781038081837982e-01,4.765554798412682813e-02,2.874544198721525314e-06,-3.352974335553580358e-04,9.637790980175161767e-03,-1.220076763468652237e+00,9.914663749985267241e-03,1.755345447134640247e-03,-2.620159335263059219e-01
6.250000000000000000e+00,-2.107053017032718412e-01,5.141697942759750894e-01,1.000331151325159207e-01,1.461724375398724129e-01,3.584319354894659887e-02,-1.691871143384179296e-06,-6.587428723292550030e-05,1.047989888389730048e-02,-1.252825752492340516e+00,4.185191269790164599e-03,-1.238449074685147797e-03,-2.620119176474377531e-01
6.500000000000000000e+00,-1.922373393299137978e-01,5.178428442564583234e-01,1.000325786913105336e-01,1.490842717623189206e-01,2.330526100084836377e-02,-6.612702314715744478e-06,2.772254007477866562e-04,1.048334654749346652e-02,-1.285573469760777021e+00,-2.346063653132889580e-03,-3.745878255461988597e-03,-2.620101283133440817e-01
6.750000000000000000e+00,-1.734648087654830639e-01,5.199564489000799705e-01,1.000315142988432160e-01,1.510259274559464793e-01,1.105400289702443070e-02,-9.894746691865274191e-06,6.532365395031161908e-04,9.645189594177342937e-03,-1.318321029367549357e+00,-8.667826501071809048e-03,-5.356701211110690732e-03,-2.620124263260626973e-01
7.000000000000000000e+00,-1.545251231801116898e-01,5.206114598882041200e-01,1.000302201352810394e-01,1.517777733319317091e-01,8.043393818160638441e-05,-1.027892035151357787e-05,1.014775922706997492e-03,8.081834953281474138e-03,-1.351069724600080679e+00,-1.388044559474741271e-02,-5.890779307372925357e-03,-2.620186783678002396e-01
7.250000000000000000e+00,-1.355707340853502529e-01,5.200233545222163745e-01,1.000290690761479195e-01,1.513131815517473888e-01,-8.788270394402395227e-03,-7.821242323665565532e-06,1.315744487987572644e-03,5.999916096740214901e-03,-1.383820434574285718e+00,-1.732046385365634475e-02,-5.393472344721519408e-03,-2.620267559905044008e-01
7.500000000000000000e+00,-1.167455096590419572e-01,5.184943904639668366e-01,1.000283466547448180e-01,1.497850530835873883e-01,-1.499590879349129401e-02,-3.743802272817440828e-06,1.518298309246344201e-03,3.658779485604001045e-03,-1.416573245430102546e+00,-1.862559366931347202e-02,-4.087365876189331948e-03,-2.620335635713544331e-01
7.750000000000000000e+00,-9.816484523894271341e-02,5.163753174006173730e-01,1.000281458478852470e-01,1.474824276720952676e-01,-1.831772398347743594e-02,2.469731356373436785e-07,1.597675463215648571e-03,1.332164385382001966e-03,-1.449327455828067768e+00,-1.773931394293968775e-02,-2.300760344204975938e-03,-2.620364684887650508e-01
8.000000000000000000e+00,-7.990246648354472347e-02,5.140226781676157097e-01,1.000283586602374042e-01,1.447695674282642175e-01,-1.887255230051573807e-02,2.749532460118472918e-06,1.544450495013690791e-03,-7.250661857850444801e-04,-1.482081923733117756e+00,-1.486944988298589086e-02,-3.938461998318231773e-04,-2.620344060459951496e-01
8.250000000000000000e+00,-6.198527878156145227e-02,5.117574237992639219e-01,1.000287519766710209e-01,1.420202994651610373e-01,-1.709249220471273367e-02,3.188198303842173214e-06,1.364452212932368074e-03,-2.301994901965828764e-03,-1.514835561100652761e+00,-1.042297190885939882e-02,1.302540025438558846e-03,-2.620282163172678036e-01
8.500000000000000000e+00,-4.439613588613149087e-02,5.098295348241723701e-01,1.000290812949789776e-01,1.395582896198844791e-01,-1.366002505710244529e-02,1.906160447027878869e-06,1.076939168504432477e-03,-3.248106071756248249e-03,-1.547587752519676396e+00,-4.938612665610258960e-03,2.529338285948116213e-03,-2.620201884226997513e-01
8.750000000000000000e+00,-2.708326949497950539e-02,5.083920225476555865e-01,1.000291907181998230e-01,1.376107175651611336e-01,-9.423235001146283013e-03,-1.120409676379128904e-07,7.116762214028887062e-04,-3.482655403224781121e-03,-1.580338542508961552e+00,9.690892420242353065e-04,3.124093424594844189e-03,-2.620131027646020461e-01
9.000000000000000000e+00,-9.974391199596713276e-03,5.074864343382897713e-01,1.000290635359731284e-01,1.362797683597792853e-01,-5.298309261899008735e-03,-1.714522271966343952e-06,3.054069194107197406e-04,-2.999071208849894265e-03,-1.613088546952432312e+00,6.653072206215280421e-03,3.033097736547293866e-03,-2.620091778279906580e-01
9.250000000000000000e+00,7.006917068511063669e-03,5.070409605224596161e-01,1.000288111439217587e-01,1.355340648515022395e-01,-2.166731020445997625e-03,-2.065578402168772557e-06,-1.019854842849331531e-04,-1.865633507625079346e-03,-1.645838647206670169e+00,1.147449549158492156e-02,2.314819479779849608e-03,-2.620092852086075008e-01
9.500000000000000000e+00,2.392506300740932651e-02,5.068813580831210697e-01,1.000286093701698853e-01,1.352205144942272286e-01,-7.742142462548009044e-04,-9.863308814648776066e-07,-4.714733251076011359e-04,-2.218758691152639009e-04,-1.678589595310593818e+00,1.485528210580774541e-02,1.134412483228317177e-03,-2.620126792171565411e-01
9.750000000000000000e+00,4.081904958810842615e-02,5.067539372059864933e-01,1.000286078160269737e-01,1.350953899885766751e-01,-1.640085085470550236e-03,9.611015730439791007e-07,-7.688935545357490110e-04,1.731475761812175740e-03,-1.711341686398000217e+00,1.635018958384947332e-02,-2.550418134820729493e-04,-2.620173374980023229e-01
1.000000000000000000e+01,5.769403391595583769e-02,5.063585961313612493e-01,1.000288488970598882e-01,1.348711579152685469e-01,-4.988494032518667014e-03,2.705435643298778784e-06,-9.687204941591432469e-04,3.751483665890883567e-03,-1.744094633024075192e+00,1.573098565190215320e-02,-1.549428040535299990e-03,-2.620208174920922173e-01
1.025000000000000000e+01,7.451941997226767256e-02,5.053883458216945623e-01,1.000292344306913384e-01,1.342725271644970575e-01,-1.071431418658286457e-02,3.165898375718052462e-06,-1.057191100109074319e-03,5.581642980748793316e-03,-1.776847701141506919e+00,1.305905728303639532e-02,-2.448662950265418324e-03,-2.620213122240747095e-01
1.050000000000000000e+01,9.123404811977078865e-02,5.035702476521793924e-01,1.000295618515549267e-01,1.330921694410349965e-01,-1.839449063877595519e-02,1.818809106475625999e-06,-1.034255770858064647e-03,6.987606939406793179e-03,-1.809600053414145870e+00,8.714957164599716408e-03,-2.721373522970253062e-03,-2.620184359912575145e-01
1.075000000000000000e+01,1.077577235425635771e-01,5.007017298641399661e-01,1.000296192438978882e-01,1.312349352427820692e-01,-2.734886838951757979e-02,-9.708749131376096530e-07,-9.138469263013086112e-04,7.793861451611191170e-03,-1.842351139284081452e+00,3.361128302960403411e-03,-2.262957248436577636e-03,-2.620133315444000965e-01
1.100000000000000000e+01,1.240069623555149353e-01,4.966763819837662353e-01,1.000292931734193674e-01,1.287403957720637815e-01,-3.674432641760384810e-02,-4.081450830401892942e-06,-7.221542810336033149e-04,7.913329360927234477e-03,-1.875100936555386122e+00,-2.163512942855989711e-03,-1.129311659115282349e-03,-2.620080160710204220e-01
1.125000000000000000e+01,1.399117896781481574e-01,4.914947859572738609e-01,1.000286301333513650e-01,1.257774815337952823e-01,-4.572569627057781333e-02,-6.198721643421295864e-06,-4.939468839682809422e-04,7.362906715726818749e-03,-1.907849922133100229e+00,-6.992405058393581785e-03,4.649122039497182216e-04,-2.620043174866126257e-01
1.150000000000000000e+01,1.554300145194054683e-01,4.852584920827190951e-01,1.000278155130166213e-01,1.226108897348844873e-01,-5.355030010631815773e-02,-6.499559103278471375e-06,-2.674002306790153804e-04,6.261509748168991342e-03,-1.940598798645887468e+00,-1.038425794730406249e-02,2.183615248396726660e-03,-2.620030030127266096e-01
1.175000000000000000e+01,1.705557673731295520e-01,4.781482528957387013e-01,1.000270816157181886e-01,1.195450457181116144e-01,-5.970224922571554238e-02,-5.053752870954319975e-06,-7.824451658863679497e-05,4.811528375717123024e-03,-1.973348139954549163e+00,-1.184476664810502067e-02,3.632865793630595148e-03,-2.620035763311464594e-01
1.200000000000000000e+01,1.853201356013562395e-01,4.703903476470160383e-01,1.000265973835119115e-01,1.168561390685401852e-01,-6.396743758520301304e-02,-2.719119268545023724e-06,4.577123918586044143e-05,3.267705558474964279e-03,-2.006098155787068738e+00,-1.119838152458954572e-02,4.437702836605515733e-03,-2.620047990400850568e-01
1.225000000000000000e+01,1.997832363095293495e-01,4.622167215599367607e-01,1.000264010094559231e-01,1.147253204259649911e-01,-6.645804954333299486e-02,-6.126832296040516116e-07,8.915848030399532264e-05,1.898658033401213986e-03,-2.038848692663984163e+00,-8.607664790578213251e-03,4.319465550117425334e-03,-2.620055622883308843e-01
1.250000000000000000e+01,2.140187461052041884e-01,4.538255115383273974e-01,1.000264093279856076e-01,1.131864808440053716e-01,-6.758386149765910345e-02,5.218515400925717069e-07,5.102175007886678018e-05,9.461693233850074257e-04,-2.071599440492780886e+00,-4.545378359275467108e-03,3.162178297515372879e-03,-2.620055576436284839e-01
1.275000000000000000e+01,2.280934944994004454e-01,4.453483624236242444e-01,1.000264927240588075e-01,1.121003139471256210e-01,-6.797531571167264586e-02,6.852352724740873733e-07,-5.489527990419945696e-05,5.871281977479271032e-04,-2.104350192838599476e+00,2.754308689358751956e-04,1.056439110877004572e-03,-2.620053502831528047e-01
1.300000000000000000e+01,2.420459706239523889e-01,4.368298713420945001e-01,1.000265667118733631e-01,1.111626369351347565e-01,-6.837007734061190112e-02,5.192239439391859724e-07,-2.024394829456352017e-04,9.030898048886874243e-04,-2.137100984088258215e+00,5.008656717315512763e-03,-1.690856400588729852e-03,-2.620058342839940990e-01
1.325000000000000000e+01,2.558682428723713653e-01,4.282226502127287615e-01,1.000266415542703791e-01,1.099492803517257700e-01,-6.948053984545320139e-02,7.865700991789434097e-07,-3.572443554151983540e-04,1.862526110963866549e-03,-2.169852011663992553e+00,8.810629518543000582e-03,-4.589727211952317719e-03,-2.620074387883536415e-01
1.350000000000000000e+01,2.694956308843132753e-01,4.193990242808323665e-01,1.000267962635808805e-01,1.079927503649130427e-01,-7.186386156072550879e-02,1.752558767714912740e-06,-4.823396115733833843e-04,3.320053914022266621e-03,-2.202603397328666723e+00,1.098588246439409846e-02,-7.044431747686051397e-03,-2.620096349981420047e-01
1.375000000000000000e+01,2.828073901522613065e-01,4.101775725072605572e-01,1.000270917309139668e-01,1.048785339983146492e-01,-7.581730113922240111e-02,2.882737706498272353e-06,-5.444149823031764176e-04,5.034775196255973292e-03,-2.235354961003350294e+00,1.111730305140508357e-02,-8.465544387943998300e-03,-2.620111361148397822e-01
1.400000000000000000e+01,2.956397496741527409e-01,4.003600100998158662e-01,1.000274818688916129e-01,1.003430418655702067e-01,-8.131874262899349559e-02,3.110071598952294766e-06,-5.198132631343604839e-04,6.706616238897809834e-03,-2.268106192690082068e+00,9.153376368356653733e-03,-8.397598766698823394e-03,-2.620107395503931680e-01
1.425000000000000000e+01,3.078101714932327537e-01,3.897718443653722109e-01,1.000277911541689740e-01,9.435235965791322066e-02,-8.802521252951218955e-02,1.563379225146999453e-06,-3.992475708765300568e-04,8.026000752552773718e-03,-2.300856490551689504e+00,5.431261719573780497e-03,-6.636630898438636121e-03,-2.620082889294143569e-01
1.450000000000000000e+01,3.191491351568690460e-01,3.782992747185961457e-01,1.000277895313632370e-01,8.714228286922086342e-02,-9.533189226693171425e-02,-1.697044111917551026e-06,-1.903116991329225629e-04,8.729087291754126024e-03,-2.333605548156044041e+00,6.254463299033509362e-04,-3.309616060513249393e-03,-2.620050604569452157e-01
1.475000000000000000e+01,3.295336392604715225e-01,3.659152480077704772e-01,1.000273299137080657e-01,7.920593968708213028e-02,-1.024824059764866957e-01,-5.471487043196341127e-06,8.286922673133648707e-05,8.648691657924825749e-03,-2.366353642181574735e+00,-4.374342237051138081e-03,1.109361573915608945e-03,-2.620031809111346699e-01
1.500000000000000000e+01,3.389155049477480253e-01,3.526894592588769028e-01,1.000264619299267438e-01,7.122524413848349556e-02,-1.087102389547204701e-01,-7.982402219412911316e-06,3.830232931464930507e-04,7.750468566058748426e-03,-2.399101597814657705e+00,-8.636574465361007702e-03,5.861444753597667284e-03,-2.620043256717852209e-01
1.525000000000000000e+01,3.473378903232664516e-01,3.387801478273156364e-01,1.000254382654970631e-01,6.395494109407590111e-02,-1.133834780810742959e-01,-7.925182280856232615e-06,6.657281349396628302e-04,6.145560675608080330e-03,-2.431850399905099991e+00,-1.137838253229744856e-02,1.004143063427059314e-02,-2.620085095939920228e-01
1.550000000000000000e+01,3.549353367275595028e-01,3.244092183018935094e-01,1.000245941199086885e-01,5.808034973585573385e-02,-1.161229646040287111e-01,-5.328316794763259715e-06,8.870143095895003998e-04,4.075017276155931678e-03,-2.464600659480934652e+00,-1.212976053463009872e-02,1.278794950933285351e-02,-2.620138364308611245e-01
1.575000000000000000e+01,3.619159226702525767e-01,3.098257182323509440e-01,1.000241674213750293e-01,5.407858541682186715e-02,-1.168687352553630238e-01,-1.597554721161145617e-06,1.011166056163499824e-03,1.867292862276911545e-03,-2.497352267564024952e+00,-1.083032795782885513e-02,1.348196722609825565e-02,-2.620174955053951593e-01
1.600000000000000000e+01,3.685280285677356993e-01,2.952651800137637284e-01,1.000241747135277720e-01,5.211493881384256927e-02,-1.158808126345160228e-01,1.344454902210423411e-06,1.017200295341562626e-03,-1.233363117971023374e-04,-2.530104468539063234e+00,-7.832274114472976417e-03,1.190165967628818711e-02,-2.620174376956329598e-01
1.625000000000000000e+01,3.750178531012420269e-01,2.809131253543983298e-01,1.000244248082155507e-01,5.199979064533265249e-02,-1.136754663692425699e-01,2.255896814374237745e-06,9.027267442727746668e-04,-1.584481078998666980e-03,-2.562856316452237326e+00,-3.807746922268699652e-03,8.289360886286319466e-03,-2.620136410248033454e-01
1.650000000000000000e+01,3.815861887742496017e-01,2.668799010523808524e-01,1.000246581621438841e-01,5.321804972622568020e-02,-1.109130171688855887e-01,1.279617781510339909e-06,6.843966420971014930e-04,-2.304605616227580183e-03,-2.595607223205258052e+00,4.142471014296983736e-04,3.309556063556598742e-03,-2.620081103291154734e-01
1.675000000000000000e+01,3.883533806745597117e-01,2.531912533406293631e-01,1.000247132277943957e-01,5.502614407274310226e-02,-1.082639286419011665e-01,-3.188796108471275721e-07,3.948255538044608557e-04,-2.210490324526641955e-03,-2.628357250233519515e+00,4.037199109898401139e-03,-2.092117824018689329e-03,-2.620036123521914395e-01
1.700000000000000000e+01,3.953397150606188792e-01,2.397953945911773521e-01,1.000246070976554824e-01,5.659581375418678423e-02,-1.062834682087121368e-01,-1.140089349149922616e-06,7.658440946958239715e-05,-1.375894254194279893e-03,-2.661106976460523299e+00,6.463901415574129124e-03,-6.891844739454454534e-03,-2.620020057887824105e-01
1.725000000000000000e+01,4.024651488412124833e-01,2.265837247607302429e-01,1.000244851058705309e-01,5.717360802072064124e-02,-1.053210597920294228e-01,-6.222503896645923058e-07,-2.255576871679742515e-04,-1.120273764011087669e-06,-2.693857062152763771e+00,7.402355031069088494e-03,-1.020158739793443001e-02,-2.620032578667754741e-01
1.750000000000000000e+01,4.095681545548056079e-01,2.134197101734386925e-01,1.000244886344934248e-01,5.622245294847676156e-02,-1.054803519739907075e-01,6.733754177816638778e-07,-4.726108479528247537e-04,1.630451585407400933e-03,-2.726607816018158381e+00,6.892732165900656433e-03,-1.144540064771742277e-02,-2.620057068599099259e-01
1.775000000000000000e+01,4.164395142122665483e-01,2.001692371821163774e-01,1.000246416529336352e-01,5.351685131046876598e-02,-1.066332139367409948e-01,1.586454897780024539e-06,-6.380079659803215624e-04,3.208691892126598784e-03,-2.759359039458567420e+00,5.259214055783231236e-03,-1.046394459250224798e-02,-2.620072660535696651e-01
1.800000000000000000e+01,4.228639982006028863e-01,1.867261597619742919e-01,1.000248326448474057e-01,4.917414483997183117e-02,-1.084788054882386554e-01,1.241833253016489552e-06,-7.116614210916929160e-04,4.454393092944864546e-03,-2.792110210445418961e+00,3.007166044887576214e-03,-7.531949512060506433e-03,-2.620066982136415867e-01
1.825000000000000000e+01,4.286615346463627518e-01,1.730284714955149239e-01,1.000248949305360679e-01,4.361786508083397018e-02,-1.106302041049766205e-01,-3.475748449246794819e-07,-7.007434866107291240e-04,5.167760465795954300e-03,-2.824860842065854971e+00,6.947561840607050865e-04,-3.291125927385314155e-03,-2.620041666534720370e-01
1.850000000000000000e+01,4.337198611452590669e-01,1.590630247165751576e-01,1.000247213427487153e-01,3.748264163688498629e-02,-1.127072034839698006e-01,-2.335781878787415650e-06,-6.271943259606850649e-04,5.259787174544970634e-03,-2.857610761773252239e+00,-1.190842704632997249e-03,1.384555580953222799e-03,-2.620008501696300396e-01
1.875000000000000000e+01,4.380125762477239948e-01,1.448593719067893526e-01,1.000243329129297531e-01,3.148105762892768750e-02,-1.144149758668964179e-01,-3.650357984625889874e-06,-5.226176045864564879e-04,4.762089235655189538e-03,-2.890360148042735222e+00,-2.327386215375844194e-03,5.563522337156152388e-03,-2.619980390377086854e-01
1.900000000000000000e+01,4.415995370864708724e-01,1.304755429910221254e-01,1.000238602727785836e-01,2.625947702571550246e-02,-1.155934955177154166e-01,-3.690185950190615776e-06,-4.216947876950139429e-04,3.814709858510298337e-03,-2.923109346267976694e+00,-2.605205060314954180e-03,8.436795274199517664e-03,-2.619963886841499834e-01
1.925000000000000000e+01,4.446100673148595250e-01,1.159799710939068002e-01,1.000234585634476314e-01,2.227112037074450296e-02,-1.162304741193741775e-01,-2.644375290117601187e-06,-3.554481685340214444e-04,2.635237020526453710e-03,-2.955858628203023475e+00,-2.123482583422980820e-03,9.469147782714662856e-03,-2.619957818964083751e-01
1.950000000000000000e+01,4.472127546990213309e-01,1.014341261819289436e-01,1.000232181360418970e-01,1.969044527102301045e-02,-1.164391829286613167e-01,-1.264720096347297262e-06,-3.456007126254302350e-04,1.475569553135472681e-03,-2.988608069229828690e+00,-1.141607466986583296e-03,8.494516033975345673e-03,-2.619957595393627714e-01
1.975000000000000000e+01,4.495781083590045246e-01,8.687973989571250166e-02,1.000231290348885804e-01,1.838433776943015907e-02,-1.164100248271274785e-01,-3.043907170104994977e-07,-4.009761858292963861e-04,5.742635907166709864e-04,-3.021357606566899445e+00,-7.145501767549778359e-07,5.741485225481172093e-03,-2.619960886330903183e-01
2.000000000000000000e+01,4.518415910088863785e-01,7.233304844991021720e-02,1.000231149184243190e-01,1.794467455297525313e-02,-1.163496182537502172e-01,-3.535083704003545002e-08,-5.164514079205349351e-04,1.125686741787114436e-04,-3.054107200692215862e+00,9.653116384495532632e-04,1.786979425213046369e-03,-2.619969962791908191e-01
2.025000000000000000e+01,4.540743727295780685e-01,5.778662146279522210e-02,1.000231035364840815e-01,1.777544438136021906e-02,-1.164227538432772296e-01,-1.646952307986385873e-07,-6.745095669227119031e-04,1.814488625014197196e-04,-3.086856952426488387e+00,1.510062388320769803e-03,-2.554695218848700503e-03,-2.619988972851365339e-01
2.050000000000000000e+01,4.562676200942034632e-01,4.321750217961141394e-02,1.000230789755816169e-01,1.721735392481224189e-02,-1.167108747745945890e-01,-1.711715822372890654e-07,-8.490186352362022850e-04,7.654199244148758487e-04,-3.119607072066910014e+00,1.529302806926682986e-03,-6.392069160325225541e-03,-2.620018485708201506e-01
2.075000000000000000e+01,4.583334535892457651e-01,2.859894527260585864e-02,1.000285920439887427e-01,1.568471284970634344e-02,-1.171959697889682767e-01,1.085427790045164436e-04,-1.010845115477163872e-03,1.746773258150595811e-03,3.129989491762780851e+00,1.085492277956844574e-03,-8.937822695671397005e-03,-2.532105164129780928e-01
2.100000000000000000e+01,4.601223207299001139e-01,1.391238838739961188e-02,1.000319735748558814e-01,1.278802699102589598e-02,-1.177733810818868826e-01,-9.364326678926306619e-06,-1.133273629115100689e-03,2.929863251845540514e-03,3.097853221667288270e+00,3.445297667714693917e-04,-9.689957027966033046e-03,-2.595857367873198873e-01
2.125000000000000000e+01,4.614532073918778399e-01,-8.440804314998189310e-04,1.000300015990596425e-01,8.411748702872954425e-03,-1.182885025429443598e-01,-1.716886652460343661e-05,-1.195127951962548975e-03,4.084154276396084401e-03,3.065266346310210999e+00,-4.124516873116565213e-04,-8.535685780489995003e-03,-2.613617590888781539e-01
2.150000000000000000e+01,4.621496116927760744e-01,-1.565207423304038059e-02,1.000280654761135785e-01,2.731892031742233929e-03,-1.185810214908192411e-01,-1.374502854210078432e-05,-1.189500518404392132e-03,4.991678642008445799e-03,3.032559320934486546e+00,-9.317335350803653427e-04,-5.784078522284630264e-03,-2.618337307632969679e-01
2.175000000000000000e+01,4.620737046393689207e-01,-3.047566103386878736e-02,1.000265390870731658e-01,-3.829872611243166549e-03,-1.185357972765881951e-01,-1.101761497160836063e-05,-1.121845925028527305e-03,5.494415133320576690e-03,2.999820833261267250e+00,-1.050923755283082002e-03,-2.095553690551029986e-03,-2.619564944572877474e-01
2.200000000000000000e+01,4.611509784678413659e-01,-4.526921693648054690e-02,1.000252696122051893e-01,-1.070696365940208665e-02,-1.181136517200719882e-01,-9.470858932723649816e-06,-1.008567462934814541e-03,5.526602781713381776e-03,2.967074544310370765e+00,-7.442515123049238792e-04,1.689136700580335000e-03,-2.619860197697403414e-01
2.225000000000000000e+01,4.593801725836380023e-01,-5.998763291370605433e-02,1.000241652158508632e-01,-1.731657097433303774e-02,-1.173582215320287114e-01,-8.224895536079401422e-06,-8.734078604961744048e-04,5.123907267078411931e-03,2.934326551386304160e+00,-1.233793870414716116e-04,4.767220080411968715e-03,-2.619915401782735298e-01
2.250000000000000000e+01,4.568271092190019367e-01,-7.459574971682121636e-02,1.000232318112193042e-01,-2.318291057040817310e-02,-1.163781606528180856e-01,-6.696955938110104586e-06,-7.424160613967308812e-04,4.407117407596219255e-03,2.901578199546145154e+00,6.079105448876870798e-04,6.577430081193257408e-03,-2.619918577302390306e-01
2.275000000000000000e+01,4.536052065805739053e-01,-8.907433418600059494e-02,1.000225102723399789e-01,-2.802388277881321874e-02,-1.153119531136005266e-01,-4.885681127400807855e-06,-6.386506381968550016e-04,3.545492754088929669e-03,2.868829642366727217e+00,1.228508264363923881e-03,6.925908414566544873e-03,-2.619917687321572375e-01
2.300000000000000000e+01,4.498486602319071714e-01,-1.034212021203550352e-01,1.000220145465375576e-01,-3.178173580566412415e-02,-1.142879077982703606e-01,-3.150701937359813562e-06,-5.778881355858929165e-04,2.711136360552480074e-03,2.836080846067789984e+00,1.575412955910087624e-03,5.995692696848422230e-03,-2.619921191933976545e-01
2.325000000000000000e+01,4.456855978540378849e-01,-1.176477554699603828e-01,1.000217110114670627e-01,-3.459603315522171568e-02,-1.133924713873461637e-01,-1.836822555694479041e-06,-5.663391401718256574e-04,2.038378777877003240e-03,2.803331819576058148e+00,1.590492768625920280e-03,4.241614069530110290e-03,-2.619927991837374681e-01
2.350000000000000000e+01,4.412175599617546018e-01,-1.317726056561384362e-01,1.000215375028762343e-01,-3.673467972814316307e-02,-1.126556128446644378e-01,-1.048116299405494907e-06,-6.007903734164927404e-04,1.599865005471543802e-03,2.770582606411832405e+00,1.321950376309756481e-03,2.214258202840744399e-03,-2.619936329037245715e-01
2.375000000000000000e+01,4.365088916403717656e-01,-1.458145878562606412e-01,1.000214341702155285e-01,-3.850964908368766093e-02,-1.120546567714100911e-01,-6.709981230731995090e-07,-6.708765837760855694e-04,1.404534540282114654e-03,2.737833241334158618e+00,8.843273926000790389e-04,3.810707075710486908e-04,-2.619945275788286287e-01
2.400000000000000000e+01,4.315861481861101856e-01,-1.597871648206367623e-01,1.000213612589009177e-01,-4.020466356978553979e-02,-1.115308592725904741e-01,-5.258010389554485753e-07,-7.625888108766315987e-04,1.414589600378303230e-03,2.705083739902992779e+00,3.990579867405989224e-04,-9.916338156464084980e-04,-2.619954099802792591e-01
2.425000000000000000e+01,4.264447134830795516e-01,-1.736952173110546949e-01,1.000212990173214578e-01,-4.203301346342206563e-02,-1.110092678538785460e-01,-4.813301984396414528e-07,-8.618527374495182003e-04,1.572180167323258609e-03,2.672334114243256398e+00,-5.540628383319987457e-05,-1.862194539541670631e-03,-2.619961954601967569e-01
2.450000000000000000e+01,4.210584535798558292e-01,-1.875340470222544575e-01,1.000212395545383576e-01,-4.412947692101000519e-02,-1.104133188047405345e-01,-4.734780276462373467e-07,-9.571473445584913198e-04,1.824369919299151073e-03,2.639584386197431076e+00,-4.622379198674765686e-04,-2.350661800420510671e-03,-2.619968285688136223e-01
2.475000000000000000e+01,4.153886231216318281e-01,-2.012896206722865344e-01,1.000211803642005182e-01,-4.656718528405200119e-02,-1.096702343721216028e-01,-4.730630779074478571e-07,-1.040607639618712195e-03,2.137597676558120486e-03,2.606834584936947863e+00,-8.498737517016666373e-04,-2.631911521230908060e-03,-2.619973232124860330e-01
2.500000000000000000e+01,4.093899087506754353e-01,-2.149389588214380975e-01,1.000211218164000493e-01,-4.938348894005482187e-02,-1.087088610168856634e-01,-4.608520406372114935e-07,-1.107664518498357488e-03,2.498849086933914963e-03,2.574084737298937053e+00,-1.255763328840760846e-03,-2.839699997846087658e-03,-2.619977438929229629e-01
2.525000000000000000e+01,4.030134755843189920e-01,-2.284500399232562984e-01,1.000210662401129214e-01,-5.260031516270225610e-02,-1.074551202134222255e-01,-4.253997381470679352e-07,-1.155774489445707091e-03,2.907126472715474731e-03,2.541334864276642680e+00,-1.694544880750836063e-03,-3.021963671283791480e-03,-2.619981418704864229e-01
2.550000000000000000e+01,3.962082512074463492e-01,-2.417812659936612874e-01,1.000210165467724510e-01,-5.623204429539967880e-02,-1.058300862608637649e-01,-3.690949636960426892e-07,-1.182997030160611506e-03,3.362516146225263524e-03,2.508584988056871801e+00,-2.149553749814320236e-03,-3.155633543588442624e-03,-2.619985044108352201e-01
2.575000000000000000e+01,3.889219670027521669e-01,-2.548809759231454586e-01,1.000209744518549271e-01,-6.028279809790416249e-02,-1.037524706448438305e-01,-3.071026133428673362e-07,-1.187041042638216966e-03,3.859665593102890990e-03,2.475835143360670454e+00,-2.589980825454250932e-03,-3.197376355698358392e-03,-2.619987599317490923e-01
2.600000000000000000e+01,3.811028346916092713e-01,-2.676874549462963659e-01,1.000209395554309821e-01,-6.474047253315982908e-02,-1.011433982728176251e-01,-2.554427880724307055e-07,-1.165031388187267669e-03,4.388473273785763532e-03,2.443085383501750751e+00,-2.998642166810794492e-03,-3.131750307750890729e-03,-2.619988313906204680e-01
2.625000000000000000e+01,3.727017762459056138e-01,-2.801294723846511348e-01,1.000209102490091234e-01,-6.957460131133129388e-02,-9.792949464132179316e-02,-2.158343654963660447e-07,-1.113844087225028968e-03,4.939810285891656910e-03,2.410335776642793970e+00,-3.388405458091110767e-03,-2.986882914816872594e-03,-2.619986894980116388e-01
2.650000000000000000e+01,3.636745130814917903e-01,-2.921269392758405470e-01,1.000208859776655496e-01,-7.474043109492328751e-02,-9.404170144127420305e-02,-1.711153602203243236e-07,-1.030620523626115661e-03,5.510983845770995454e-03,2.377586396399011814e+00,-3.792468412712547525e-03,-2.811634338062812474e-03,-2.619983581406878925e-01
2.675000000000000000e+01,3.539829022267840797e-01,-3.035911803771550455e-01,1.000209065333597241e-01,-8.018495985226288536e-02,-8.941002822361308888e-02,4.961472442233133578e-06,-6.900089950993879657e-04,6.104317823953742637e-03,2.345219525381383896e+00,-2.324360555411428622e-02,1.709011692130592980e-02,-2.128742385727518949e-01
2.700000000000000000e+01,3.437892271853191239e-01,-3.142425634082340324e-01,1.000259221215955008e-01,-8.062750999325060675e-02,-7.905719231262060831e-02,1.101402761108726225e-04,1.567161782261984257e-02,6.407896858545777605e-03,2.345761183605308275e+00,-1.310104782607277307e-01,1.339694903111438573e-01,1.349747456255162847e-01
2.725000000000000000e+01,3.346461035102619719e-01,-3.224881318388256313e-01,1.000554615179540252e-01,-6.304078850594782568e-02,-5.054824769129605266e-02,3.160338531158968971e-04,3.785187755952273275e-02,6.020820004050613655e-03,2.370008810057630644e+00,-9.921233986770867930e-02,1.043825614837761567e-01,2.277661001865819435e-01
2.750000000000000000e+01,3.287444742025809608e-01,-3.260783215042020733e-01,1.000836240039596758e-01,-3.108040112796197491e-02,-6.769734466593423095e-03,6.138533868885675485e-05,4.764790282391501153e-02,5.211944139516005124e-03,2.400467902128055719e+00,-5.242238101750548718e-03,1.323283755402548251e-02,2.525990370017325848e-01
2.775000000000000000e+01,3.270519803466165332e-01,-3.239004435939948912e-01,1.000631748952253569e-01,1.945652875989380614e-03,3.928893324043148533e-02,-3.380421179286058862e-04,4.145824280352237989e-02,4.736602615509598498e-03,2.432540568012744764e+00,7.526845634586667999e-02,-6.353704459745801447e-02,2.594045360569307568e-01
2.800000000000000000e+01,3.289059188886858665e-01,-3.165063090973382343e-01,1.000157198299828354e-01,2.466018547843741235e-02,7.549730247459786325e-02,-3.484662518862035392e-04,2.579760979646658625e-02,5.085390551360842795e-03,2.465039466288237779e+00,1.036831782048527884e-01,-9.091579482799060086e-02,2.613454671577565835e-01
2.825000000000000000e+01,3.326731320252027113e-01,-3.055376322180322624e-01,9.998743468664983425e-02,3.301501791354299192e-02,9.681843612062265847e-02,-1.037256409054191904e-04,9.808844002156077990e-03,6.048458458650069793e-03,2.497665733983285286e+00,8.326475828632295961e-02,-7.307965766029859978e-02,2.619595772574732639e-01
2.850000000000000000e+01,3.366827951150105358e-01,-2.927721265046788757e-01,9.998648640245740016e-02,2.978125563188172356e-02,1.054793905261225268e-01,5.439315674109117472e-05,-3.890918745979110127e-04,6.906148739416810740e-03,2.530360387723976867e+00,4.087402284843938416e-02,-3.409772599649663755e-02,2.621615047804255472e-01
2.875000000000000000e+01,3.398605241231524854e-01,-2.794281161871203789e-01,9.999510683502484121e-02,2.094201561979578893e-02,1.073467904406665840e-01,6.736487055538988868e-05,-3.543093072567904574e-03,6.943462491721470037e-03,2.563110793614139737e+00,4.292001296279737872e-03,1.941627047919697096e-03,2.621762237611761637e-01
2.900000000000000000e+01,3.418826774982225425e-01,-2.659833399563993339e-01,1.000018129808276646e-01,1.204682339393903928e-02,1.078457045173540907e-01,4.166836682796608928e-05,-1.987994834148448971e-03,5.868595715239422264e-03,2.595888694429879795e+00,-1.205373361103523333e-02,2.209190039816762499e-02,2.621092827309822737e-01
2.925000000000000000e+01,3.429742675295848753e-01,-2.524030107794847932e-01,1.000061311862041613e-01,6.245507646152013807e-03,1.096576771009806078e-01,3.017336060818465748e-05,8.715402518645222604e-04,3.907967987409894338e-03,2.628661951765541183e+00,-9.218467065061648064e-03,2.564342365449420735e-02,2.620431264424490925e-01
2.950000000000000000e+01,3.435851804068540960e-01,-2.385070015999574689e-01,1.000095561330855420e-01,4.170902384143042665e-03,1.126656084556905829e-01,2.468554565443523182e-05,2.591383326305160464e-03,1.612824084587661860e-03,2.661420145247003433e+00,2.681710256895546846e-03,1.901341773291470930e-02,2.620137968011682084e-01
2.975000000000000000e+01,3.441317483042080072e-01,-2.242401817743217007e-01,1.000122091314896294e-01,4.903650064446237258e-03,1.153120907622804253e-01,1.797539480321412461e-05,2.439123008118122132e-03,-4.371174972045459772e-04,2.694171912386144729e+00,1.293080205189197501e-02,9.649590338012574084e-03,2.620142087819225529e-01
3.000000000000000000e+01,3.448775596627556839e-01,-2.097485352851759244e-01,1.000141070658711745e-01,7.096196611778318036e-03,1.161532087866323504e-01,1.302632109950228005e-05,1.019446412446169256e-03,-1.855692760370652441e-03,2.726926093699115761e+00,1.575565566881047957e-02,2.272116828121034660e-03,2.620235549727887303e-01
3.025000000000000000e+01,3.459315192313887621e-01,-1.952979362290711840e-01,1.000155290558481375e-01,9.683905886261069337e-03,1.147551629198619999e-01,9.916365483241300081e-06,-5.907927558545210400e-04,-2.520538179225280135e-03,2.759683062299683964e+00,1.134244280410595142e-02,-1.839120741798822966e-03,2.620290393687534913e-01
3.050000000000000000e+01,3.473002504926022693e-01,-1.811375699503406378e-01,1.000165549515219521e-01,1.207533671779346431e-02,1.117288777810700184e-01,6.507043954543067242e-06,-1.581874438743927080e-03,-2.518396817835771330e-03,2.792439303894072467e+00,3.552029998248703267e-03,-3.570365661364189366e-03,2.620295607073346855e-01
3.075000000000000000e+01,3.489404515897349124e-01,-1.674001016128027208e-01,1.000171451901265690e-01,1.401683369609063416e-02,1.082004447691947008e-01,3.213304039062198630e-06,-1.718450608251755225e-03,-2.042955911213853882e-03,2.825193310692156512e+00,-3.299206813420571191e-03,-4.260983950843622026e-03,2.620291760792166635e-01
3.100000000000000000e+01,3.507877617877629972e-01,-1.540790879638793964e-01,1.000174159277262415e-01,1.539273525983593516e-02,1.051818254443931122e-01,1.482656428706619372e-06,-1.240945012806621891e-03,-1.311647518289336565e-03,2.857946242325660968e+00,-6.686394588668240040e-03,-4.624486496625251040e-03,2.620305251731905871e-01
3.125000000000000000e+01,3.527660955680851362e-01,-1.410717212569231882e-01,1.000175726746657390e-01,1.612435652625288790e-02,1.031845488061595290e-01,1.180558578971051337e-06,-5.725892195850741662e-04,-5.253172365838681360e-04,2.890699610751588988e+00,-6.444932516726841441e-03,-4.585121596262971451e-03,2.620331615049042995e-01
3.150000000000000000e+01,3.547925692130884934e-01,-1.282474101455677029e-01,1.000177216638975797e-01,1.619014856752209325e-02,1.021784584883243807e-01,1.172556821789943319e-06,-5.182889525179055964e-05,1.427566099605160287e-04,2.923453812599897894e+00,-4.026265219596392511e-03,-3.723360972903292862e-03,2.620355285999385053e-01
3.175000000000000000e+01,3.567891821861898238e-01,-1.155038282948334105e-01,1.000178502882777543e-01,1.569663351172307861e-02,1.017984684878647239e-01,8.371178685041857902e-07,1.911291963027046475e-04,5.541027485756820203e-04,2.956208432642296824e+00,-1.284339027007331928e-03,-1.830463051053081089e-03,2.620368702256298254e-01
3.200000000000000000e+01,3.587018445833061731e-01,-1.027906615564555814e-01,1.000179204336293648e-01,1.491416415318734187e-02,1.016228046501325144e-01,2.989377410633869827e-07,2.120071453804254222e-04,6.226365961229941544e-04,2.988963090814536372e+00,4.720345128555566072e-04,7.991994460893822334e-04,2.620373384026120633e-01
3.225000000000000000e+01,3.605188779918377384e-01,-9.010223224709598688e-02,1.000179289104674296e-01,1.423289980031789553e-02,1.013774475418394022e-01,-1.055085135873886050e-07,1.530982881598785849e-04,3.369448854523452255e-04,3.021717726040851204e+00,8.345262513175386509e-04,3.447807204560416998e-03,2.620372199129926138e-01
3.250000000000000000e+01,3.622793029659696074e-01,-7.745307049697480739e-02,1.000179061483757320e-01,1.405200819750252600e-02,1.010064699473562366e-01,-2.038938941741370023e-07,1.443661186768756927e-04,-2.301808136338039351e-04,3.054472337835009377e+00,1.280334830609395551e-04,5.309868401244344747e-03,2.620365900789126679e-01
3.275000000000000000e+01,3.640656996604135220e-01,-6.485260929027961141e-02,1.000178875677612267e-01,1.465434525570204552e-02,1.006275709872032076e-01,-7.865397841313759067e-08,2.506685134479978835e-04,-9.391327313531554113e-04,3.087226778257294413e+00,-1.004714773725766484e-03,5.865512635328876123e-03,2.620355481721745594e-01
3.300000000000000000e+01,3.659836738185795468e-01,-5.228964287489875490e-02,1.000178859920902302e-01,1.612431841207102867e-02,1.004332895871544867e-01,2.537044250155628272e-08,4.702762067054556982e-04,-1.627309793602067269e-03,3.119980860015912238e+00,-1.993261956670792576e-03,5.097315361129028423e-03,2.620344578324524387e-01
3.325000000000000000e+01,3.681358597780764463e-01,-3.972924885192796740e-02,1.000238102066627749e-01,1.834252807096366580e-02,1.005989613683854061e-01,9.880589467919708791e-05,7.633832186375869499e-04,-2.163347988886623989e-03,-3.129648276491240999e+00,-2.539754102726348665e-03,3.467786427259798767e-03,2.534770266285201190e-01
3.350000000000000000e+01,3.706001195524847303e-01,-2.711874640459954050e-02,1.000266427414370496e-01,2.105285697566057143e-02,1.012298721339646573e-01,-1.142749031389607465e-05,1.085480433723194291e-03,-2.486831830602842693e-03,-3.097483626488818143e+00,-2.684399886108346494e-03,1.652055241009811213e-03,2.597161546569085600e-01
3.375000000000000000e+01,3.734192440506620692e-01,-1.439727973711718220e-02,1.000244632870278955e-01,2.396815893390471380e-02,1.023589330225420785e-01,-1.866635944805468189e-05,1.409416441932065302e-03,-2.617324601539685984e-03,-3.064887467667980925e+00,-2.590053425540183533e-03,2.725574099644080019e-04,2.614159351019931243e-01
3.400000000000000000e+01,3.766031213435319103e-01,-1.502932418109294375e-03,1.000223691850603003e-01,2.685984267726774372e-02,1.039759822276641738e-01,-1.466265798818876541e-05,1.725074662342065577e-03,-2.628877498999939409e-03,-3.032175904047420101e+00,-2.464663875189563799e-03,-4.238427620071775841e-04,2.618702386688313011e-01
3.425000000000000000e+01,3.801395002861452377e-01,1.162378034026802058e-02,1.000208080729771687e-01,2.959973362359882149e-02,1.060577045525964712e-01,-1.060747744841728233e-05,2.035501094088346379e-03,-2.597885100117895175e-03,-2.999433471683855323e+00,-2.414600535167278801e-03,-6.431844984970492901e-04,2.619916684013678387e-01
3.450000000000000000e+01,3.840053623228049662e-01,2.503976191852456609e-02,1.000196877318915017e-01,3.213128774030073881e-02,1.085871726485105049e-01,-7.593624640157355046e-06,2.347478979981849206e-03,-2.551105101396023214e-03,-2.966682787529494103e+00,-2.386797711667745965e-03,-9.437989574781541951e-04,2.620241929769528966e-01
3.475000000000000000e+01,3.881709990288363388e-01,3.880003081125140557e-02,1.000188793731173892e-01,3.438815159218308604e-02,1.115479399360027601e-01,-5.556630576156618337e-06,2.664345072687692492e-03,-2.434698975888631954e-03,-2.933929823707842832e+00,-2.188292319073366788e-03,-1.985129302441426911e-03,2.620340627466709593e-01
3.500000000000000000e+01,3.925924685295921202e-01,5.295605865271327956e-02,1.000182728980566899e-01,3.619753739713137825e-02,1.148942298524723293e-01,-4.295288396523409638e-06,2.982463869387119455e-03,-2.117693930940925829e-03,-2.901175889658868634e+00,-1.564972113667190655e-03,-4.232638780946978464e-03,2.620405390604843010e-01
3.525000000000000000e+01,3.971934195358184372e-01,6.754943875954848298e-02,1.000177921445908474e-01,3.721275770393193266e-02,1.185090496357754791e-01,-3.451352167296286114e-06,3.290328959926446407e-03,-1.429454188549836476e-03,-2.868420812152542521e+00,-3.092137031989550342e-04,-7.731559660931915795e-03,2.620500962226652852e-01
3.550000000000000000e+01,4.018423115782353561e-01,8.260047940430839675e-02,1.000174216449971482e-01,3.690900524868277049e-02,1.221677975211206552e-01,-2.418963979641883193e-06,3.568871396437708985e-03,-2.185784545461702413e-04,-2.835663907657123506e+00,1.637489594751055915e-03,-1.202494223362196926e-02,2.620646763515762645e-01
3.575000000000000000e+01,4.063339871680807236e-01,9.809357820975694864e-02,1.000172305357436148e-01,3.465461994514587585e-02,1.255250387035252713e-01,-5.132195679217724380e-07,3.792473411484177659e-03,1.585598772382770718e-03,-2.802904522929595021e+00,4.116340362973973377e-03,-1.623347099224240961e-02,2.620831642948975304e-01
3.600000000000000000e+01,4.103844706975310341e-01,1.139631600971301034e-01,1.000173514893042265e-01,2.984539342081568222e-02,1.281369884522141622e-01,2.505079752204517570e-06,3.931176633691671821e-03,3.927121134841790075e-03,-2.770142548209452382e+00,6.737415432348055865e-03,-1.926319734890564669e-02,2.621016475160599102e-01
3.625000000000000000e+01,4.136449610872284244e-01,1.300849826719523428e-01,1.000178855247447207e-01,2.206982569116136897e-02,1.295233325146374626e-01,5.854610950682210439e-06,3.954795382554157288e-03,6.605959815627413488e-03,-2.737378834926568860e+00,8.929126454878413485e-03,-2.007968759688180324e-02,2.621143448933347386e-01
3.650000000000000000e+01,4.157362110651736664e-01,1.462773820098100530e-01,1.000187632598446424e-01,1.126311474030531994e-02,1.292612825952324240e-01,7.691061978034874753e-06,3.838997377090099840e-03,9.294671201018218573e-03,-2.704615270202262778e+00,1.004883650615471385e-02,-1.798270808512553512e-02,2.621156987344859246e-01
3.675000000000000000e+01,4.162991195069260519e-01,1.623154520531874812e-01,1.000196585806663874e-01,-2.192106579542517798e-03,1.270942572633636525e-01,5.974766982594465334e-06,3.572361531032647135e-03,1.158792531866863727e-02,-2.671854305627983539e+00,9.539807138933164427e-03,-1.282251943577650613e-02,2.621030725657541582e-01
3.700000000000000000e+01,4.150526404360406207e-01,1.779583912551029601e-01,1.000200579473419643e-01,-1.745077458821629734e-02,1.230295230657505179e-01,-4.167188052320041191e-08,3.162578007804815912e-03,1.307738706392437035e-02,-2.639098006171782362e+00,7.104385056711036428e-03,-5.108711798549540883e-03,2.620786942892311400e-01
3.725000000000000000e+01,4.118470823472670794e-01,1.929867758826119828e-01,1.000195050906317051e-01,-3.329161432573667090e-02,1.173960063110582319e-01,-8.678778112438088017e-06,2.639729842998253615e-03,1.343867783263780896e-02,-2.606347042724027396e+00,2.849020010620106642e-03,4.023579037023577998e-03,2.620494340843995684e-01
3.750000000000000000e+01,4.067003311826778433e-01,2.072430990095592562e-01,1.000179045103184727e-01,-4.829788337124374387e-02,1.108375348457957682e-01,-1.611370776141106601e-05,2.055082099050714421e-03,1.251253696154636455e-02,-2.573600233763196243e+00,-2.649059767452932850e-03,1.300133974118256736e-02,2.620240165134303800e-01
3.775000000000000000e+01,3.998069010759833231e-01,2.206665249392052164e-01,1.000156770132138023e-01,-6.110235078350639837e-02,1.042289330582997914e-01,-1.834573248220137980e-05,1.474855877809527933e-03,1.036047242053878860e-02,-2.540855028982513364e+00,-8.393489121413941906e-03,2.013071251231802333e-02,2.620089160272128237e-01
3.800000000000000000e+01,3.915148427500308448e-01,2.333124007587505377e-01,1.000136112089408669e-01,-7.064663390019959577e-02,9.852122740819267699e-02,-1.380007685261152953e-05,9.697904429217229496e-04,7.277980256628800541e-03,-2.508108764288830450e+00,-1.315013751347853324e-02,2.397842942503216473e-02,2.620053529758648025e-01
3.825000000000000000e+01,3.822725122539377685e-01,2.453492231093777065e-01,1.000124489057502147e-01,-7.639571207210385517e-02,9.454338930462619084e-02,-4.710987784578081380e-06,6.025064991601366670e-04,3.756555204119415344e-03,-2.475359960396512182e+00,-1.572902968296795156e-02,2.372334451295176477e-02,2.620094163926420805e-01
3.850000000000000000e+01,3.725544045412574889e-01,2.570303644848135338e-01,1.000124547659326374e-01,-7.845404686755587387e-02,9.280504866969768729e-02,4.015757772833800889e-06,4.153842495252803540e-04,3.978098365150060803e-04,-2.442608829469544496e+00,-1.529927892873949452e-02,1.938100765993954269e-02,2.620153475081780092e-01
3.875000000000000000e+01,3.627807537940958005e-01,2.686439705605402906e-01,1.000132748270576161e-01,-7.755048336698286415e-02,9.335107258435551558e-02,7.965714574916508660e-06,4.216620695480026134e-04,-2.204174581733768078e-03,-2.409856656326728519e+00,-1.164859863006336392e-02,1.183242592165289868e-02,2.620197239224496544e-01
3.900000000000000000e+01,3.532477715382317252e-01,2.804504598614033228e-01,1.000142063953277649e-01,-7.489009810495747543e-02,9.571126339298767494e-02,6.200201284260865341e-06,6.018192252338620167e-04,-3.586462816262064347e-03,-2.377104519074861422e+00,-5.304977180964738637e-03,2.639501514529983116e-03,2.620234839123772308e-01
3.925000000000000000e+01,3.440834678877919273e-01,2.926212291856699066e-01,1.000146978923095314e-01,-7.190409207121925550e-02,9.896745388046447600e-02,1.753841207653771287e-06,9.062462327391820763e-04,-3.517618233815146198e-03,-2.344352314250705671e+00,2.528370988733426999e-03,-6.311127443385172037e-03,2.620302612019169142e-01
3.950000000000000000e+01,3.352383301894464318e-01,3.051931092909095922e-01,1.000147103696687328e-01,-6.995462120467392519e-02,1.019309753794561679e-01,-8.460679066278100003e-07,1.263952340650511966e-03,-2.049907656580831922e-03,-2.311598836555984526e+00,1.022121711461964309e-02,-1.324469531735812146e-02,2.620423600279131460e-01
3.975000000000000000e+01,3.265121106497474446e-01,3.180502825967710390e-01,1.000146693463050823e-01,-7.006282990051510007e-02,1.033938909662510258e-01,8.427476846860901910e-07,1.595809928170622725e-03,4.901724887648679701e-04,-2.278842856153742158e+00,1.608927174945236349e-02,-1.690047096233983012e-02,2.620576458371967621e-01
4.000000000000000000e+01,3.176096698263586871e-01,3.309393082750258230e-01,1.000150539939335670e-01,-7.272192738196721351e-02,1.023963213055870680e-01,5.315001323295213609e-06,1.829790069316625332e-03,3.571240528428970551e-03,-2.246084347946743609e+00,1.879500463310332034e-02,-1.679497779306217756e-02,2.620699891973360396e-01
4.025000000000000000e+01,3.082124054398870383e-01,3.435151269223926107e-01,1.000159556555131890e-01,-7.783464079402921398e-02,9.844618725731621445e-02,8.417543803994708118e-06,1.915035913839621207e-03,6.569635658843750274e-03,-2.213324886644293610e+00,1.767101864479243487e-02,-1.328393866210458851e-02,2.620730977012917795e-01
4.050000000000000000e+01,2.980488918146325661e-01,3.554084903115440897e-01,1.000169557109557711e-01,-8.478241357867102868e-02,9.163851651361640260e-02,6.716185842958985564e-06,1.831693801789145183e-03,8.898748694948341656e-03,-2.180566855578348395e+00,1.288363355420681089e-02,-7.419770453556214299e-03,2.620648640112709926e-01
4.075000000000000000e+01,2.869495531403527533e-01,3.663001120081391115e-01,1.000174132373421454e-01,-9.260166844883160886e-02,8.264568563004445756e-02,2.394504848359453907e-07,1.594279713186605137e-03,1.012597249265546721e-02,-2.147812027025351345e+00,5.399408797077696019e-03,-6.570512421732999358e-04,2.620489484342794495e-01
4.100000000000000000e+01,2.748749158252082325e-01,3.759852107246021702e-01,1.000169326770948691e-01,-1.002190519772696575e-01,7.258061902038906443e-02,-7.482497416670060537e-06,1.247830965172858639e-03,1.005290177997041241e-02,-2.115060537761943582e+00,-3.231277798474319930e-03,5.507309012044291074e-03,2.620324748143015858e-01
4.125000000000000000e+01,2.619137681561886088e-01,3.844143062508253439e-01,1.000156550083009382e-01,-1.066880349335258132e-01,6.276408636575346589e-02,-1.197813764389946344e-05,8.577865606172875405e-04,8.744229486690334799e-03,-2.082310958401817125e+00,-1.121750272101487353e-02,9.866870393142693554e-03,2.620216351829771639e-01
4.150000000000000000e+01,2.482545758259648017e-01,3.917014868947159556e-01,1.000141666430513915e-01,-1.113742671651701960e-01,5.444823461881731497e-02,-1.094923487841351028e-05,4.959944158503740283e-04,6.502464588381199131e-03,-2.049561328816468464e+00,-1.691892853927996418e-02,1.173838468365337971e-02,2.620183765230830186e-01
4.175000000000000000e+01,2.341391016431417504e-01,3.980985990039478950e-01,1.000131125324016518e-01,-1.140536786167121730e-01,4.855744794099518813e-02,-5.648126946017322134e-06,2.260640381707792503e-04,3.796294754325918105e-03,-2.016810362248562694e+00,-1.920165236506968590e-02,1.105421355941253216e-02,2.620202784326313705e-01
4.200000000000000000e+01,2.198102275544462914e-01,4.039413062603406379e-01,1.000128052512630206e-01,-1.149103669775560915e-01,4.550336187831184598e-02,3.180036284653831885e-07,9.125275102712712542e-05,1.158603373104759348e-03,-1.984057990699372720e+00,-1.768450447342879636e-02,8.309144619367922480e-03,2.620232581900347468e-01
4.225000000000000000e+01,2.054660401071785325e-01,4.095791229019743462e-01,1.000130983728544087e-01,-1.144450881513808110e-01,4.511442774784920479e-02,3.661743672222849337e-06,1.072635168138495347e-04,-9.247081017274364758e-04,-1.951304990742247725e+00,-1.282062938592617302e-02,4.386682497924999230e-03,2.620248025542578629e-01
4.250000000000000000e+01,1.912295717703963449e-01,4.153049981763276555e-01,1.000135777982610052e-01,-1.133244772373880327e-01,4.669489111834285860e-02,3.509633125775625974e-06,2.610697667814769127e-04,-2.112190643281775838e-03,-1.918552113671216253e+00,-5.788837183659810252e-03,3.126651335208632050e-04,2.620253502444643279e-01
4.275000000000000000e+01,1.771390119649176309e-01,4.212999783963429778e-01,1.000138919688157435e-01,-1.122121557108539253e-01,4.919828543592860703e-02,1.482735309708225084e-06,5.155541482538737947e-04,-2.269920054942219101e-03,-1.885799436133632989e+00,1.790332283870490863e-03,-3.002443076044339701e-03,2.620270995281033799e-01
4.300000000000000000e+01,1.631578990368614812e-01,4.276047679848288818e-01,1.000139647135907944e-01,-1.116236104135933244e-01,5.147292542260427373e-02,-2.395458951713325135e-08,8.186265539516073822e-04,-1.486168996753640080e-03,-1.853046379763271023e+00,8.253042948542231236e-03,-4.969567835606661377e-03,2.620315299377196649e-01
4.325000000000000000e+01,1.492000830118794530e-01,4.341233767020439838e-01,1.000139580522905192e-01,-1.118372450339003565e-01,5.251848527256609833e-02,1.937801251831129413e-07,1.114703715311153283e-03,-3.445487241214701242e-05,-1.820292283314912885e+00,1.230553802621008400e-02,-5.425167942741934701e-03,2.620377667740401706e-01
4.350000000000000000e+01,1.351612542183686372e-01,4.406560414314563690e-01,1.000140627595224735e-01,-1.128767224520023926e-01,5.168959580955702349e-02,1.493089425216143978e-06,1.356048524681732629e-03,1.705357332915977131e-03,-1.787537007114507137e+00,1.333751722566866790e-02,-4.610719598599446155e-03,2.620430252416861561e-01
4.375000000000000000e+01,1.209482611693076665e-01,4.469513666421376930e-01,1.000143154144433888e-01,-1.145592546648662308e-01,4.879702928549154578e-02,2.327175821024634887e-06,1.511540611688685833e-03,3.346700166029530597e-03,-1.754781097167954274e+00,1.154086225541880485e-02,-3.041373641918814538e-03,2.620445919695267301e-01
4.400000000000000000e+01,1.064993132995741970e-01,4.527632317172531340e-01,1.000145832498681581e-01,-1.165867767801526539e-01,4.408649054966996134e-02,1.727036334686411388e-06,1.571036848931787761e-03,4.589350170014711364e-03,-1.722025441107916999e+00,7.794858262993313754e-03,-1.312188409523150140e-03,2.620416526509810606e-01
4.425000000000000000e+01,9.179176913761098733e-02,4.578978172785671541e-01,1.000146941397636879e-01,-1.186474186450506146e-01,3.811079114352600161e-02,-5.479785787906349433e-10,1.544549810955080527e-03,5.280495554545933980e-03,-1.689270740464850373e+00,3.354504868773716935e-03,9.062011641092034193e-05,2.620356272689312593e-01
4.450000000000000000e+01,7.683830121760684695e-02,4.622401608296696218e-01,1.000145748638753135e-01,-1.204962396342462855e-01,3.154169882935481395e-02,-1.760433350998108232e-06,1.456811786502430588e-03,5.428603048807188053e-03,-1.656517193897429463e+00,-5.534507919104375432e-04,9.114716270649181806e-04,2.620290331411110896e-01
4.475000000000000000e+01,6.167544792897846490e-02,4.657566003070995331e-01,1.000142858437021165e-01,-1.219957284258733066e-01,2.498259467772988643e-02,-2.652949619281022387e-06,1.339020755146837216e-03,5.170163443026710125e-03,-1.623764541700231323e+00,-3.089168512050337670e-03,1.147335151860636024e-03,2.620239695710925854e-01
4.500000000000000000e+01,4.634994177603757315e-02,4.684769372113236630e-01,1.000139533717873536e-01,-1.231132601035858226e-01,1.883706549603651054e-02,-2.526412350210244354e-06,1.220266702414111266e-03,4.704575418236284917e-03,-1.591012331392876122e+00,-3.993257841803577422e-03,9.776333361942721786e-04,2.620212892332195453e-01
