time_total,x,y,z,vx,vy,vz,roll,pitch,yaw,roll_rate,pitch_rate,yaw_rate
-01,9.990054972806693134e-02,8.561987164788156801e-02,-1.674663883521151364e-01,3.857049883071762288e-04,-5.244705011565602322e-04,9.053952828891773455e-03,-2.743327703076771318e+00,1.286058435578037173e-02,1.560019385640906350e-02,-3.931186030440094181e-01
2.500000000000000000e-01,4.356564360227058175e-01,2.312013508640937687e-01,9.994061541110343949e-02,7.631315077746270159e-02,-1.721125072842829007e-01,2.674553302160116459e-04,-3.009911764676203964e-03,7.442613649159848972e-03,-2.792480752924995535e+00,1.240773940616558130e-02,2.071953897367804359e-02,-3.930112658478245868e-01
5.000000000000000000e-01,4.447467047485524350e-01,2.093058389936431340e-01,9.996855978416850641e-02,6.979331696232969617e-02,-1.781670227964308462e-01,1.868978106039663521e-04,-4.680134579355552972e-03,5.477829746351780757e-03,-2.841614200169848115e+00,2.467113869103002618e-03,1.688439286131643291e-02,-3.929586277883526102e-01
7.500000000000000000e-01,4.531766672347752878e-01,1.866275605743495103e-01,9.998797592528642364e-02,6.552597445019008038e-02,-1.843758393550931907e-01,1.289556630302462537e-04,-4.786982186970430847e-03,3.754972861489812731e-03,-2.890734065533826946e+00,-7.378387392437169706e-03,1.038997971518035301e-02,-3.929543058951061041e-01
1.000000000000000000e+00,4.611681173547836354e-01,1.632400089048917369e-01,1.000013616511186004e-01,6.258507620010456129e-02,-1.893792593484300291e-01,8.931662779095548860e-05,-3.783889858992653833e-03,2.562248676720621423e-03,-2.939851474048982283e+00,-1.126644600654752928e-02,5.188791473350810694e-03,-3.929744368015067879e-01
1.250000000000000000e+00,4.688365222422786749e-01,1.393409037843887088e-01,1.000107479049457126e-01,6.024605704787518168e-02,-1.926097425078308611e-01,6.350794116197813191e-05,-2.590728786589393054e-03,1.902205715856175247e-03,-2.988972195736374182e+00,-8.591038777388385062e-03,2.250916278778649412e-03,-3.929977032200398512e-01
1.500000000000000000e+00,4.762287330746873271e-01,1.151362171795617534e-01,1.000174782841173338e-01,5.811480869250466169e-02,-1.944389026521817221e-01,4.573942759310436037e-05,-1.931932999254367322e-03,1.641293702161673472e-03,-3.038096871898718021e+00,-2.360830850867531774e-03,6.491800694556972310e-04,-3.930137636520501521e-01
1.750000000000000000e+00,4.833558862741951789e-01,9.074517325495445874e-02,1.000223169586813288e-01,5.597166028342476923e-02,-1.957726758984791315e-01,3.280079103547677710e-05,-2.040598057360996833e-03,1.663529061113189775e-03,-3.087224385406178939e+00,3.595971246365613130e-03,-9.500563704161176046e-04,-3.930224091153320387e-01
2.000000000000000000e+00,4.902014452710643511e-01,6.616996232606213446e-02,1.000257895489578275e-01,5.356619723145351203e-02,-1.974926279782780458e-01,2.362228703824700388e-05,-2.723567529015828194e-03,1.943602292507060243e-03,-3.136353800377428502e+00,6.773939564319339177e-03,-3.290294600314905456e-03,-3.930284417187637214e-01
2.250000000000000000e+00,4.967091811008508828e-01,4.132666042998263400e-02,1.000372167804139817e-01,5.051328371650851135e-02,-2.000680790768983031e-01,2.985391638671602203e-05,-3.609866605627657602e-03,2.525223728266446331e-03,3.097303961868448585e+00,6.699123125553813410e-03,-6.265176735466370002e-03,-3.887450302499106947e-01
2.500000000000000000e+00,5.027676468855410974e-01,1.610558514168431571e-02,1.000378768300179966e-01,4.633183929944744567e-02,-2.034674579111804549e-01,-5.377597353270821856e-06,-4.379963696839751439e-03,3.455281853157549533e-03,3.048462720854323127e+00,4.385667791422088665e-03,-9.237341783965907424e-03,-3.919020307136672487e-01
2.750000000000000000e+00,5.082044461479380271e-01,-9.573116417012975804e-03,1.000370317787027952e-01,4.054976565266959349e-02,-2.072911366934165334e-01,-6.639643627135049977e-06,-4.886618564947335999e-03,4.712447819644612415e-03,2.999406570168496433e+00,1.391339689771765430e-03,-1.140528601974507769e-02,-3.927560769515346384e-01
3.000000000000000000e+00,5.127961921455204131e-01,-3.572824443312612452e-02,1.000363423438376947e-01,3.283776509858055137e-02,-2.110054110973050290e-01,-4.405949122900030662e-06,-5.139501807189332180e-03,6.186404177695915656e-03,2.950292389999713549e+00,-1.089549787147944034e-03,-1.222781482488561125e-02,-3.929927556051198700e-01
3.250000000000000000e+00,5.162924236333098493e-01,-6.231409461268677674e-02,1.000359186619675933e-01,2.309303093856392847e-02,-2.141343060265648857e-01,-2.595254154605063040e-06,-5.224986051357008963e-03,7.703385059137800653e-03,2.901162549647337219e+00,-2.538955755446749285e-03,-1.154214106721873460e-02,-3.930591485996405288e-01
3.500000000000000000e+00,5.184458629945838393e-01,-8.923485167353399639e-02,1.000356471077116366e-01,1.145938928971771548e-02,-2.163545374255622655e-01,-2.000284671916043811e-06,-5.227080120074055133e-03,9.075568272039475151e-03,2.852028933052590975e+00,-3.006133422408228863e-03,-9.528443697563728290e-03,-3.930731522829815638e-01
3.750000000000000000e+00,5.190415150345083495e-01,-1.163649550132635768e-01,1.000353614049345058e-01,-1.706669651384877312e-03,-2.175045152183319452e-01,-2.749340629107914518e-06,-5.187683208543996533e-03,1.014829284114839719e-02,2.802895434588763557e+00,-2.794058061171623194e-03,-6.587473705449723750e-03,-3.930669867540006468e-01
4.000000000000000000e+00,5.179191411460618566e-01,-1.435673045688592997e-01,1.000349161753750771e-01,-1.590315672589327420e-02,-2.175500265503186870e-01,-4.411870641451401402e-06,-5.109151709785989676e-03,1.082739940373337630e-02,2.753763814223393336e+00,-2.184819024134850973e-03,-3.210391841886034350e-03,-3.930517828833727800e-01
4.250000000000000000e+00,5.149863404555975466e-01,-1.707066474366873976e-01,1.000342450966158203e-01,-3.056230091422330875e-02,-2.165466490780126041e-01,-6.222517114790708819e-06,-4.979495580970233308e-03,1.108397719945463343e-02,2.704634933962314136e+00,-1.327451618827549425e-03,1.160892948835042990e-04,-3.930336305863831314e-01
4.500000000000000000e+00,5.102216672154891164e-01,-1.976591530820599185e-01,1.000333789661400630e-01,-4.512853629241934950e-02,-2.146167347888803256e-01,-7.450405760746636243e-06,-4.797008669713441129e-03,1.094483102774688847e-02,2.655508867857087729e+00,-2.794410299813030948e-04,2.962881641890582896e-03,-3.930166926160235663e-01
4.750000000000000000e+00,5.036685596588537095e-01,-2.243198918574783596e-01,1.000324221881810638e-01,-5.912694617547265691e-02,-2.119364779401682608e-01,-7.667133947553062795e-06,-4.580687649944564267e-03,1.047959565486368191e-02,2.606385002674236784e+00,8.841097628928674783e-04,4.986197744903218473e-03,-3.930034829897900983e-01
5.000000000000000000e+00,4.954215732693924568e-01,-2.506085472306440742e-01,1.000315082259571886e-01,-7.221778074182656770e-02,-2.087181794830279824e-01,-6.821258572918427116e-06,-4.365340246760833660e-03,9.790969176421001133e-03,2.557262349248586197e+00,1.987057856700118370e-03,5.950447362029797835e-03,-3.929950679638300470e-01
5.250000000000000000e+00,4.856069168118902768e-01,-2.764719229971451253e-01,1.000307560660064488e-01,-8.423292714998045772e-02,-2.051761577252584623e-01,-5.165710786899387522e-06,-4.188391819506072020e-03,9.007741077874834718e-03,2.508139908039817456e+00,2.748029219735710453e-03,5.757281083919161928e-03,-3.929915880526565486e-01
5.500000000000000000e+00,4.743598686112120988e-01,-3.018810665543692484e-01,1.000302410269594128e-01,-9.518922882266619978e-02,-2.014763452281548572e-01,-3.114044989625459077e-06,-4.076883945413833921e-03,8.275888774831886494e-03,2.459016894860039493e+00,2.855791011511869901e-03,4.475566612268213826e-03,-3.929928110639707706e-01
5.750000000000000000e+00,4.618022936057721850e-01,-3.268216434111134716e-01,1.000299853057827898e-01,-1.052738567158866267e-01,-1.976816240820566672e-01,-1.075654937580107708e-06,-4.040015674460571693e-03,7.743213347194986829e-03,2.409892772753390755e+00,2.085291663446411925e-03,2.354918235745477942e-03,-3.929984183902273109e-01
6.000000000000000000e+00,4.480239054432715862e-01,-3.512781948958449973e-01,1.000299681648560285e-01,-1.148001793272944576e-01,-1.937113286652796251e-01,6.853180079762845849e-07,-4.068265843114121649e-03,7.536883464874429180e-03,2.360767178879235484e+00,4.019912868843590224e-04,-1.957708673617705730e-04,-3.930079348445535969e-01
6.250000000000000000e+00,4.330707440032213751e-01,-3.752151944446225906e-01,1.000301486976368920e-01,-1.241386167192145423e-01,-1.893317630392468143e-01,2.101193946003780471e-06,-4.137230619989395314e-03,7.738087731347215691e-03,2.311639879999301872e+00,-1.987559280973156053e-03,-2.672611810415972261e-03,-3.930204123593247223e-01
6.500000000000000000e+00,4.169433256842480229e-01,-3.985594450769793795e-01,1.000304861376554444e-01,-1.336339002317238067e-01,-1.841863395790977742e-01,3.212313950367596766e-06,-4.213574790782530916e-03,8.360991270245140411e-03,2.262510832993428256e+00,-4.657280541394947723e-03,-4.574894488570519467e-03,-3.930341133861447456e-01
6.750000000000000000e+00,3.996051314606833826e-01,-4.211887112191052829e-01,1.000309417897245201e-01,-1.435253103799332686e-01,-1.778625267569592938e-01,3.981987112247054096e-06,-4.261245532850452440e-03,9.343071656465308863e-03,2.213380323592781806e+00,-7.048903896421611012e-03,-5.513912389988593656e-03,-3.930464912287399137e-01
7.000000000000000000e+00,3.809999014037368514e-01,-4.429304082702501533e-01,1.000314592776461731e-01,-1.538876418597330265e-01,-1.699820614026889276e-01,4.162092566652292303e-06,-4.247176052690268024e-03,1.055105861717062048e-02,2.164249073644713750e+00,-8.600683114309167626e-03,-5.302942001249296398e-03,-3.930546715823678983e-01
7.250000000000000000e+00,3.610741717321742095e-01,-4.635719748691084496e-01,1.000319398015809269e-01,-1.646070022777576525e-01,-1.602938189762683763e-01,3.357699282682681232e-06,-4.146304635475176782e-03,1.180248223482713125e-02,2.115118192770941263e+00,-8.884195265483748813e-03,-4.002391059539320631e-03,-3.930563735899025302e-01
7.500000000000000000e+00,3.398001927996978644e-01,-4.828818032021018336e-01,1.000322398625608511e-01,-1.753978110543455149e-01,-1.487469528937803431e-01,1.300367501510466130e-06,-3.945698894378775121e-03,1.289873336633333943e-02,2.065988919894354847e+00,-7.715412472694177688e-03,-1.905814090031952845e-03,-3.930508827831495910e-01
7.750000000000000000e+00,3.171941977092011533e-01,-5.006369913769995739e-01,1.000322080419031590e-01,-1.858575223370977081e-01,-1.355256622775961040e-01,-1.841296350561156520e-06,-3.647238317392219840e-03,1.366267160897465145e-02,2.016862224516104973e+00,-5.212566789939171441e-03,5.312810627258663689e-04,-3.930395330796262465e-01
8.000000000000000000e+00,2.933260454056599298e-01,-5.166523519414365495e-01,1.000317496579511689e-01,-1.955463116615945296e-01,-1.210353103493970045e-01,-5.355461899954278938e-06,-3.268119445945236786e-03,1.397272372021758982e-02,1.967738444487708627e+00,-1.784963993463283081e-03,2.802012510685628326e-03,-3.930253390724641194e-01
8.250000000000000000e+00,2.683182991559084352e-01,-5.308045281503704915e-01,1.000308835197828983e-01,-2.040727974411072065e-01,-1.058407480150107272e-01,-8.211971408926554034e-06,-2.838668251859697515e-03,1.378615789408750049e-02,1.918617148693160912e+00,1.947642580316021879e-03,4.469165945606669993e-03,-3.930118786708220457e-01
8.500000000000000000e+00,2.423353074926699602e-01,-5.430459236158378111e-01,1.000297534351190787e-01,-2.111655619165804243e-01,-9.056908332440107012e-02,-9.518481672104609430e-06,-2.397541316551353267e-03,1.314654661411532831e-02,1.869497305955307942e+00,5.288591223652171040e-03,5.264680846162061306e-03,-3.930019712214988248e-01
8.750000000000000000e+00,2.155651789415001796e-01,-5.534052935453509514e-01,1.000285820748973431e-01,-2.167142231809970343e-01,-7.579800039641167164e-02,-8.937729762435096432e-06,-1.985123237982702651e-03,1.217383885373428919e-02,1.820377676000163980e+00,7.620032542791078251e-03,5.141702684287975840e-03,-3.929968175354490167e-01
9.000000000000000000e+00,1.881990764003350081e-01,-5.619748002260105402e-01,1.000275896912678486e-01,-2.207720212973033058e-01,-6.195470059246192124e-02,-6.812483060155130229e-06,-1.636480909776636241e-03,1.103922638391048941e-02,1.771257222565836287e+00,8.542868499552666930e-03,4.266978770587894973e-03,-3.929959738537592284e-01
9.250000000000000000e+00,1.604126124594500713e-01,-5.688863943691920833e-01,1.000269206281519802e-01,-2.235220177224027938e-01,-4.924836142343688022e-02,-3.938435404560183074e-06,-1.375406711334910053e-03,9.930301173778334489e-03,1.722135358529353510e+00,7.965401875930408493e-03,2.958430869254370914e-03,-3.929980256963415686e-01
9.500000000000000000e+00,1.323532457771168236e-01,-5.742827828898753317e-01,1.000266127420195023e-01,-2.252182101442503914e-01,-3.765101653485741773e-02,-1.152700516982618528e-06,-1.210825884869239522e-03,9.014116845719961912e-03,1.673011954104463905e+00,6.117622738944194540e-03,1.588069926701854689e-03,-3.930014567934000391e-01
9.750000000000000000e+00,1.041357503582812788e-01,-5.782893674601062850e-01,1.000266157074038986e-01,-2.261185752138739902e-01,-2.692993037703462697e-02,9.980539205852963245e-07,-1.136263010072798485e-03,8.406108656660275444e-03,1.623887181093853993e+00,3.488186180185050798e-03,4.793884652853892901e-04,-3.930052040692788018e-01
1.000000000000000000e+01,7.584560058192001131e-02,-5.809931057936198462e-01,1.000268354727858744e-01,-2.264277960467316053e-01,-1.672208767264645596e-02,2.339759544090322745e-06,-1.132347233121430707e-03,8.151193451281707469e-03,1.574761333501083493e+00,7.029262086418075917e-04,-1.719781358119746618e-04,-3.930087070702845686e-01
1.025000000000000000e+01,4.754811708260529846e-02,-5.824324100264460791e-01,1.000271733029431259e-01,-2.262633006978395644e-01,-6.631832997850467884e-03,2.929694607512994183e-06,-1.171681227809736291e-03,8.220162477842751086e-03,1.525634727233341481e+00,-1.620393454503945901e-03,-3.348852439342492543e-04,-3.930116336847723768e-01
1.050000000000000000e+01,1.929997198474208558e-02,-5.825994937505463156e-01,1.000275415977550236e-01,-2.256508235522792505e-01,3.671453684351246114e-03,2.860342418726634293e-06,-1.224952532227493703e-03,8.520681628891866102e-03,1.476507687379918554e+00,-3.002892100744537773e-03,-1.317353756434405459e-04,-3.930136256567692277e-01
1.075000000000000000e+01,-8.840587272618161130e-03,-5.814537556506033100e-01,1.000278609504616223e-01,-2.245474550361627741e-01,1.437682745870929278e-02,2.170705703658346899e-06,-1.267001282868546316e-03,8.919142648213819122e-03,1.427380559971981322e+00,-3.193106987045166330e-03,2.111893361480302554e-04,-3.930142874044218471e-01
1.100000000000000000e+01,-3.680772059686272801e-02,-5.789425265060283987e-01,1.000280560502635196e-01,-2.228833861654607174e-01,2.549105557455881924e-02,9.063719342530613204e-07,-1.281672107853365754e-03,9.268237015840393583e-03,1.378253683176796196e+00,-2.203079822699555330e-03,4.355098934701241058e-04,-3.930133879201885283e-01
1.125000000000000000e+01,-6.452772469193433780e-02,-5.750242122557548408e-01,1.000280645735934087e-01,-2.206096367249485157e-01,3.683993712416088612e-02,-7.556324964093448172e-07,-1.264604351056380482e-03,9.435450278201553548e-03,1.329127307140255176e+00,-2.964636768516056985e-04,3.271677072271232797e-04,-3.930110707077998922e-01
1.150000000000000000e+01,-9.192437495610288056e-02,-5.696886149055123694e-01,1.000278588461660512e-01,-2.177381949756599655e-01,4.810990972473040694e-02,-2.444839475851285074e-06,-1.223551752321921796e-03,9.328761996726876032e-03,1.280001510144429089e+00,2.061932415254168986e-03,-2.173330072338880230e-04,-3.930078792557396006e-01
1.175000000000000000e+01,-1.189281390225487151e-01,-5.629698731811310086e-01,1.000274664431738819e-01,-2.143627772452538771e-01,5.892159473140985704e-02,-3.677172530104824785e-06,-1.176266408548463753e-03,8.916564692798218186e-03,1.230876174758106956e+00,4.288501669204184373e-03,-1.147529804616815880e-03,-3.930045624092896039e-01
1.200000000000000000e+01,-1.454862848951889442e-01,-5.549488660870296464e-01,1.000269722249651355e-01,-2.106524389020880683e-01,6.892155582317514850e-02,-4.055663067083012560e-06,-1.146360595424262977e-03,8.238760096350085382e-03,1.181751050306580009e+00,5.790760189920305875e-03,-2.250418673002294208e-03,-3.930017981739230004e-01
1.225000000000000000e+01,-1.715703068467631653e-01,-5.457439312352174721e-01,1.000264934325513083e-01,-2.068163249388521585e-01,7.787420452286585026e-02,-3.475792411309748443e-06,-1.157849777999527506e-03,7.405750318122594246e-03,1.132625864806489746e+00,6.095432209502161733e-03,-3.186353837302695769e-03,-3.930000427139831998e-01
1.250000000000000000e+01,-1.971773595197645612e-01,-5.354911961507977658e-01,1.000261370159345603e-01,-2.030454799142566158e-01,8.573329896684046825e-02,-2.187240944462622582e-06,-1.229290950973216693e-03,6.582737593052567955e-03,1.083500408207008547e+00,4.973205789169009294e-03,-3.571332903832966782e-03,-3.929996130966432188e-01
1.275000000000000000e+01,-2.223236482099015809e-01,-5.243183643098493496e-01,1.000259632201251081e-01,-1.994455319797174553e-01,9.267362262978891263e-02,-6.391969704852496905e-07,-1.368569744755796349e-03,5.959188596933579635e-03,1.034374527721916515e+00,2.526767837681745659e-03,-3.093378881057567541e-03,-3.930008929532154416e-01
1.300000000000000000e+01,-2.470298630789622696e-01,-5.123178696155225031e-01,1.000259785055323536e-01,-1.959799073377240797e-01,9.906984191018418373e-02,8.005155046425698019e-07,-1.569428924251940706e-03,5.707333576100699461e-03,9.852480534646257393e-01,-7.931286363675414935e-04,-1.634261546401923190e-03,-3.930043722029840092e-01
1.325000000000000000e+01,-2.713013350996867912e-01,-4.995262271429103396e-01,1.000261597750788517e-01,-1.924443337468819404e-01,1.054212992988090153e-01,2.027766545549980153e-06,-1.810701555889119522e-03,5.937931176396108249e-03,9.361207539032704306e-01,-4.265183757894855897e-03,6.434505785367894935e-04,-3.930102918475907314e-01
1.350000000000000000e+01,-2.951079040182997826e-01,-4.859156192071351632e-01,1.000264841309493058e-01,-1.884878961033557287e-01,1.122363061034947762e-01,3.102819969305287278e-06,-2.058840070593530303e-03,6.664479866069258039e-03,8.869924269747153645e-01,-7.063140844661526356e-03,3.282774463841319108e-03,-3.930180104928302498e-01
1.375000000000000000e+01,-3.183696831849648357e-01,-4.714011466635052994e-01,1.000269296964134275e-01,-1.836839683050379701e-01,1.199030323569454520e-01,3.929580813192411367e-06,-2.273697517098609896e-03,7.787026324726512884e-03,8.378631280918852342e-01,-8.472026584077346073e-03,5.613706034060642752e-03,-3.930256063806837341e-01
1.400000000000000000e+01,-3.409543278643766273e-01,-4.558632284716979677e-01,1.000274386004921939e-01,-1.776387103664976708e-01,1.285813898537466193e-01,4.031905091045318205e-06,-2.416706584727900016e-03,9.102973647036433427e-03,7.887333832072772610e-01,-8.093332351308026029e-03,6.920862074508649965e-03,-3.930302769463805967e-01
1.425000000000000000e+01,-3.626889003790336186e-01,-4.391803873108020562e-01,1.000278766741613812e-01,-1.701103801976479035e-01,1.381477154271470720e-01,2.743312606638585599e-06,-2.459819922560082823e-03,1.034539311667191479e-02,7.396041703563251968e-01,-5.972471379540304597e-03,6.654893815021888787e-03,-3.930295972436262386e-01
1.450000000000000000e+01,-3.833854854492513842e-01,-4.212644258412057696e-01,1.000280444486608133e-01,-1.611049481689786900e-01,1.482110339787419406e-01,-2.189566707890063337e-07,-2.393091674527384870e-03,1.124119957162793976e-02,6.904765737023648153e-01,-2.601436509630310114e-03,4.621688356639456347e-03,-3.930229493830866838e-01
1.475000000000000000e+01,-4.028754570209910901e-01,-4.020889077916836585e-01,1.000277618245534045e-01,-1.509163234779680451e-01,1.581995138668879641e-01,-4.243432390842474926e-06,-2.228829647381919653e-03,1.157485516404038565e-02,6.413512631241087281e-01,1.210948112906999391e-03,1.081957005721042924e-03,-3.930120932291541469e-01
1.500000000000000000e+01,-4.210441267586197966e-01,-3.817034151846182000e-01,1.000269830221889727e-01,-1.400933260104773315e-01,1.674947708599670015e-01,-7.894310878679111870e-06,-2.000920512915622951e-03,1.124056403055748686e-02,5.922281311367887380e-01,4.563277857004397267e-03,-3.281298485880821889e-03,-3.930003419419049737e-01
1.525000000000000000e+01,-4.378565876827422154e-01,-3.602298861658397855e-01,1.000258572165031168e-01,-1.293365931928333323e-01,1.755771198079828233e-01,-9.650538011029352340e-06,-1.759106099441609108e-03,1.026852760366730490e-02,5.431063508661564398e-01,6.708891690169681635e-03,-7.525926577328282893e-03,-3.929908367186908391e-01
1.550000000000000000e+01,-4.533673827684429058e-01,-3.378422764258953714e-01,1.000246781448096839e-01,-1.193499789344610734e-01,1.821419238491780446e-01,-8.820358932604250402e-06,-1.559344014135077708e-03,8.818159221823856919e-03,4.939848271246187750e-01,7.247415051030031870e-03,-1.069647567363975552e-02,-3.929851239866920531e-01
1.575000000000000000e+01,-4.677107230599267251e-01,-3.147352635393353415e-01,1.000237464234464968e-01,-1.106852083488085031e-01,1.871568763232800969e-01,-5.943174390229812502e-06,-1.452492943590795883e-03,7.140724226849630429e-03,4.448627265814384946e-01,6.203903119993222151e-03,-1.207596573161163513e-02,-3.929829794412452171e-01
1.600000000000000000e+01,-4.810731005204567090e-01,-2.910903414129552558e-01,1.000232340164279032e-01,-1.036206974926410368e-01,1.908486933891244131e-01,-2.385788310129112215e-06,-1.474050921352592714e-03,5.522259128228518797e-03,3.957397315184549291e-01,3.980769970185515580e-03,-1.136733683218014122e-02,-3.929834042591786591e-01
1.625000000000000000e+01,-4.936547079529999826e-01,-2.670477314837572669e-01,1.000231354952712398e-01,-9.810520838508465791e-02,1.936285165125740948e-01,5.278050518732273949e-07,-1.637381539354268098e-03,4.222080102977382281e-03,3.466158957372247329e-01,1.210483690484328830e-03,-8.755586086406813226e-03,-3.929858244738158035e-01
1.650000000000000000e+01,-5.056287668597374552e-01,-2.426902582721288393e-01,1.000233225286823596e-01,-9.377840841252536863e-02,1.959813888513739222e-01,2.199122184713168968e-06,-1.931899340775318063e-03,3.421811025332561432e-03,2.974912886620063035e-01,-1.435723992279545717e-03,-4.841629735866747816e-03,-3.929904902621318974e-01
1.675000000000000000e+01,-5.171080251729331945e-01,-2.180416153102691657e-01,1.000236460281213186e-01,-9.005972982700205520e-02,1.983520516197323225e-01,2.825926639734796513e-06,-2.326377978828751258e-03,3.195596732229453486e-03,2.483657459795613753e-01,-3.423030105483502224e-03,-4.756933309392512776e-04,-3.929978446450995144e-01
1.700000000000000000e+01,-5.281254639605170720e-01,-1.930775191684689918e-01,1.000240099864462551e-01,-8.628018863791639403e-02,2.010562330907530171e-01,2.951200841455043665e-06,-2.776294386315115211e-03,3.505986994904922334e-03,1.992389191275573401e-01,-4.466274388576504419e-03,3.459228931666597125e-03,-3.930075002627212433e-01
1.725000000000000000e+01,-5.386324181274654288e-01,-1.677452313157261066e-01,1.000243787370679316e-01,-8.182294771843753867e-02,2.042359510895508934e-01,2.934177379441325343e-06,-3.233258651428350203e-03,4.223848856343298021e-03,1.501105609256716267e-01,-4.559922523223403079e-03,6.257331171466837781e-03,-3.930177358235442675e-01
1.750000000000000000e+01,-5.485129623749233074e-01,-1.419855135263382306e-01,1.000247361774864174e-01,-7.623866731320813606e-02,2.078631870931876013e-01,2.743750858240466861e-06,-3.654272659255375626e-03,5.165870768063149897e-03,1.009808096534486749e-01,-3.928619534798567792e-03,7.544203034038278466e-03,-3.930259717079432891e-01
1.775000000000000000e+01,-5.576096383943787149e-01,-1.157514330425485904e-01,1.000250458378433155e-01,-6.931009943771326842e-02,2.117828519780080576e-01,2.146222736463081153e-06,-4.008809612820444894e-03,6.140275931442230363e-03,5.185025500179930164e-02,-2.922189412735258680e-03,7.342099986735193054e-03,-3.930299407366161790e-01
1.800000000000000000e+01,-5.657532712989490342e-01,-8.902022795238299924e-02,1.000252477508866283e-01,-6.105442086849957595e-02,2.157766203870014332e-01,1.046331901163402225e-06,-4.282379790749359441e-03,6.990379130146040336e-03,2.719739988318361276e-03,-1.890622900634869206e-03,6.034429499213692961e-03,-3.930288080007616758e-01
1.825000000000000000e+01,-5.727892271783602274e-01,-6.179702583749542566e-02,1.000252904866266584e-01,-5.166796611371479719e-02,2.196259337795370414e-01,-3.279433959541313074e-07,-4.476145237711486730e-03,7.626595941750349480e-03,-4.640997160558842094e-02,-1.076636248482978073e-03,4.241260398902412139e-03,-3.930235883066089952e-01
1.850000000000000000e+01,-5.785940149618500339e-01,-3.411178233053083902e-02,1.000251678696194163e-01,-4.143242741623320846e-02,2.231555948957782143e-01,-1.524943642702978396e-06,-4.603055097698808239e-03,8.040315842657472581e-03,-9.553847194452078084e-02,-5.557367526947260255e-04,2.639344478757775243e-03,-3.930167014174082429e-01
1.875000000000000000e+01,-5.830859877091507659e-01,-6.058565380254515506e-03,1.000265970100202573e-01,-3.095657670213899232e-02,2.239591583231681782e-01,4.731670949183167145e-05,6.804262356840968390e-03,8.065826855508759219e-03,-1.268384010537191853e-01,2.633946279383910793e-01,-3.854213187812271374e-02,2.407647386943130574e-02
1.900000000000000000e+01,-5.865102712681600217e-01,2.032317123028079889e-02,1.000758657376617233e-01,-2.525663145188603367e-02,1.904700380668213067e-01,8.548899617545192928e-04,5.040194975068855443e-02,6.443157263886339567e-03,-1.025103634144937242e-01,3.583009534997405598e-01,-5.798539511342117730e-02,2.928926023923574262e-01
1.925000000000000000e+01,-5.896595467612749664e-01,3.911711722162202615e-02,1.002125296922195680e-01,-2.582662289555135923e-02,1.058067870855494835e-01,9.970524866960792792e-04,8.515325665661487020e-02,3.125797963228383811e-03,-6.016920585511492670e-02,1.693019451784185114e-01,-3.966545708543620097e-02,3.643656454126754096e-01
1.950000000000000000e+01,-5.930387224000396307e-01,4.527474217601810264e-02,1.002480654238855351e-01,-2.802527657636974881e-02,-4.755614721642395168e-03,-4.984885942559420368e-04,8.987691393370764170e-02,-1.433448248076794772e-05,-1.304494583157964765e-02,-8.104841435274739991e-02,-1.682972654352164407e-02,3.846994495493510358e-01
1.975000000000000000e+01,-5.965653695639551168e-01,3.794919316764066436e-02,1.001089113930802299e-01,-2.781118261612938042e-02,-1.047894451525747256e-01,-1.438855199925522486e-03,6.846693848938072147e-02,-6.862967416981500309e-04,3.552932243581362337e-02,-2.329243475374951633e-01,-7.092600484292122150e-04,3.908732935020460819e-01
2.000000000000000000e+01,-5.998185423578463737e-01,2.018131409395457557e-02,9.995174424170565064e-02,-2.371675336203692142e-02,-1.707928421426444798e-01,-9.193826465343372988e-04,3.745051585291000323e-02,1.813462910120890387e-03,8.452790587889914831e-02,-2.430195856734811699e-01,9.799670168409897048e-03,3.928574932661155206e-01
2.025000000000000000e+01,-6.023136266196378319e-01,-3.389558436954560189e-03,9.989446065944319886e-02,-1.588489477084888482e-02,-1.999434780717851967e-01,-7.701770996424112201e-05,1.236353790340512411e-02,6.244552729858389439e-03,1.335946453370094877e-01,-1.568385363423037415e-01,1.691818122995361606e-02,3.935864039413528581e-01
2.050000000000000000e+01,-6.036144687149016530e-01,-2.883234219506058960e-02,9.991212272622990165e-02,-4.789539165914047901e-03,-2.042188067273144336e-01,2.573285857731527214e-04,3.784015523621719499e-04,1.047826440746165572e-02,1.827112315167783163e-01,-4.894289894490670700e-02,1.965193924047833191e-02,3.937390283095680288e-01
2.075000000000000000e+01,-6.033402207925047112e-01,-5.407343605162020367e-02,9.994447740523247636e-02,9.143085453277502786e-03,-1.994450431072812835e-01,2.347133945266993151e-04,1.907620499652735373e-05,1.285681071990093030e-02,2.319140772673131956e-01,2.469639055265081262e-02,1.598067961326482891e-02,3.935097220158950693e-01
2.100000000000000000e+01,-6.011754137999829606e-01,-7.877856652078826794e-02,9.996918691839520865e-02,2.523185104457149885e-02,-1.968094912516597517e-01,1.668909418854803322e-04,5.214881087202255169e-03,1.294194780754055057e-02,2.811480482318942653e-01,4.658605315337979030e-02,6.084710776301681043e-03,3.931605916499244513e-01
2.125000000000000000e+01,-5.969241504469817716e-01,-1.035271465615856396e-01,9.998674488972217334e-02,4.224400877064049542e-02,-1.999797814200246771e-01,1.161389810128191883e-04,1.001637307378716590e-02,1.136961470361665810e-02,3.303345183254680628e-01,3.069925285789537606e-02,-6.762439592776897310e-03,3.929111214343347092e-01
2.150000000000000000e+01,-5.905755279076356778e-01,-1.289554234995730908e-01,9.999786698330175028e-02,5.852789785209819295e-02,-2.069467512231509820e-01,6.404255457892783234e-05,1.137051458381519928e-02,9.176650297165961714e-03,3.794558722424694608e-01,2.900024520757740060e-03,-1.779766050052212709e-02,3.928244616373509634e-01
2.175000000000000000e+01,-5.823254798935187937e-01,-1.552851183887867803e-01,1.000032968516128135e-01,7.252212456801809815e-02,-2.137814180149088805e-01,2.877629225422419538e-05,9.379606577955602181e-03,7.156405069082916702e-03,4.285443577942241178e-01,-1.633479876670558550e-02,-2.333251627468573702e-02,3.928559405162527218e-01
2.200000000000000000e+01,-5.725289774872559523e-01,-1.822984885565935576e-01,1.000061716266613110e-01,8.329531272173711087e-02,-2.177094233432091408e-01,2.111691392100173916e-05,5.933345612381019617e-03,5.590440074433307947e-03,4.776343904594684275e-01,-1.958200901425818929e-02,-2.238141277638209387e-02,3.929325708783817928e-01
2.225000000000000000e+01,-5.616008781546522055e-01,-2.095795671702143093e-01,1.000090031472949115e-01,9.080162280549031184e-02,-2.182871762091254386e-01,2.415072527155648005e-05,3.033273936386425389e-03,4.375624954392190111e-03,5.267409581101435423e-01,-1.076472360112471632e-02,-1.651555859446997634e-02,3.929978076524642816e-01
2.250000000000000000e+01,-5.499090419908829741e-01,-2.367847794415622598e-01,1.000120309098483512e-01,9.576867508029117404e-02,-2.168715288065250490e-01,2.340893001890305896e-05,1.747462599134341722e-03,3.335066794368957577e-03,5.758629783477766662e-01,1.293771189585379497e-03,-8.482015354025486745e-03,3.930294481414001728e-01
2.275000000000000000e+01,-5.376986509260667235e-01,-2.637865563516311740e-01,1.000147078548703911e-01,9.935172825549901110e-02,-2.153186938689060081e-01,1.942233977963667225e-05,2.045324238220562908e-03,2.464822954814226575e-03,6.249930197411636135e-01,9.060005520684600785e-03,-6.982066879070698926e-04,3.930363956931601788e-01
2.300000000000000000e+01,-5.250634077175427850e-01,-2.906568290238938368e-01,1.000168952713034604e-01,1.027629405785889516e-01,-2.148432111131910460e-01,1.585236973275124447e-05,3.232478145280263948e-03,1.983424270475878364e-03,6.741252952405356602e-01,9.423056716449183801e-03,5.546037566739826265e-03,3.930398994280210889e-01
2.325000000000000000e+01,-5.119561960966179104e-01,-3.175474864482970561e-01,1.000186759897546823e-01,1.070213096506706096e-01,-2.155258231588584039e-01,1.274653246207245104e-05,4.528098116535986088e-03,2.203660453239463402e-03,7.232587417422111642e-01,3.563415543546772160e-03,1.000702293253373509e-02,3.930555107900765011e-01
2.350000000000000000e+01,-4.982211054794296601e-01,-3.445532334172088929e-01,1.000200794347072125e-01,1.128516311938883437e-01,-2.164703705399285694e-01,9.953497485590048823e-06,5.445485697689166765e-03,3.340440949337295049e-03,7.723949647522440065e-01,-5.042378749722763176e-03,1.290343128968047572e-02,3.930864767616417677e-01
2.375000000000000000e+01,-4.836313190340436607e-01,-3.716209911554954060e-01,1.000212320916290532e-01,1.206757724660974807e-01,-2.163214600009929767e-01,8.933574043086266360e-06,5.872866862038115393e-03,5.373205555463347882e-03,8.215350421608329512e-01,-1.281391728282163002e-02,1.436485624745679340e-02,3.931257555183019781e-01
2.400000000000000000e+01,-4.679261691197191819e-01,-3.985290759759946289e-01,1.000224088927142985e-01,1.306241762961311004e-01,-2.138145562377941900e-01,1.010209575657724584e-05,5.941364001685707323e-03,8.023178248479517077e-03,8.706785277367742326e-01,-1.741553139870077524e-02,1.424783544995580215e-02,3.931605430659296796e-01
2.425000000000000000e+01,-4.508475729943762222e-01,-4.249250803852318015e-01,1.000237585224929282e-01,1.425334504778261735e-01,-2.081497676433742006e-01,1.114792001976455853e-05,5.836225030619464002e-03,1.083529694975571452e-02,9.198239206729780237e-01,-1.806060079749929187e-02,1.232691524176141896e-02,3.931775501853607135e-01
2.450000000000000000e+01,-4.321770735253498974e-01,-4.503954797200141469e-01,1.000250516023773462e-01,1.559445724425726765e-01,-1.991352719851963160e-01,8.871647459500166393e-06,5.670780201347836239e-03,1.331134786421176233e-02,9.689688184895408618e-01,-1.513442309714635621e-02,8.635217984175921901e-03,3.931688392892428996e-01
2.475000000000000000e+01,-4.117709942058374595e-01,-4.745406937652905666e-01,1.000257660018888106e-01,1.701399370416997181e-01,-1.871500407797897780e-01,2.114335841118528834e-06,5.461265182805942128e-03,1.503620267556124608e-02,1.018110013628056754e+00,-9.635188687374344335e-03,3.688982069849324613e-03,3.931358926261209752e-01
2.500000000000000000e+01,-3.895868699632830667e-01,-4.970381839606474728e-01,1.000254396505767668e-01,1.842455970866213044e-01,-1.730056315692425906e-01,-7.148725447323618610e-06,5.173162108676890650e-03,1.576083491187473679e-02,1.067244578760314866e+00,-2.762240814202711336e-03,-1.550809774297313114e-03,3.930890293772477673e-01
2.525000000000000000e+01,-3.656931180358301003e-01,-5.176852007877341677e-01,1.000239972725678606e-01,1.973908101271827364e-01,-1.577674705921293941e-01,-1.512961009559082141e-05,4.784171570762611909e-03,1.543331905573237101e-02,1.116371517000962266e+00,4.275318596816153095e-03,-5.955718668470466950e-03,3.930422003429855371e-01
2.550000000000000000e+01,-3.402571720770803942e-01,-5.364183049553717941e-01,1.000218244718850263e-01,2.088837872547809893e-01,-1.425652246299435322e-01,-1.860989651693802628e-05,4.321324533026086462e-03,1.418733578379133276e-02,1.165492455063812383e+00,1.032759905798115788e-02,-8.600647934295222244e-03,3.930065597046344950e-01
2.575000000000000000e+01,-3.135135840192599943e-01,-5.533092007659342615e-01,1.000195714071603487e-01,2.183488368539766855e-01,-1.284052204397728159e-01,-1.666529227384594425e-05,3.858886642087118023e-03,1.230292791892673501e-02,1.214610679563625784e+00,1.437984163688373410e-02,-9.058305754784622826e-03,3.929867638401415841e-01
2.600000000000000000e+01,-2.857199721576282325e-01,-5.685380214902716611e-01,1.000178386158287053e-01,2.257811811471913122e-01,-1.160000554803304329e-01,-1.082439995291961764e-05,3.488592007459313110e-03,1.015106487804035527e-02,1.263729370634581795e+00,1.569621891741319886e-02,-7.505765134032957656e-03,3.929815227619216644e-01
2.625000000000000000e+01,-2.571124334457596805e-01,-5.823477711458758810e-01,1.000169377644333779e-01,2.315042170934154264e-01,-1.056411092311928257e-01,-3.869824864506627533e-06,3.283794535628361145e-03,8.129106477459733734e-03,1.312850420277430041e+00,1.400078113345346910e-02,-4.624593686516659252e-03,3.929869040726139406e-01
2.650000000000000000e+01,-2.278718240555118457e-01,-5.949872835453154929e-01,1.000168413998325095e-01,2.360462563449182150e-01,-9.714471056083462397e-02,1.793347181437935085e-06,3.275199076806842909e-03,6.593129235837426501e-03,1.361974447653318210e+00,9.608538504316999421e-03,-1.354786357329136083e-03,3.929995404984554241e-01
2.675000000000000000e+01,-1.981085227352144817e-01,-6.066534939502558066e-01,1.000173091210593973e-01,2.399773368789208938e-01,-8.989393140403438565e-02,5.207807829801697048e-06,3.445209671910909582e-03,5.795559924498926672e-03,1.411101542531016051e+00,3.422501875534647488e-03,1.398747968022914529e-03,3.930177096364678158e-01
2.700000000000000000e+01,-1.678675205339356102e-01,-6.174452563721777310e-01,1.000180789337064835e-01,2.437548081519380627e-01,-8.297609384768638019e-02,6.842020311978863013e-06,3.738166232489233392e-03,5.839560396510837768e-03,1.460231856486959634e+00,-3.237455794203949761e-03,3.011857676945394434e-03,3.930401859135907450e-01
2.725000000000000000e+01,-1.371499322722977976e-01,-6.273392024632048480e-01,1.000189918610956963e-01,2.476188903875659597e-01,-7.538901756624409589e-02,7.666043302183107045e-06,4.078874468503594121e-03,6.661640518506418279e-03,1.509365555394769132e+00,-8.941739325881062350e-03,3.275123092137433543e-03,3.930643762466937141e-01
2.750000000000000000e+01,-1.059429880702246474e-01,-6.361932515528376797e-01,1.000199833931655485e-01,2.515609221069982637e-01,-6.626721629909426703e-02,8.103984889312834219e-06,4.391892540829961215e-03,8.049317359629874769e-03,1.558502317546974547e+00,-1.250853426435101327e-02,2.393723874718556213e-03,3.930856031281430019e-01
2.775000000000000000e+01,-7.424918531242664932e-02,-6.437765829312119825e-01,1.000209827785249472e-01,2.553642567824798704e-01,-5.507106192933634153e-02,7.687486714101780713e-06,4.616745075739270114e-03,9.692137044305920018e-03,1.607640935068926691e+00,-1.330458073602995561e-02,8.694209629312439451e-04,3.930984024386489639e-01
2.800000000000000000e+01,-4.210665834914776445e-02,-6.498181533026138323e-01,1.000218311334989674e-01,2.586973808152808196e-01,-4.169075361540817287e-02,5.639698159310055744e-06,4.717156555614126882e-03,1.125491146446003406e-02,1.656779450045671842e+00,-1.139714312404381535e-02,-6.901117316548237290e-04,3.930991029069560994e-01
2.825000000000000000e+01,-9.596304313497141386e-03,-6.540612131172472976e-01,1.000223052413609232e-01,2.612259932986612521e-01,-2.644036512457578064e-02,1.827485486580592538e-06,4.684241691873132149e-03,1.245500463979307137e-02,1.705915818919954585e+00,-7.509664420036161331e-03,-1.773325791067232194e-03,3.930879098804635485e-01
2.850000000000000000e+01,2.316437389735457805e-02,-6.563101545456641039e-01,1.000222360722973075e-01,2.627084818155092649e-01,-9.948229341779911070e-03,-2.785666692691964667e-06,4.534343295971052061e-03,1.312356436147735055e-02,1.755048706455294427e+00,-2.793370338016958488e-03,-2.116409067450558679e-03,3.930690149227510366e-01
2.875000000000000000e+01,5.603674257841841783e-02,-6.564587556494507758e-01,1.000216253598686517e-01,2.630476677519527073e-01,7.020969448658691096e-03,-6.593649829051077020e-06,4.302506142484716946e-03,1.323456655215591617e-02,1.804177934692488661e+00,1.517183710976212655e-03,-1.758771787510756161e-03,3.930486482546381444e-01
2.900000000000000000e+01,8.887947807429720515e-02,-6.544946451474188409e-01,1.000206644943850143e-01,2.622881732191727489e-01,2.375860145629947809e-02,-8.319772450854619146e-06,4.032978805158462035e-03,1.289432233139909019e-02,1.853304371042959087e+00,4.460613558660463801e-03,-9.870774086691883834e-04,3.930323579759943398e-01
2.925000000000000000e+01,1.215635420658692928e-01,-6.504818536807749352e-01,1.000196416239279712e-01,2.605680919922039873e-01,3.976316201209101342e-02,-7.717353435521832192e-06,3.768726527663883094e-03,1.229533003448219329e-02,1.902429406817422786e+00,5.606933015133849611e-03,-1.904148121132063240e-04,3.930230982785583027e-01
2.950000000000000000e+01,1.539794304905284517e-01,-6.445294748437517818e-01,1.000188076835152179e-01,2.580493388069073912e-01,5.480951307615940932e-02,-5.527731848134705284e-06,3.542368955398235517e-03,1.164910815214475863e-02,1.951554373771885231e+00,5.132757520166176569e-03,3.157915809024825827e-04,3.930208777714413459e-01
