time_total,x,y,z,vx,vy,vz,roll,pitch,yaw,roll_rate,pitch_rate,yaw_rate
-01,9.990140084610944771e-02,-1.888038717766036267e-01,6.240850760745692005e-02,3.992938896066145025e-04,5.138743357620540256e-03,1.229502652640906274e-02,-1.519053979907794227e+00,2.965016957778204842e-03,-1.550685048009905510e-02,3.701103315770506996e-01
2.500000000000000000e-01,1.676687554120831133e-02,5.468335480788399927e-01,9.994274649750858885e-02,-1.940058374834236210e-01,4.658775284567555353e-02,2.735511565245755516e-04,7.212194339637414443e-03,1.197651505655977604e-02,-1.472777552905559784e+00,-4.288602935948137435e-03,-1.531274967325519168e-02,3.699282764308846061e-01
5.000000000000000000e-01,-7.906601677870354547e-03,5.516504408334065301e-01,9.997083292483641137e-02,-2.006949486592043974e-01,3.110186344755551738e-02,1.837697469502184695e-04,8.370959615978047080e-03,1.109614024436198984e-02,-1.426529796397024263e+00,-6.964383880121904381e-03,-4.325328539010611997e-03,3.698374672271406149e-01
7.500000000000000000e-01,-3.343420846308266248e-02,5.545778258436724339e-01,9.998947995816552525e-02,-2.073711362710813910e-01,1.637198675458964581e-02,1.208210043179847319e-04,7.992716058194482623e-03,1.021038776051888704e-02,-1.380305732007226283e+00,-7.966576286335043736e-03,6.868375828107395505e-03,3.698204054505081495e-01
1.000000000000000000e+00,-5.970488824028660074e-02,5.557242923548122437e-01,1.000017855882661538e-01,-2.124268065804649497e-01,2.607835308715957933e-03,8.078562624018528488e-05,6.543866295170896151e-03,9.455795598996960885e-03,-1.334091200116739762e+00,-8.761733859056177603e-03,1.178751982381786440e-02,3.698417926606083483e-01
1.250000000000000000e+00,-8.645787808366194038e-02,5.552239569587212875e-01,1.000102201033582772e-01,-2.151398852380322080e-01,-9.979615558497344566e-03,5.694356377907991901e-05,4.899050470852443252e-03,8.711117319111217477e-03,-1.287874150539388252e+00,-9.409941747538716483e-03,9.668070163227928532e-03,3.698683753926901852e-01
1.500000000000000000e+00,-1.134119367229639436e-01,5.532369418598165334e-01,1.000162863094985755e-01,-2.158343510583563829e-01,-2.120089300708826591e-02,4.156986989677465054e-05,3.742647698321034232e-03,7.833852878470782752e-03,-1.241649158795159691e+00,-9.334528485472972509e-03,3.651223928218399594e-03,3.698826029761123624e-01
1.750000000000000000e+00,-1.403717970425855388e-01,5.499393542234382037e-01,1.000207389533582791e-01,-2.154415984630646541e-01,-3.100452265555422859e-02,3.064115469157424756e-05,3.309157506412432892e-03,6.819903551181553079e-03,-1.195416894120248319e+00,-8.070395189345894171e-03,-2.225007035985213707e-03,3.698838169284140442e-01
2.000000000000000000e+00,-1.672647722831421824e-01,5.454999781590365027e-01,1.000240433908095583e-01,-2.148991619761174976e-01,-3.955828178611246748e-02,2.295791483838952236e-05,3.448209296211238954e-03,5.825293181008299112e-03,-1.149180794449278675e+00,-5.622056029890677882e-03,-5.308500226944125669e-03,3.698804684853748692e-01
2.250000000000000000e+00,-1.941116579270355247e-01,5.400524997081884715e-01,1.000265461713406162e-01,-2.147354946341933080e-01,-4.723979416953964089e-02,1.754894826042649206e-05,3.847657761602405260e-03,5.079725694650140573e-03,-1.102943609097930322e+00,-2.435903537979169139e-03,-5.082739807612307072e-03,3.698810594667045759e-01
2.500000000000000000e+00,-2.209658632959770330e-01,5.336742965220400148e-01,1.000284620786984352e-01,-2.149688746042484888e-01,-5.454962411621053220e-02,1.339808669023898811e-05,4.240396657480124606e-03,4.768015452834767527e-03,-1.056706111906508427e+00,8.290474240879529798e-04,-2.631961691989055403e-03,3.698891419692270643e-01
2.750000000000000000e+00,-2.478572697742535136e-01,5.263786505800596149e-01,1.000299152708911399e-01,-2.152538590852658140e-01,-6.199284604939295923e-02,1.010355275216051851e-05,4.501378254554598210e-03,4.949103181266911906e-03,-1.010467856657953689e+00,3.549922330566721192e-03,4.202671432369070289e-04,3.699030163163893326e-01
3.000000000000000000e+00,-2.747621384652372822e-01,5.181212817215057331e-01,1.000310118048741009e-01,-2.151218733937934890e-01,-6.997414392305932596e-02,7.658023694272038997e-06,4.634439059165759711e-03,5.544005332872954314e-03,-9.642283043241784979e-01,5.310424208308968386e-03,2.801183599720411845e-03,3.699180523765467354e-01
3.250000000000000000e+00,-3.016015055206240358e-01,5.088175372535019836e-01,1.000318482781220875e-01,-2.141805006125756805e-01,-7.873365556419588407e-02,5.858761080378905770e-06,4.702951423489571889e-03,6.382814446836525789e-03,-9.179873457430043349e-01,5.972733015286742393e-03,3.976594544920599925e-03,3.699295044977757851e-01
3.500000000000000000e+00,-3.282579389599666886e-01,4.983644620631610400e-01,1.000324780112720052e-01,-2.122073152052794398e-01,-8.833135997862054389e-02,4.271191293192719839e-06,4.763214927328712940e-03,7.277252378579663825e-03,-8.717453449179828340e-01,5.667118956593591300e-03,4.074724076270293087e-03,3.699345989848866201e-01
3.750000000000000000e+00,-3.545972378294336425e-01,4.866619666385330611e-01,1.000329057708296832e-01,-2.091436278198156862e-01,-9.867385621491987779e-02,2.612632698744802432e-06,4.832994879045766912e-03,8.084040899806606631e-03,-8.255030059195019865e-01,4.720377485783036620e-03,3.577117893555043643e-03,3.699333581956298911e-01
4.000000000000000000e+00,-3.804851257123246233e-01,4.736286599504008765e-01,1.000331245810662795e-01,-2.050308088972479514e-01,-1.095691665248959557e-01,9.691076726757923721e-07,4.895951639931266780e-03,8.737985333155628281e-03,-7.792611213156279693e-01,3.542276637036196815e-03,3.005642466791789893e-03,3.699280995817708084e-01
4.250000000000000000e+00,-4.057948343754702591e-01,4.592100180890740235e-01,1.000331556073268263e-01,-1.999352606331553928e-01,-1.207909817109026479e-01,-3.476639027356087780e-07,4.923904131883099708e-03,9.250842758917051170e-03,-7.330202581707464526e-01,2.495890917574144878e-03,2.726207035757648167e-03,3.699220393817177488e-01
4.500000000000000000e+00,-4.304063330804935306e-01,4.433789611353232685e-01,1.000330579330131059e-01,-1.938926023658295306e-01,-1.321332045895126650e-01,-1.084243114533959663e-06,4.897128290766691698e-03,9.684677895253719290e-03,-6.867805619866114153e-01,1.789148901331410720e-03,2.879465745306025986e-03,3.699177721498941307e-01
4.750000000000000000e+00,-4.542005699951464082e-01,4.261310896651833713e-01,1.000329080628435674e-01,-1.868834159326683841e-01,-1.434398110340662502e-01,-1.221268608061373793e-06,4.812123296545367870e-03,1.011402742861595636e-02,-6.405418059742751247e-01,1.427245168383197739e-03,3.395998504811291625e-03,3.699163265988613114e-01
5.000000000000000000e+00,-4.770527437506290602e-01,4.074781547834691042e-01,1.000327691159346999e-01,-1.788401502111916230e-01,-1.546042854299675140e-01,-9.722344067423808218e-07,4.677329762114984871e-03,1.059124266019438772e-02,-5.943036283161703404e-01,1.247199163649717526e-03,4.056435140975731685e-03,3.699170813525458623e-01
5.250000000000000000e+00,-4.988280612777809542e-01,3.874432897355910010e-01,1.000326682627945690e-01,-1.696774955308227584e-01,-1.655447909233279113e-01,-6.716701734082944155e-07,4.503738879141285997e-03,1.112602816280855098e-02,-5.480657905190342571e-01,1.020636878099691813e-03,4.579269979859147341e-03,3.699183876813670890e-01
5.500000000000000000e+00,-5.193821503709125098e-01,3.660600863645398495e-01,1.000325909019040005e-01,-1.593336799698863160e-01,-1.761708772091313269e-01,-6.295687554104546190e-07,4.297620597753221312e-03,1.168488049817210765e-02,-5.018283165978207894e-01,5.774900688450467987e-04,4.728126037063336805e-03,3.699185205768960039e-01
5.750000000000000000e+00,-5.385664760024483355e-01,3.433753681608689989e-01,1.000324929931321327e-01,-1.478065424765230840e-01,-1.863600903253078978e-01,-9.913062254300250401e-07,4.058874470506416456e-03,1.220967803007413054e-02,-4.555914613639822641e-01,-1.086383384723157395e-04,4.417404317726838538e-03,3.699165440826330808e-01
6.000000000000000000e+00,-5.562370212341287701e-01,3.194535331766096831e-01,1.000323283883490094e-01,-1.351679634518974382e-01,-1.959566107275972080e-01,-1.646243664271235838e-06,3.784144886656124092e-03,1.264800622830174887e-02,-4.093555437778841344e-01,-9.151179777548095308e-04,3.774886228513352204e-03,3.699127358418299871e-01
6.250000000000000000e+00,-5.722627629884164957e-01,2.943795834377858633e-01,1.000320806439144589e-01,-1.215464338678952511e-01,-2.047917461224951496e-01,-2.254847044094259489e-06,3.471330716079881491e-03,1.298262431370945935e-02,-3.631207482627704097e-01,-1.646477941963013589e-03,3.116252131195243382e-03,3.699083767940172796e-01
6.500000000000000000e+00,-5.865299913469741444e-01,2.682588045839497393e-01,1.000317816681474681e-01,-1.070808127598443377e-01,-2.127139162508227543e-01,-2.423566853641693005e-06,3.122182095575671331e-03,1.324614874515105817e-02,-3.168870165633971281e-01,-2.150570949241299365e-03,2.814519972988857154e-03,3.699050036298807687e-01
6.750000000000000000e+00,-5.989399502960930377e-01,2.412130565429611573e-01,1.000315029355398760e-01,-9.186442881688446083e-02,-2.196102633942861038e-01,-1.943950484104759654e-06,2.741556178785021971e-03,1.351126340067730115e-02,-2.706540988912513046e-01,-2.410090334818277853e-03,3.099481383595601314e-03,3.699035218445153039e-01
7.000000000000000000e+00,-6.094004803136903181e-01,2.133756789514238972e-01,1.000313205826169338e-01,-7.590967348267960157e-02,-2.254066086640679478e-01,-9.528949574144886244e-07,2.334205719286200700e-03,1.385607910654074355e-02,-2.244217316651344329e-01,-2.555509334547877327e-03,3.870996766231997368e-03,3.699036685646272526e-01
7.250000000000000000e+00,-6.178161614093943266e-01,1.848879072033854654e-01,1.000312698713541476e-01,-5.916155800408601922e-02,-2.300452596775126590e-01,5.313099611140704052e-08,1.901483520482825278e-03,1.431546839211258505e-02,-1.781898300244587063e-01,-2.785969764765396095e-03,4.624827998722652080e-03,3.699041276780956067e-01
7.500000000000000000e+00,-6.240840752719183371e-01,1.558987977230809618e-01,1.000313057504203240e-01,-4.157191235428352172e-02,-2.334546363049055107e-01,3.190890727430868664e-07,1.440477047141202087e-03,1.483752157631641928e-02,-1.319585687956160713e-01,-3.234543373500551548e-03,4.555776109261664049e-03,3.699032889473058971e-01
7.750000000000000000e+00,-6.281020830240108266e-01,1.265682838944446609e-01,1.000312832047618172e-01,-2.321899409389108909e-02,-2.355328944483053577e-01,-9.463964924862689469e-07,9.469449415222942843e-04,1.526559161248646282e-02,-8.572826366522155739e-02,-3.847779337226124152e-03,2.830768271087025223e-03,3.699003655783759115e-01
8.000000000000000000e+00,-6.297928522842943799e-01,9.707029192432427289e-02,1.000309780870151655e-01,-4.431212067300713091e-03,-2.361644790791338211e-01,-4.140012581052550736e-06,4.216027302444198713e-04,1.535927670811889495e-02,-3.949904309692714444e-02,-4.348704904878288729e-03,-1.054719279320794978e-03,3.698963383789911075e-01
8.250000000000000000e+00,-6.291406757920052772e-01,6.759131474772124559e-02,1.000301737496323007e-01,1.413933274794004942e-02,-2.352741495645098435e-01,-8.687449734733078456e-06,-1.224217191383593210e-04,1.485423970539400361e-02,6.729562527553260322e-03,-4.316578018308297321e-03,-6.973201816163641063e-03,3.698940117120218529e-01
8.500000000000000000e+00,-6.262316142654554829e-01,3.832058348092364647e-02,1.000289626089715667e-01,3.153947710192461784e-02,-2.328927174207872375e-01,3.745585524560617842e-06,-1.354057496843859331e-03,1.353608322998990643e-02,5.200777193423155448e-02,-7.145578433389521145e-02,-1.860156024745879613e-02,2.729173152038018579e-01
8.750000000000000000e+00,-6.213258198461492077e-01,9.978268900870227581e-03,1.000474177604547266e-01,4.552832174969106277e-02,-2.149660800888736345e-01,4.315333439007677839e-04,-3.290200177349182631e-02,1.037329739211968575e-02,4.908783111804225496e-02,-3.455272885988454057e-01,-5.314558785033678123e-02,-1.970882290468166653e-01
9.000000000000000000e+00,-6.150908393407339414e-01,-1.319393228799252415e-02,1.001550406418206252e-01,5.287524523875291454e-02,-1.496811599890964239e-01,1.100931360515131508e-03,-7.307078450927602387e-02,4.492185201598599027e-03,1.450951703061223799e-02,-2.524406553298217393e-01,-5.950274712549311062e-02,-3.204609939664760931e-01
9.250000000000000000e+00,-6.083225947653887467e-01,-2.551627718001259551e-02,1.002470313919472944e-01,5.459984786451874822e-02,-4.736956280940649716e-02,1.376729270091309491e-04,-8.922943377265507570e-02,-2.772532237692675299e-03,-2.817993739690037233e-02,-8.637162504750536818e-03,-5.624699768082835200e-02,-3.541127268135657036e-01
9.500000000000000000e+00,-6.016020022284217506e-01,-2.450719921250870889e-02,1.001691893113616921e-01,5.243561945617847275e-02,5.751289298793185734e-02,-1.190956419994969534e-03,-7.602570905572754445e-02,-8.625889538199238080e-03,-7.330846260182144469e-02,1.894078377663878099e-01,-4.884750490837643649e-02,-3.642666166119989946e-01
9.750000000000000000e+00,-5.953622224434323984e-01,-1.190816603923142668e-02,1.000077483842209819e-01,4.708518544935943323e-02,1.354953579962912824e-01,-1.154726624856654933e-03,-4.650386438198120947e-02,-1.104008284573895250e-02,-1.193974512873635652e-01,2.512144402381637498e-01,-3.462956182575227526e-02,-3.676513961571366562e-01
1.000000000000000000e+01,-5.899643452780133357e-01,8.043252363948911673e-03,9.991576356568522554e-02,3.922593910030215680e-02,1.764241485676583954e-01,-3.288210411669078561e-04,-1.778537007782634433e-02,-9.989341915501956035e-03,-1.657593783847885749e-01,1.933107561393945240e-01,-1.339038875515866783e-02,-3.689601473476075144e-01
1.025000000000000000e+01,-5.856285999114130281e-01,3.107726610831625449e-02,9.991294189814556304e-02,3.047882363075941209e-02,1.881060944464088280e-01,1.723168048545192896e-04,-7.490238523745505273e-04,-6.964878674022351689e-03,-2.120715233021125412e-01,8.531018466251258370e-02,9.403442515155001694e-03,-3.695457154617846629e-01
1.050000000000000000e+01,-5.823141329683270140e-01,5.453142615521610476e-02,9.994070529015181004e-02,2.325438791538466873e-02,1.862874655059075235e-01,2.255097713685151356e-04,2.960249964382392820e-03,-3.712703543087924815e-03,-2.583056487670880030e-01,-5.416649523950978033e-03,2.591905117229663727e-02,-3.697878337413805783e-01
1.075000000000000000e+01,-5.796801126561247353e-01,7.765635704882561940e-02,9.996547445700711132e-02,1.975994254723163410e-02,1.845523874863384539e-01,1.750160150012331991e-04,-1.758589024441698087e-03,-1.228822432688387581e-03,-3.045257609625715567e-01,-4.566072062085104605e-02,3.141757319501176093e-02,-3.698831903002743338e-01
1.100000000000000000e+01,-5.771768822171462476e-01,1.009500138806839475e-01,9.998545371515943359e-02,2.105704454198106812e-02,1.891557218707771160e-01,1.467009724050561228e-04,-8.313211459527913155e-03,4.630652035155012440e-04,-3.507630235834999222e-01,-3.910058431530102213e-02,2.668888068082286152e-02,-3.699466917122793408e-01
1.125000000000000000e+01,-5.742146059515260692e-01,1.252133971694948666e-01,1.000012607483050514e-01,2.679601366327639955e-02,1.993331007808237798e-01,1.033549763733335696e-04,-1.217681257400101032e-02,1.869242795602811405e-03,-3.970138870144856447e-01,-9.798274573187848793e-03,1.652753224021023121e-02,-3.699972363240910944e-01
1.150000000000000000e+01,-5.703173430764956198e-01,1.508802311060995771e-01,1.000106485107367937e-01,3.564905594637957087e-02,2.107688541527700243e-01,5.041166639732470802e-05,-1.214975022334430915e-02,3.415344805772921322e-03,-4.432650106514548494e-01,1.738138634946830713e-02,6.385491146038519902e-03,-3.700242480338391537e-01
1.175000000000000000e+01,-5.651985934437629977e-01,1.778234583609990538e-01,1.000147881292060281e-01,4.604175980161871740e-02,2.193199692784255084e-01,2.208922460408910626e-05,-9.524732805361899729e-03,5.099953489275393589e-03,-4.895072651302723177e-01,2.880893185191957251e-02,-3.701730672919609656e-04,-3.700312687390385769e-01
1.200000000000000000e+01,-5.587512150653823895e-01,2.055349849036540721e-01,1.000171416086374221e-01,5.673618555193357671e-02,2.231365006277653829e-01,1.797920493929664447e-05,-6.405145987528117549e-03,6.546758250419946676e-03,-5.357425822817217798e-01,2.396898083031908516e-02,-3.235039329815704578e-03,-3.700231949391721287e-01
1.225000000000000000e+01,-5.509874049086079806e-01,2.334408770025709068e-01,1.000194128668198124e-01,6.704769249076794613e-02,2.228254902463335518e-01,1.780575362865404642e-05,-4.333016873920898619e-03,7.312748590906172075e-03,-5.819795772320364158e-01,1.043810852128047861e-02,-3.561135993092416022e-03,-3.699969059269324068e-01
1.250000000000000000e+01,-5.419732223999824683e-01,2.611459914930052695e-01,1.000214048364339997e-01,7.675267699839401214e-02,2.203643793430383468e-01,1.375238815332033721e-05,-3.762431749814002229e-03,7.202500836637493360e-03,-6.282223577179203433e-01,-2.824624472711010064e-03,-2.939343660469852931e-03,-3.699542954441166209e-01
1.275000000000000000e+01,-5.317839352204424275e-01,2.885167812425173395e-01,1.000228322577538659e-01,8.588667724361222222e-02,2.177604705602149970e-01,9.547426944558537516e-06,-4.283211498443573184e-03,6.403980261473179135e-03,-6.744672291623174942e-01,-1.006158395852429360e-02,-2.114525077747430801e-03,-3.699103374922220744e-01
1.300000000000000000e+01,-5.204818514986777611e-01,3.156207329229769321e-01,1.000238725783674371e-01,9.460393944652920051e-02,2.161587396521215121e-01,7.455043197482036797e-06,-5.173559714203890790e-03,5.407204922196107329e-03,-7.207093109093933858e-01,-9.969191914560818213e-03,-8.873580636080086008e-04,-3.698840890875119136e-01
1.325000000000000000e+01,-5.081043568969730861e-01,3.425969874623180922e-01,1.000247228862066601e-01,1.031484337790503497e-01,2.156079905295606725e-01,6.218131832344953403e-06,-5.873085125225303328e-03,4.789760532085274823e-03,-7.669481955772403659e-01,-4.477747630820854557e-03,1.266081236155637644e-03,-3.698861467125883484e-01
1.350000000000000000e+01,-4.946511786434932834e-01,3.695324676118558749e-01,1.000254321912941724e-01,1.118784366678616804e-01,2.153201951679796777e-01,5.282841012675876984e-06,-6.175420708368971161e-03,4.995444573780095411e-03,-8.131870234750920856e-01,3.305458246817020215e-03,4.464976525940220035e-03,-3.699146758538285895e-01
1.375000000000000000e+01,-4.800701131740797711e-01,3.963859685565218061e-01,1.000261039566192611e-01,1.212544473697816372e-01,2.141229143351383590e-01,5.793847593222418643e-06,-6.161367018402707368e-03,6.199559334040634015e-03,-8.594290243453380773e-01,1.069127124597073035e-02,8.086586730668754441e-03,-3.699589072056674310e-01
1.400000000000000000e+01,-4.642496483654654504e-01,4.229676126355987331e-01,1.000269762221411146e-01,1.317414593711205839e-01,2.108654024287084372e-01,8.363825676915652611e-06,-6.014358909574198109e-03,8.288950686821894287e-03,-9.056758172249730343e-01,1.605199344405386364e-02,1.096580789336996584e-02,-3.700042191977459538e-01
1.425000000000000000e+01,-4.470285188859591252e-01,4.489598825365808121e-01,1.000282338488319850e-01,1.436467968286833097e-01,2.046770232118340083e-01,1.152910915518244046e-05,-5.861487926858048071e-03,1.093013985922206346e-02,-9.519271607947387137e-01,1.870798092227389520e-02,1.193691141419600012e-02,-3.700363519348319197e-01
1.450000000000000000e+01,-4.282259592728754338e-01,4.739616488554773688e-01,1.000297714394899756e-01,1.569645589610859093e-01,1.950888950097138252e-01,1.242332040864866677e-05,-5.712795307854416117e-03,1.367677627420401179e-02,-9.981807150486134983e-01,1.853410891038461197e-02,1.037830692959834482e-02,-3.700452603331680912e-01
1.475000000000000000e+01,-4.076867656379496996e-01,4.975414780957979621e-01,1.000311396603816155e-01,1.713019671954914558e-01,1.820724347919666641e-01,8.739799109830384303e-06,-5.492855963316095776e-03,1.607528001380099936e-02,-1.044432231528587440e+00,1.567336820597851205e-02,6.487846514762704922e-03,-3.700284290737518300e-01
1.500000000000000000e+01,-3.853278788119317011e-01,5.192926780648177143e-01,1.000317339834248670e-01,1.859269036037868028e-01,1.660336942474343602e-01,4.129631380532155474e-07,-5.113996866987831347e-03,1.774797608519287570e-02,-1.090677114281703330e+00,1.048641141915393829e-02,1.198594769605148581e-03,-3.699918981543430241e-01
1.525000000000000000e+01,-3.611716214013650506e-01,5.388851913509905556e-01,1.000311115378835491e-01,1.999241156123279795e-01,1.477682677354442975e-01,-1.007663988180867881e-05,-4.538340252915334591e-03,1.844990653579836951e-02,-1.136912776765094168e+00,3.643008680286136981e-03,-4.177189785478809154e-03,-3.699477023163885714e-01
1.550000000000000000e+01,-3.353551714640653492e-01,5.561084998768270893e-01,1.000292448188938033e-01,2.124062652163843934e-01,1.283616361921028903e-01,-1.890292625800322302e-05,-3.800467989728162355e-03,1.810162482150668925e-02,-1.183140064434341276e+00,-3.822574824034566734e-03,-8.395424137332038392e-03,-3.699086743353890983e-01
1.575000000000000000e+01,-3.081138764835709698e-01,5.708979932187262518e-01,1.000265665359452022e-01,2.227106352447562332e-01,1.090268258985372385e-01,-2.283369891134564406e-05,-2.991387081169686723e-03,1.679797278166672916e-02,-1.229362674858001325e+00,-1.061948019283517723e-02,-1.064413473648538437e-02,-3.698833596414234370e-01
1.600000000000000000e+01,-2.797441558625874958e-01,5.833378160571482951e-01,1.000237849994850270e-01,2.305239088207568510e-01,9.089744383947674644e-02,-2.079619368175725285e-05,-2.222130073741416731e-03,1.478926262755126363e-02,-1.275585115958444815e+00,-1.548148078997854324e-02,-1.071859332621497365e-02,-3.698736153686497663e-01
1.625000000000000000e+01,-2.505571673157646617e-01,5.936373191481588707e-01,1.000215763452572681e-01,2.359066573499641051e-01,7.482147441233942542e-02,-1.423235798872409877e-05,-1.587888939684156848e-03,1.243243638542538762e-02,-1.321810685002814179e+00,-1.752385233691591132e-02,-8.987648595952140926e-03,-3.698756787165162763e-01
1.650000000000000000e+01,-2.208357574008276980e-01,6.020848979908766108e-01,1.000203223518788959e-01,2.392229685578128318e-01,6.121306142597883471e-02,-6.106475087089519362e-06,-1.145926717913569540e-03,1.011709095801564470e-02,-1.368040605617431460e+00,-1.652846856749516646e-02,-6.198593404603294083e-03,-3.698834932514079021e-01
1.675000000000000000e+01,-1.908046731352928682e-01,6.089896718645162466e-01,1.000200264900082403e-01,2.410077306634138272e-01,5.000824835878180108e-02,7.644421634572958227e-07,-9.102971473448024991e-04,8.181335447765922947e-03,-1.414274427737177486e+00,-1.303201915351051392e-02,-3.204764656281723113e-03,-3.698920750014441650e-01
1.700000000000000000e+01,-1.606189146848122640e-01,6.146253662777123594e-01,1.000204229553417062e-01,2.418175907007959480e-01,4.073986174764276241e-02,4.965947542775217311e-06,-8.592451539572778249e-04,6.839467430489165264e-03,-1.460511012122813979e+00,-8.169908851281954681e-03,-7.072319827088780365e-04,-3.698991136197857243e-01
1.725000000000000000e+01,-1.303693289323252513e-01,6.191901876433487661e-01,1.000211724865593121e-01,2.421096329179786011e-01,3.270844684156910820e-02,6.609236283886894084e-06,-9.487953109610355656e-04,6.142762392872151873e-03,-1.506749330953969679e+00,-3.324786205797116909e-03,9.152997940108883491e-04,-3.699044472988742283e-01
1.750000000000000000e+01,-1.000998902804702689e-01,6.227914504879918933e-01,1.000220073003147692e-01,2.421769451014200436e-01,2.519530337297603423e-02,6.537120918023763002e-06,-1.127153379398500343e-03,5.985415673602961610e-03,-1.552988734938262283e+00,2.967422443752672678e-04,1.648979919717612685e-03,-3.699084949907497366e-01
1.775000000000000000e+01,-6.982884826007278167e-02,6.254559723000318039e-01,1.000227640100421478e-01,2.421483389203361036e-01,1.765180626824516125e-02,5.481943076769952909e-06,-1.346814073261564347e-03,6.153210404208853991e-03,-1.599228815046039198e+00,2.011846295322346299e-03,1.763292448241072802e-03,-3.699111432302860658e-01
1.800000000000000000e+01,-3.956644300035139922e-02,6.271595059768085845e-01,1.000233474170235670e-01,2.420380255684714543e-01,9.810176430363871589e-03,3.831592832971509650e-06,-1.573011464639638424e-03,6.398659641656006224e-03,-1.645469193829081078e+00,1.820278505109575520e-03,1.648195003876460653e-03,-3.699117917781588605e-01
1.825000000000000000e+01,-9.324686074785744003e-03,6.278633519321717982e-01,1.000237026192404149e-01,2.418168271985382256e-01,1.689686751739434296e-03,1.904437979180230559e-06,-1.787952319511041960e-03,6.518608581169815785e-03,-1.691709474704571781e+00,3.344653241406954488e-04,1.635295775610177797e-03,-3.699101225313744523e-01
1.850000000000000000e+01,2.088142559111529767e-02,6.275453279128873074e-01,1.000238241466336886e-01,2.414735156179091125e-01,-6.492267666475072529e-03,1.760976256113213955e-07,-1.990613315742950900e-03,6.411043015388267867e-03,-1.737949345408386526e+00,-1.478166407203823987e-03,1.867705117552327567e-03,-3.699067004589483010e-01
1.875000000000000000e+01,5.103839583414154085e-02,6.262154789571706681e-01,1.000237700535116236e-01,2.410430676454969057e-01,-1.446529533003553317e-02,-8.633128319707815146e-07,-2.192373541560883009e-03,6.096081082043593863e-03,-1.784188698880228019e+00,-2.641121806732746324e-03,2.260349965089896926e-03,-3.699029437764493888e-01
1.900000000000000000e+01,8.113960392381383557e-02,6.239128885477883690e-01,1.000236433025015609e-01,2.405941686383889222e-01,-2.205409372603870169e-02,-1.018150476427550019e-06,-2.409593316248742709e-03,5.698288512776595628e-03,-1.830427674254766490e+00,-2.484879283277685331e-03,2.556793617714957657e-03,-3.699006477868969633e-01
1.925000000000000000e+01,1.111869038264560600e-01,6.206865286068972143e-01,1.000235456126342543e-01,2.401851043777455952e-01,-2.928033068065447747e-02,-4.759015370724491467e-07,-2.655145491302170202e-03,5.399128506569153378e-03,-1.876666625322991555e+00,-8.374862532838493225e-04,2.453576956966853698e-03,-3.699014428678196742e-01
1.950000000000000000e+01,1.411857802583449117e-01,6.165681162553673378e-01,1.000235417175308339e-01,2.398092301335672250e-01,-3.638833170867853545e-02,4.165364548167353704e-07,-2.931353993912210604e-03,5.376075291604043120e-03,-1.922906056409748876e+00,1.956917395212857524e-03,1.740644060253524134e-03,-3.699063251079340309e-01
1.975000000000000000e+01,1.711343594659612555e-01,6.115470004274703442e-01,1.000236580560507904e-01,2.393545531739607046e-01,-4.379130561244080205e-02,1.419026056188195218e-06,-3.226456620509712998e-03,5.747175207300836419e-03,-1.969146515288925370e+00,5.181998171584430851e-03,4.029214698585116767e-04,-3.699152121802270488e-01
2.000000000000000000e+01,2.010093375837929963e-01,6.055558117934070061e-01,1.000239008264516144e-01,2.385958874745991443e-01,-5.196023377150407047e-02,2.423381505396599135e-06,-3.515623171753248614e-03,6.536732182084326742e-03,-2.015388405047281672e+00,7.997543779157758465e-03,-1.355722321311036765e-03,-3.699266266209726983e-01
2.025000000000000000e+01,2.307534123503256485e-01,5.984716608113809233e-01,1.000242612124571107e-01,2.372251553531550539e-01,-6.129393031806777692e-02,3.263753330486975224e-06,-3.766112052533232384e-03,7.670508360229665035e-03,-2.061631744647424824e+00,9.705529587079288895e-03,-3.174260762723044374e-03,-3.699378406673329844e-01
2.050000000000000000e+01,2.602685441746321882e-01,5.901325215112834810e-01,1.000246980101184152e-01,2.349107918044977539e-01,-7.201162108934443251e-02,3.593820468459378505e-06,-3.944869026790252461e-03,8.999482777048869314e-03,-2.107876011268803307e+00,9.947105544668400148e-03,-4.656233283766369850e-03,-3.699457094002756574e-01
2.075000000000000000e+01,2.894174852892309469e-01,5.803638377926814140e-01,1.000251215975698493e-01,2.313665309185815588e-01,-8.409865587389023234e-02,3.031947329149302885e-06,-4.026201113692198970e-03,1.034260850602967789e-02,-2.154120208817134063e+00,8.772457637982879197e-03,-5.501996795491016258e-03,-3.699479321911981478e-01
2.100000000000000000e+01,3.180332832751651129e-01,5.690077820705372602e-01,1.000254091066357515e-01,2.264071756809192537e-01,-9.731616984597117603e-02,1.467783308330203050e-06,-3.997289839400866747e-03,1.153384734411311112e-02,-2.200363180730333212e+00,6.573351860911633496e-03,-5.599043883497145831e-03,-3.699440501307268980e-01
2.125000000000000000e+01,3.459339749213909410e-01,5.559476514142366321e-01,1.000254522977623572e-01,2.199750174961301041e-01,-1.112641220546778109e-01,-7.649085833431835313e-07,-3.860143119230922786e-03,1.245871738890648103e-02,-2.246604017432046518e+00,3.917109788035809566e-03,-5.037074255923318887e-03,-3.699355616589180551e-01
2.150000000000000000e+01,3.729383788850669790e-01,5.411222953210671482e-01,1.000252074321841267e-01,2.121325107768146090e-01,-1.254717705818028384e-01,-3.025157476616529627e-06,-3.629798962121111999e-03,1.307040920002957782e-02,-2.292842342697757996e+00,1.350804059615816561e-03,-4.046406079868863914e-03,-3.699251027832197170e-01
2.175000000000000000e+01,3.988791886182417867e-01,5.245291332602587397e-01,1.000247123489683143e-01,2.030295343522753870e-01,-1.394850058189196496e-01,-4.708349348823445788e-06,-3.329763078559871622e-03,1.338314955520418688e-02,-2.339078349344571706e+00,-7.537622998296839190e-04,-2.889070594359719520e-03,-3.699152260844196793e-01
2.200000000000000000e+01,4.236112190068315742e-01,5.062178315548395702e-01,1.000240612718471395e-01,1.928620032782190352e-01,-1.529263527464319317e-01,-5.538100172479044309e-06,-2.986407043841460794e-03,1.344811534856351840e-02,-2.385312613593788544e+00,-2.267643202045858952e-03,-1.749089595909485064e-03,-3.699074755190628339e-01
2.225000000000000000e+01,4.470149092973149108e-01,4.862788961344505223e-01,1.000233569985854304e-01,1.818397112420400141e-01,-1.655171307010341319e-01,-5.630382580078158521e-06,-2.624165809769157896e-03,1.332221365890849663e-02,-2.431545827091465828e+00,-3.276316188159012280e-03,-6.654270020547820279e-04,-3.699021456320880086e-01
2.250000000000000000e+01,4.689970927830006686e-01,4.648317633015169870e-01,1.000226698411068038e-01,1.701752337894987810e-01,-1.770662849720691379e-01,-5.344828871927057514e-06,-2.262874547147439123e-03,1.304107124158016169e-02,-2.477778588008829441e+00,-3.981849007905595428e-03,4.684394909159428442e-04,-3.698986502346588434e-01
2.275000000000000000e+01,4.894918799420778788e-01,4.420156412000141311e-01,1.000220219199379895e-01,1.580954164184933675e-01,-1.874412300932035980e-01,-5.054683381989888262e-06,-1.917700112817686880e-03,1.260484418245570379e-02,-2.524011319237221773e+00,-4.582270540441897230e-03,1.841138881068136827e-03,-3.698961401849185093e-01
2.300000000000000000e+01,5.084640026030498028e-01,4.179841306829492620e-01,1.000213985797456240e-01,1.458666215215359552e-01,-1.965395169426366884e-01,-4.956641054749572659e-06,-1.601182787283548722e-03,1.198049412164710163e-02,-2.570244298498687741e+00,-5.174188451399745411e-03,3.620855617187942327e-03,-3.698940028413656433e-01
2.325000000000000000e+01,5.259153762867713189e-01,3.929024842164350884e-01,1.000207774809457606e-01,1.338181556411785211e-01,-2.042763002060543343e-01,-4.980594358880791742e-06,-1.326216962348089959e-03,1.111903053027472887e-02,-2.616477735059837606e+00,-5.708638555994939578e-03,5.848438055304692323e-03,-3.698920425920427801e-01
2.350000000000000000e+01,5.418935480797881787e-01,3.669450137500334663e-01,1.000201611974193827e-01,1.223470222616672848e-01,-2.105939721103572970e-01,-4.822102032633469392e-06,-1.108549873222779147e-03,9.982399346919815231e-03,-2.662711819340487729e+00,-6.008116191675623267e-03,8.359142635835868293e-03,-3.698903438018502077e-01
2.375000000000000000e+01,5.564988070361325256e-01,3.402900043839837685e-01,1.000195974369421925e-01,1.118912818890084315e-01,-2.154904734605593841e-01,-4.102102690911877861e-06,-9.675836410389205633e-04,8.572823219133605607e-03,-2.708946700096723781e+00,-5.833553171028036353e-03,1.075635371877884348e-02,-3.698889833931059412e-01
2.400000000000000000e+01,5.698856374667852220e-01,3.131104736762057028e-01,1.000191728788299844e-01,1.028674289681769105e-01,-2.190548253520575028e-01,-2.613715783849249457e-06,-9.248073374760900798e-04,6.957207048413914345e-03,-2.755182401428592609e+00,-4.978489859583094812e-03,1.244897441514397976e-02,-3.698878557924288879e-01
2.425000000000000000e+01,5.822542701967702294e-01,2.855608617025707230e-01,1.000189765518387924e-01,9.557743119123371378e-02,-2.214942771380918329e-01,-5.374846569556340800e-07,-9.998763983331015494e-04,5.279972659205068100e-03,-2.801418757931786629e+00,-3.364072694286387132e-03,1.275476808319844259e-02,-3.698868461016556752e-01
2.450000000000000000e+01,5.938294845294684876e-01,2.577617123780736041e-01,1.000190477454044879e-01,9.010173414008215698e-02,-2.231378120434794610e-01,1.548384042235667856e-06,-1.205022623310707123e-03,3.758818575653752238e-03,-2.847655477981562822e+00,-1.109072698545381487e-03,1.106260003536385476e-02,-3.698863838844212437e-01
2.475000000000000000e+01,6.048264815167148090e-01,2.297860511017207896e-01,1.000193430377619153e-01,8.620391663233924195e-02,-2.244055028392899775e-01,2.979635594805048459e-06,-1.538999251125815551e-03,2.659745624872406240e-03,-2.893892393973981125e+00,1.448733575363038472e-03,7.031405344076646635e-03,-3.698880562757127510e-01
2.500000000000000000e+01,6.154072791945134346e-01,2.016519542722379210e-01,1.000197593453594214e-01,8.327831575029663591e-02,-2.257418709608199348e-01,3.542695427624793962e-06,-1.982076876319921726e-03,2.251195006203764604e-03,-2.940129813555393490e+00,3.797676825555655351e-03,7.813635512506176151e-04,-3.698946427390621960e-01
2.525000000000000000e+01,6.256349896888779849e-01,1.733253209537048700e-01,1.000202192335491735e-01,8.037040857050377352e-02,-2.275227677302913143e-01,3.857568522495280577e-06,-2.493664431917046436e-03,2.742852191241549990e-03,-2.986368717015988050e+00,5.367506548681896979e-03,-6.988110527678444844e-03,-3.699089840940668616e-01
2.550000000000000000e+01,6.354364175096223200e-01,1.447349066408510077e-01,1.000207675496994769e-01,7.628797876175161252e-02,-2.299568063238006110e-01,5.131132354038214882e-06,-3.013881980752501286e-03,4.221561052710277526e-03,-3.032610498495184714e+00,5.694716887999690114e-03,-1.502131318723187899e-02,-3.699317640433993915e-01
2.575000000000000000e+01,6.445843343282821047e-01,1.157984926182891311e-01,1.000215861634209946e-01,6.979893644865654834e-02,-2.330100255504086726e-01,8.151446363836814494e-06,-3.469800442431845381e-03,6.602039288700077384e-03,-3.078856152966593651e+00,4.591136500183640168e-03,-2.170762204611733498e-02,-3.699593595669057877e-01
2.600000000000000000e+01,6.527084918497974009e-01,8.645540551578514976e-02,1.000228617752603466e-01,5.988388573778254120e-02,-2.363820334956219793e-01,1.210550430034453436e-05,-3.786084139279458517e-03,9.610339058806248794e-03,-3.125105234201107862e+00,2.254049910308963348e-03,-2.543909733216796060e-02,-3.699835980058001073e-01
2.625000000000000000e+01,6.593386337148706700e-01,5.669781211908705293e-02,1.000328050712355338e-01,4.598513607390081886e-02,-2.395466986918391161e-01,5.281886253591325253e-05,-3.903356335321144302e-03,1.281111958238852384e-02,3.111290057452511526e+00,-6.914381048509039493e-04,-2.502146391157619026e-02,-3.641545065721077390e-01
2.650000000000000000e+01,6.639757522863797279e-01,2.659161485336952388e-02,1.000344648932184194e-01,2.819975845638639927e-02,-2.418848342853345545e-01,-4.889495885449611597e-06,-3.775065630222418280e-03,1.567887522071683207e-02,3.065439385564790342e+00,-3.551841074681472837e-03,-2.010132009295191244e-02,-3.684262429807287909e-01
2.675000000000000000e+01,6.661783574740914871e-01,-3.720970130238098611e-03,1.000331428785620064e-01,7.324943047782160599e-03,-2.428098224578343900e-01,-1.468481296323922339e-05,-3.395463090636839654e-03,1.770231311475693042e-02,3.019305008488593955e+00,-5.327166677310578649e-03,-1.123990126520965291e-02,-3.695424209708688124e-01
2.700000000000000000e+01,6.656460138839299656e-01,-3.403563260372245713e-02,1.000307466033706488e-01,-1.522789858158468158e-02,-2.419394389388932753e-01,-2.366544501945411254e-05,-2.807152494957252525e-03,1.848477228591890661e-02,2.973101425196165604e+00,-5.394886431766414935e-03,8.761965147132701453e-05,-3.698118771137829386e-01
2.725000000000000000e+01,6.622823026048696438e-01,-6.412087616808999357e-02,1.000271978735634698e-01,-3.766728467075156767e-02,-2.392231648500664498e-01,-3.232796826256659195e-05,-2.088599889573087079e-03,1.783330185011132440e-02,2.926883866075425722e+00,-3.573850782026224103e-03,1.180829776126508975e-02,-3.698617888249909336e-01
2.750000000000000000e+01,6.562217984316112140e-01,-9.376276420247199594e-02,1.000228776457876001e-01,-5.814923794072692637e-02,-2.349786802533841146e-01,-3.539147775903248391e-05,-1.343206770810248746e-03,1.580500888176927105e-02,2.880663372274678391e+00,-2.027841213951438171e-04,2.171178791558877122e-02,-3.698660038734036815e-01
2.775000000000000000e+01,6.478139325423524220e-01,-1.228082857243236875e-01,1.000187148894361167e-01,-7.512573622018965669e-02,-2.298357775571273076e-01,-2.998752974226966239e-05,-6.827756391211193578e-04,1.270232595043046912e-02,2.834439424825474951e+00,3.924419786675181765e-03,2.793460979086628479e-02,-3.698700128585299951e-01
2.800000000000000000e+01,6.375661751395684806e-01,-1.511961123646380634e-01,1.000157019016122834e-01,-8.763683753993878334e-02,-2.245971434382472709e-01,-1.787943898314970961e-05,-2.085036869386162255e-04,9.019226738029021556e-03,2.788210336781232535e+00,7.749788035389259741e-03,2.935595307770297313e-02,-3.698792981519423151e-01
2.825000000000000000e+01,6.260578807198603490e-01,-1.789662412711453821e-01,1.000143611457031401e-01,-9.548342882587200486e-02,-2.200483565424032895e-01,-4.275213999206253177e-06,6.727640923509158363e-06,5.350190028323380427e-03,2.741976451739646325e+00,1.022099160037014814e-02,2.582263271053015716e-02,-3.698879648980877843e-01
2.850000000000000000e+01,6.138423370436068005e-01,-2.062451056509220504e-01,1.000145162119431413e-01,-9.924525318209365121e-02,-2.167639102432693810e-01,5.467786436269094648e-06,-6.885150285253982202e-05,2.280110616042177463e-03,2.695739967588687502e+00,1.057225923290727558e-02,1.816358181937810165e-02,-3.698913968932516783e-01
2.875000000000000000e+01,6.013567989405741443e-01,-2.332088917306349984e-01,1.000154899878994696e-01,-1.001430266668904556e-01,-2.149587668907007032e-01,8.979377190883944531e-06,-4.206130195380868800e-04,2.762079149296093900e-04,2.649503174281534257e+00,8.544029404296129421e-03,7.997182586121488398e-03,-3.698912325652481958e-01
2.900000000000000000e+01,5.888582418018819542e-01,-2.600334778709971206e-01,1.000165675151871020e-01,-9.977675797302555660e-02,-2.144250813853193494e-01,7.809895242623469472e-06,-9.907727249766592244e-04,-3.973901591064304115e-04,2.603266774108174086e+00,4.479973744274406804e-03,-2.626524118353784978e-03,-3.698939217208671582e-01
2.925000000000000000e+01,5.763967669171233821e-01,-2.868431330682721381e-01,1.000173976323742719e-01,-9.979845352373936662e-02,-2.145732150548307626e-01,5.697871912372682507e-06,-1.689484621746135690e-03,2.746711418592165800e-04,2.557029517104919769e+00,-7.326595384861249189e-04,-1.167322862074151105e-02,-3.699052917356073777e-01
2.950000000000000000e+01,5.638302861652729758e-01,-3.136708162440702830e-01,1.000180746619592359e-01,-1.015910213174414795e-01,-2.145695638231453761e-01,5.575681074325401677e-06,-2.411630675657437661e-03,2.063092905165227805e-03,2.510789339575095980e+00,-5.874258598762555419e-03,-1.756334581402167402e-02,-3.699254159189222513e-01
2.975000000000000000e+01,5.508751037852881449e-01,-3.404402543937521952e-01,1.000188862220255243e-01,-1.060230235594472881e-01,-2.135376163506524372e-01,7.540563263177698721e-06,-3.056072148256600961e-03,4.548204998478849216e-03,2.464545122563913004e+00,-9.709034840168084476e-03,-1.950184981815963198e-02,-3.699475457432505610e-01
3.000000000000000000e+01,5.371793288610852146e-01,-3.669744679925249775e-01,1.000199546980516108e-01,-1.133306796991904730e-01,-2.107700844509235172e-01,9.194294183899153397e-06,-3.543586598677521664e-03,7.214085537431947324e-03,2.418297797473232258e+00,-1.132657816037475722e-02,-1.761937372715092695e-02,-3.699618594029394636e-01
3.025000000000000000e+01,5.224015162220928543e-01,-3.930283858552259812e-01,1.000210595781006462e-01,-1.231477216265314950e-01,-2.058945520668012674e-01,7.902611453579336110e-06,-3.829846963022432230e-03,9.562749373790343024e-03,2.372050055079338193e+00,-1.041298845973700517e-02,-1.288699642158316547e-02,-3.699613589397988123e-01
3.050000000000000000e+01,5.062766948435961645e-01,-4.183365089850535345e-01,1.000217664017936103e-01,-1.346673124256364817e-01,-1.989456081194340975e-01,3.078234534779308573e-06,-3.910707907602685093e-03,1.122257908869147246e-02,2.325804933870036173e+00,-7.362558953034589564e-03,-6.821583241206421143e-03,-3.699458742375199005e-01
3.075000000000000000e+01,4.886561339856355102e-01,-4.426622057314071879e-01,1.000217390310265547e-01,-1.468871876620554684e-01,-1.903217744642503317e-01,-3.309937587748433587e-06,-3.818697965266509755e-03,1.202420285088821698e-02,2.279564301257004821e+00,-3.173985437276268407e-03,-1.053729281765959517e-03,-3.699217216626808913e-01
3.100000000000000000e+01,4.695148166959737246e-01,-4.658347020769417202e-01,1.000209772490468912e-01,-1.588683407733168795e-01,-1.806403607527909128e-01,-8.254046038043493883e-06,-3.611691891091831606e-03,1.202243416652157629e-02,2.233328179613833786e+00,8.650325467997220996e-04,3.125071609599208884e-03,-3.698977609196485439e-01
3.125000000000000000e+01,4.489296363900807663e-01,-4.877637752655659131e-01,1.000198052773547536e-01,-1.699358181500487119e-01,-1.705380442389992923e-01,-9.836567541956168771e-06,-3.356760997260664972e-03,1.145542419380337143e-02,2.187095146918494493e+00,3.621797758044673424e-03,5.098935454469242373e-03,-3.698808584746651196e-01
3.150000000000000000e+01,4.270391894439733993e-01,-5.084297479703795419e-01,1.000186534018052548e-01,-1.797702131524330782e-01,-1.604868438125486851e-01,-8.225740590519291270e-06,-3.113564163095086136e-03,1.065083186605310372e-02,2.140863304249293719e+00,4.533084859968484169e-03,5.030191300784129203e-03,-3.698735000076065482e-01
