time_total,x,y,z,vx,vy,vz,roll,pitch,yaw,roll_rate,pitch_rate,yaw_rate
-01,9.990264179970805014e-02,1.124161085917448899e-01,-1.367817258059537133e-01,3.876655784451843662e-04,-3.746641626322946405e-03,1.336596364498566537e-03,-2.878682578919745438e+00,2.300714365193595734e-02,-8.401296982013204198e-03,-3.310336371416499057e-01
2.500000000000000000e-01,5.007181884810056882e-01,1.749362188867904233e-01,9.994357833308732675e-02,1.106988751115324382e-01,-1.424607968119692147e-01,2.768942288386310097e-04,-6.392044949987378197e-03,3.055578125025606821e-03,-2.920068036343889784e+00,2.216915458219343230e-02,-9.117284035452631955e-03,-3.310415368682499415e-01
5.000000000000000000e-01,5.143528298990113212e-01,1.565831111123925645e-01,9.997258656940105626e-02,1.072242978811057262e-01,-1.513101928443603694e-01,1.935838491018462273e-04,-8.167044802868259762e-03,4.869514003273722573e-03,-2.961455813859356745e+00,1.088355637421218811e-02,-1.370774594821948418e-02,-3.310545995990515911e-01
7.500000000000000000e-01,5.274007336160664305e-01,1.370062361771289539e-01,9.999251969587388822e-02,1.012619358462101410e-01,-1.616507057015193760e-01,1.309226045035429573e-04,-8.373057223625350598e-03,6.950809126486221304e-03,-3.002839551399240303e+00,-1.498345248866942130e-03,-1.811002421230706663e-02,-3.310695076656101632e-01
1.000000000000000000e+00,5.395052189041364965e-01,1.161485812429134123e-01,1.000059828359033121e-01,9.215717400002373938e-02,-1.715297507307287361e-01,8.919509229089636311e-05,-7.356581119724848149e-03,9.254611785269178936e-03,-3.044215682417948710e+00,-9.030704807211530766e-03,-1.973399805176117780e-02,-3.310814258788079556e-01
1.250000000000000000e+00,5.502554365169319839e-01,9.416103023914659809e-02,1.000153581791253105e-01,7.972027299114070598e-02,-1.796480134468894652e-01,6.362202160602996196e-05,-5.894150609111421801e-03,1.153179750033311336e-02,-3.085585918823249063e+00,-1.056064429996786229e-02,-1.788973955601767460e-02,-3.310838549096354888e-01
1.500000000000000000e+00,5.592527326420259071e-01,7.129870248706471347e-02,1.000221008461259081e-01,6.431057077058964511e-02,-1.855943495006267818e-01,4.546991876987928333e-05,-4.629591935000844719e-03,1.344590619277371418e-02,-3.126954947579114741e+00,-8.240201157176921601e-03,-1.323099780293129045e-02,-3.310707033729671789e-01
1.750000000000000000e+00,5.661727202711093199e-01,4.782415581425297768e-02,1.000349789787526034e-01,4.671349719507591342e-02,-1.895693859997752972e-01,6.774631958127470409e-05,-3.820010365253997606e-03,1.470795895243220790e-02,3.114319775922693267e+00,-4.987804486426368998e-03,-6.938569952743224925e-03,-3.252004760093417102e-01
2.000000000000000000e+00,5.708070151630399991e-01,2.395749028814997406e-02,1.000376376363147496e-01,2.795761731843414075e-02,-1.919888593089882356e-01,-2.018422293906012166e-06,-3.362168411746337127e-03,1.516292542356097520e-02,3.073345339753539740e+00,-2.945210709990029631e-03,-2.340404139248737083e-04,-3.294434280629281453e-01
2.250000000000000000e+00,5.730804363090542530e-01,-1.283987586953770849e-04,1.000364127451968677e-01,9.118127301814415650e-03,-1.931523082214075815e-01,-1.422284418478491217e-05,-3.012449342295751148e-03,1.481112575828802229e-02,3.032083468902225132e+00,-2.300692074930304164e-03,5.981510554167652517e-03,-3.305509040201674020e-01
2.500000000000000000e+00,5.730481382511236621e-01,-2.428624757165362066e-02,1.000344221346291251e-01,-8.811420140497683295e-03,-1.931898287344544218e-01,-1.668993083222995515e-05,-2.583144892489723076e-03,1.376979930291408194e-02,2.990748640596172070e+00,-2.341981159812028118e-03,1.102082705660016940e-02,-3.308325178281231183e-01
2.750000000000000000e+00,5.708785263920261865e-01,-4.837939287293735457e-02,1.000324054703028570e-01,-2.502105066251019555e-02,-1.921643682953956545e-01,-1.508736064833282565e-05,-2.024124569166118291e-03,1.222872049925208954e-02,2.949396205451504827e+00,-2.147956309909474296e-03,1.437595123487524912e-02,-3.309052752267618303e-01
3.000000000000000000e+00,5.668251041764366116e-01,-7.228154121225904838e-02,1.000307684125630869e-01,-3.896151998956054463e-02,-1.901942712160306359e-01,-1.095091662686526153e-05,-1.407555423193315464e-03,1.041197744937712340e-02,2.908038251061487056e+00,-1.253535655831495730e-03,1.572096437718522796e-02,-3.309297490556818988e-01
3.250000000000000000e+00,5.611901915074027913e-01,-9.588847194929397966e-02,1.000297248579247594e-01,-5.039663830691259311e-02,-1.875123571626277075e-01,-5.899074632006431809e-06,-8.547473840652894395e-04,8.552443192116837914e-03,2.866676345798818026e+00,1.699939685785112429e-04,1.497926719940739781e-02,-3.309435117560963757e-01
3.500000000000000000e+00,5.542843736644472719e-01,-1.191310086063006729e-01,1.000292887855622065e-01,-5.941788390369336093e-02,-1.844313761824582232e-01,-1.417548878608208875e-06,-4.630690484418789068e-04,6.870634148978424678e-03,2.825310795170189238e+00,1.548930022000615967e-03,1.239996160613052179e-02,-3.309529483495943780e-01
3.750000000000000000e+00,5.463873525957201327e-01,-1.419792051213602524e-01,1.000293254595679554e-01,-6.640734086607814890e-02,-1.812490769491436615e-01,1.634045487613592240e-06,-2.679444644254924159e-04,5.548807519514637257e-03,2.783942498215928651e+00,2.308333087404996955e-03,8.573051407135495391e-03,-3.309586469215856641e-01
4.000000000000000000e+00,5.377170223682892214e-01,-1.644340349465063800e-01,1.000296415742978756e-01,-7.194584417408962651e-02,-1.781533701967909222e-01,3.138792635795048405e-06,-2.446067103160745907e-04,4.699710432132814079e-03,2.742572593041156637e+00,2.194307141692661885e-03,4.342874478247027090e-03,-3.309614315172866861e-01
4.250000000000000000e+00,5.284128928827521721e-01,-1.865101018382916420e-01,1.000300654945809747e-01,-7.668042321549492502e-02,-1.751779113930039822e-01,3.482652816906287632e-06,-3.340757053188742986e-04,4.339321064261322976e-03,2.701201926536883402e+00,1.383199496794227604e-03,6.267893334674541628e-04,-3.309626646960588392e-01
4.500000000000000000e+00,5.185371704734715870e-01,-2.082172505135996277e-01,1.000304842987282949e-01,-8.118054001474631076e-02,-1.722267099862489215e-01,3.147240808327481919e-06,-4.732099316056755664e-04,4.377207077508279455e-03,2.659830942460442937e+00,3.755323468419436025e-04,-1.812132722780778740e-03,-3.309633679163702102e-01
4.750000000000000000e+00,5.080925581264805757e-01,-2.295490479248253335e-01,1.000308330488204056e-01,-8.581953502460748506e-02,-1.691528991275962623e-01,2.395647699758389579e-06,-6.152991262034957116e-04,4.634241979606374198e-03,2.618459853684506733e+00,-2.385653094769847734e-04,-2.568020811606413871e-03,-3.309637449054381175e-01
5.000000000000000000e+00,4.970514633632930335e-01,-2.504827096505957140e-01,1.000310636863131625e-01,-9.071305955177436098e-02,-1.658556377641486890e-01,1.271482388675336068e-06,-7.375421051137003980e-04,4.887556721642150048e-03,2.577088814850533094e+00,-2.845082780719473728e-05,-1.703635617884402282e-03,-3.309634033998181124e-01
5.250000000000000000e+00,4.853882158062253760e-01,-2.709901157938566785e-01,1.000311337353662067e-01,-9.573113736552413267e-02,-1.623552757808505997e-01,-1.280423226241599766e-07,-8.387412157337823448e-04,4.931672657191962100e-03,2.535717972316618329e+00,1.106384824609383567e-03,2.703125995868731896e-04,-3.309619359735153088e-01
5.500000000000000000e+00,4.731051476800908762e-01,-2.910551630434360937e-01,1.000310296897712614e-01,-1.005794301153792730e-01,-1.588179206139941624e-01,-1.434090479118172362e-06,-9.326049332496679379e-04,4.637752219327825193e-03,2.494347435080332076e+00,2.892120849346256715e-03,2.546392072531649710e-03,-3.309593592714811239e-01
5.750000000000000000e+00,4.602452984315085760e-01,-3.106902936044149133e-01,1.000307964673221722e-01,-1.049250136651644072e-01,-1.555198843732626401e-01,-2.139062914298955118e-06,-1.040532089448835537e-03,3.992771504975217885e-03,2.452977251529325997e+00,4.762729031376769506e-03,4.256691032991400357e-03,-3.309561658034647080e-01
6.000000000000000000e+00,4.468885220751973586e-01,-3.299451864959244141e-01,1.000305300190200281e-01,-1.085292092038529638e-01,-1.527627582568523157e-01,-1.993246273155728984e-06,-1.185250826291341661e-03,3.106900027427203417e-03,2.411607420207233066e+00,6.031334344727761268e-03,4.720790752197316469e-03,-3.309531494485148384e-01
6.250000000000000000e+00,4.331326622812904925e-01,-3.489029960255785046e-01,1.000303252520638869e-01,-1.113488375249395285e-01,-1.507650289716522540e-01,-1.253312855131069532e-06,-1.385147472178692180e-03,2.187389043479827464e-03,2.370237890391765578e+00,6.094962645640374273e-03,3.631569810546360355e-03,-3.309513158554634460e-01
6.500000000000000000e+00,4.190657277096258015e-01,-3.676632879554498357e-01,1.000302209149034477e-01,-1.135775900332002958e-01,-1.495628006593247017e-01,-4.801661897655266035e-07,-1.649056907939988907e-03,1.486848350931170223e-03,2.328868495747328904e+00,4.615764721700641587e-03,1.128929955022411067e-03,-3.309519272134001655e-01
6.750000000000000000e+00,4.047374287957223316e-01,-3.863148216048125638e-01,1.000301933461260617e-01,-1.156171816407595143e-01,-1.489496472459021503e-01,-3.233165575832226734e-08,-1.972071919303825926e-03,1.240028074954160940e-03,2.287498839798396855e+00,1.633262088716319789e-03,-2.251991281865808967e-03,-3.309563687441058333e-01
7.000000000000000000e+00,3.901384358339852754e-01,-4.049044843385261050e-01,1.000302077253297089e-01,-1.179877917339714199e-01,-1.484753622246158533e-01,2.690846350656680324e-07,-2.333599501582919733e-03,1.605078426258640381e-03,2.246128256802651713e+00,-2.419471451976408418e-03,-5.736017906463500120e-03,-3.309655271383930564e-01
7.250000000000000000e+00,3.751934265811146529e-01,-4.234102095999469628e-01,1.000302789692312372e-01,-1.212033984740908260e-01,-1.475082000113486780e-01,9.530783330347298296e-07,-2.698821514780386406e-03,2.623209716605901833e-03,2.204755988257723676e+00,-6.801203562387129510e-03,-8.519184395687632791e-03,-3.309788419011705507e-01
7.500000000000000000e+00,3.597701558981601377e-01,-4.417252095758831265e-01,1.000304794408603953e-01,-1.256459911356723191e-01,-1.453486582713071074e-01,2.310915207942709951e-06,-3.023872698346092257e-03,4.205795277098457047e-03,2.163381580388480163e+00,-1.063138954444867688e-02,-9.977137304905060039e-03,-3.309937138989625383e-01
7.750000000000000000e+00,3.437025023232165855e-01,-4.596584106892777633e-01,1.000308742649985150e-01,-1.314715564769627643e-01,-1.413689017822121197e-01,3.918582112451851809e-06,-3.263852882770921279e-03,6.151291944045008536e-03,2.122005302761984513e+00,-1.310102678070446634e-02,-9.814794946297306089e-03,-3.310059734131671760e-01
8.000000000000000000e+00,3.268218950135887702e-01,-4.769521753658694241e-01,1.000314307965436689e-01,-1.385708034477405315e-01,-1.351444619885505405e-01,4.727501120730356581e-06,-3.381801492265373681e-03,8.187050694070677204e-03,2.080628290982290629e+00,-1.366775814632080130e-02,-8.118893112579543200e-03,-3.310114682768350303e-01
8.250000000000000000e+00,3.089896368074728228e-01,-4.933142310768565131e-01,1.000319787793553655e-01,-1.465917678585060002e-01,-1.265465549938196432e-01,3.718444009074879963e-06,-3.356391391238164931e-03,1.002477957634365438e-02,2.039252242134501625e+00,-1.217765506498542753e-02,-5.304505887833471829e-03,-3.310079816263021280e-01
8.500000000000000000e+00,2.901228568018319187e-01,-5.084573918676320581e-01,1.000322640352431652e-01,-1.550145057716834363e-01,-1.157742957328928707e-01,6.394071116491093344e-07,-3.186460805335777566e-03,1.141513454816781882e-02,1.997878771502290540e+00,-8.878407452001428959e-03,-1.980103057085019855e-03,-3.309963316685547996e-01
8.750000000000000000e+00,2.702089420369378492e-01,-5.221391185805956958e-01,1.000320685480277361e-01,-1.632553167224486401e-01,-1.033228833086762832e-01,-3.725310050049736471e-06,-2.891425705519928922e-03,1.218808280492432970e-02,1.956508765995953025e+00,-4.326279746083539282e-03,1.219881626681810962e-03,-3.309799770526845042e-01
9.000000000000000000e+00,2.493357343110410018e-01,-5.341831951384259369e-01,1.000326949939230464e-01,-1.692328999442798687e-01,-8.935652879470695753e-02,3.370945160697377336e-05,6.270013196566582084e-03,1.211148683162606259e-02,1.928730337104925585e+00,-7.053980958734647200e-02,2.079708997019477923e-01,6.519631835386537413e-03
9.250000000000000000e+00,2.291031212954811325e-01,-5.440029485820289112e-01,1.000675270491514501e-01,-1.481295365818139920e-01,-6.615372019741495857e-02,6.059889016228215547e-04,4.293528604308921581e-02,1.016160830740975296e-02,1.948449130785184336e+00,-9.073033538115242436e-02,2.943345369323361327e-01,2.431968640968803774e-01
9.500000000000000000e+00,2.142445550501833607e-01,-5.499916134057423189e-01,1.001645369281357334e-01,-8.585633558303469581e-02,-2.890136159814696293e-02,7.051311806018806813e-04,7.239162849810576450e-02,6.282255494898871494e-03,1.983960600230635807e+00,-2.543626804291954091e-02,1.467470108914480931e-01,3.055828635828372053e-01
9.750000000000000000e+00,2.088201881181299957e-01,-5.507754052170326098e-01,1.001881082370392195e-01,-2.759283645418102605e-03,1.500807108135040688e-02,-3.776173622535261803e-04,7.612822132146222776e-02,1.937874849360845132e-03,2.023516799302993441e+00,5.974398457061427109e-02,-5.116350497547483833e-02,3.228634511414414932e-01
1.000000000000000000e+01,2.135302981895392527e-01,-5.462932410169992758e-01,1.000859513397581446e-01,7.226387165529357670e-02,5.364555232338874546e-02,-1.045286440155605845e-03,5.735912322410902098e-02,-1.013191658503009157e-03,2.064271358306417614e+00,1.096414428530226998e-01,-1.718549092356088104e-01,3.280893491418883645e-01
1.025000000000000000e+01,2.260254673803348824e-01,-5.378089375287323781e-01,9.997303115767956772e-02,1.210468120122026314e-01,7.869319440681966926e-02,-6.501572550566608530e-04,3.030302744435081630e-02,-1.823227309840387469e-03,2.105459930804849833e+00,1.063965206836230415e-01,-1.815472933779039288e-01,3.298968390952373708e-01
1.050000000000000000e+01,2.427539278291454272e-01,-5.271641289442416944e-01,9.993373373588285147e-02,1.418474395417671230e-01,8.911935454189613692e-02,-4.070603708160239599e-05,8.450959949360696902e-03,-1.156377936018069359e-03,2.146786556109481658e+00,6.595965196849458423e-02,-1.159654898672206474e-01,3.306462174721571112e-01
1.075000000000000000e+01,2.607712050195065689e-01,-5.159177295010815012e-01,9.994733138484593327e-02,1.443865360037963341e-01,8.973043642654185414e-02,1.841535114902245480e-04,-1.884723297935018927e-03,-3.081802896923098748e-04,2.188147315189896247e+00,1.785811286041202872e-02,-3.312768459783625025e-02,3.309297304187098221e-01
1.100000000000000000e+01,2.786155186197668554e-01,-5.048649376199445538e-01,9.996979318649594493e-02,1.411754291241189008e-01,8.717219009957782871e-02,1.602475601994947829e-04,-1.896625640417263364e-03,-2.129008081276379937e-04,2.229517455623172051e+00,-1.451960583687774385e-02,2.350901947313711188e-02,3.309655106685754355e-01
1.125000000000000000e+01,2.961900627196469293e-01,-4.940532714449732410e-01,9.998703142567808011e-02,1.409200592959624632e-01,8.638061881026490307e-02,1.218133992309932561e-04,3.177601194338843579e-03,-9.299222611111435761e-04,2.270883518421745961e+00,-2.374802255001678616e-02,3.984225397058688972e-02,3.309384376400951733e-01
1.150000000000000000e+01,3.140975380253843707e-01,-4.831138537931419785e-01,1.000007581916943361e-01,1.462934184696266515e-01,8.914317933232290825e-02,9.753915099286305840e-05,8.119281728781353735e-03,-1.795205307206361066e-03,2.312244191716351871e+00,-1.640058575244610073e-02,2.569715823536771956e-02,3.309473422159444622e-01
1.175000000000000000e+01,3.329480942320024450e-01,-4.716310555227104517e-01,1.000106341208189531e-01,1.553199286871328189e-01,9.473195840910098031e-02,5.979271882991839943e-05,1.015305393992011612e-02,-1.962091200025692199e-03,2.353611307639059902e+00,-4.563775187403383560e-03,3.078165929810883130e-04,3.309913860944430075e-01
1.200000000000000000e+01,3.529591259742646536e-01,-4.593560490426951137e-01,1.000156977818075360e-01,1.642347215941942218e-01,1.015172218965121193e-01,2.535792664155128663e-05,9.216076780409863597e-03,-9.152011018895239800e-04,2.394989704778027306e+00,2.374917818500071800e-03,-2.038228232240120105e-02,3.310403797176683094e-01
1.225000000000000000e+01,3.738990041171518786e-01,-4.462224598314918356e-01,1.000178798007926445e-01,1.698978538171398711e-01,1.083613756207988804e-01,1.380781951903435347e-05,6.816625340246573739e-03,1.312212861828065394e-03,2.436372010100129604e+00,1.591871465871309756e-03,-2.942932590823941347e-02,3.310790572968471679e-01
1.250000000000000000e+01,3.952498313883351377e-01,-4.322409158807391516e-01,1.000197851118361375e-01,1.708760863336595826e-01,1.151443449825941684e-01,1.767126765264579876e-05,4.607392376849340013e-03,4.241171514534158513e-03,2.477752732652595657e+00,-4.062020294684831612e-03,-2.792645588412688562e-02,3.311026288635696702e-01
1.275000000000000000e+01,4.164221496023569058e-01,-4.173848753548364821e-01,1.000222992065721295e-01,1.673136193408907291e-01,1.224586937757337068e-01,2.157847757099620636e-05,3.483486026833805191e-03,7.217504071157603701e-03,2.519134837530588644e+00,-9.557308314468018068e-03,-2.073308810897836127e-02,3.311056020252923782e-01
1.300000000000000000e+01,4.369088089663122343e-01,-4.015441414352312610e-01,1.000249086389463915e-01,1.602244519244083731e-01,1.309345613523403007e-01,1.915088023756459498e-05,3.430739984664869530e-03,9.665737801170450061e-03,2.560521634070429098e+00,-1.110341852234177605e-02,-1.240334033430692991e-02,3.310843055826118153e-01
1.325000000000000000e+01,4.563476171602027787e-01,-3.845588457840002916e-01,1.000268355136624265e-01,1.508198279254972796e-01,1.406917440897269000e-01,1.126444257570214971e-05,3.892558483327241033e-03,1.122001256321610192e-02,2.601909572188879860e+00,-7.808519428261349871e-03,-5.199007338866793414e-03,3.310435783912816787e-01
1.350000000000000000e+01,4.745204524280677294e-01,-3.662975701068486023e-01,1.000275902766306624e-01,1.401732291670073627e-01,1.511879252025414566e-01,1.079571997229646477e-06,4.264625306442745498e-03,1.173061647715916561e-02,2.643291253535333230e+00,-1.373224583510132286e-03,7.516038783020408988e-04,3.309964742633131896e-01
1.375000000000000000e+01,4.913323760741172275e-01,-3.467284810963078279e-01,1.000271296609381577e-01,1.292011492745074319e-01,1.614471527848992949e-01,-7.602468500477625077e-06,4.222245740518792458e-03,1.120968429505423553e-02,2.684662656196204367e+00,5.359544679350900127e-03,6.169111954812385966e-03,3.309569498842361290e-01
1.400000000000000000e+01,5.067985600086599707e-01,-3.259476232987478794e-01,1.000258575828108926e-01,1.187669537749384552e-01,1.704710368632545991e-01,-1.170168681278428997e-05,3.785465773716345343e-03,9.782672378574511218e-03,2.726025947514586711e+00,9.931254654972227966e-03,1.137329607934712931e-02,3.309324329377409390e-01
1.425000000000000000e+01,5.210415095238073446e-01,-3.041565406802325677e-01,1.000244257571386436e-01,1.097200354114102883e-01,1.776068007942415150e-01,-1.043360660741981777e-05,3.192420408161405782e-03,7.673813346475644864e-03,2.767386507845347676e+00,1.116004208495124418e-02,1.575230146804982787e-02,3.309220603523279070e-01
1.450000000000000000e+01,5.342840557688288694e-01,-2.816050269111862181e-01,1.000234178153940334e-01,1.027915600064478463e-01,1.827294627339473287e-01,-5.475579708592150793e-06,2.715650984863549663e-03,5.210879060469775746e-03,2.808748485425168084e+00,9.239685948281417885e-03,1.802132629352241888e-02,3.309206890667016898e-01
1.475000000000000000e+01,5.468218062880753072e-01,-2.585250750742826842e-01,1.000231086958462134e-01,9.838811218317460028e-02,1.862119321030550334e-01,2.032848643778182453e-07,2.529357190521774011e-03,2.814587673637275207e-03,2.850112955371486123e+00,5.294695248946389848e-03,1.692914888355174022e-02,3.309243764228332330e-01
1.500000000000000000e+01,5.589690080626776858e-01,-2.350792563490765874e-01,1.000234029994238188e-01,9.639251892384863296e-02,1.887435646342571771e-01,3.898470482581408811e-06,2.667869883590166975e-03,9.469080614895536777e-04,2.891479209457442856e+00,7.695154271598205571e-04,1.196340090743634732e-02,3.309331796852229557e-01
1.525000000000000000e+01,5.709860629950683775e-01,-2.113365170724052777e-01,1.000239640528339802e-01,9.608054171507385277e-02,1.910904191726197909e-01,4.597601406755224793e-06,3.056657549295049934e-03,1.876846494890333975e-05,2.932846985165922682e+00,-3.065713565330599900e-03,3.727700308721431689e-03,3.309501144086905988e-01
1.550000000000000000e+01,5.830076154346616191e-01,-1.872771354093739626e-01,1.000244787974143984e-01,9.621157825616773185e-02,1.938788611110289495e-01,3.594654178849788007e-06,3.571915810414848236e-03,2.834505778115259801e-04,2.974217439445353772e+00,-5.386960888708024371e-03,-6.124436450273221082e-03,3.309776043764036113e-01
1.575000000000000000e+01,5.949930076396425793e-01,-1.628203344104900141e-01,1.000248972267546999e-01,9.528323728186853525e-02,1.974525118436843141e-01,3.437897226995393775e-06,4.091388177545180437e-03,1.753962898077090094e-03,3.015592386158500560e+00,-5.894663624814255529e-03,-1.532916604215475535e-02,3.310136967152016441e-01
1.600000000000000000e+01,6.067156828799787904e-01,-1.378638905478624666e-01,1.000254420464573996e-01,9.188189874415828018e-02,2.018212563057185105e-01,5.566822699502064457e-06,4.520706374156488981e-03,4.177227027298232621e-03,3.056972742268810883e+00,-4.772680660003004137e-03,-2.165040664937192133e-02,3.310504092811705767e-01
1.625000000000000000e+01,6.177973117093167321e-01,-1.123242878592519839e-01,1.000263411202777092e-01,8.503046950243009494e-02,2.066985208966139742e-01,8.612129650100368189e-06,4.798910001805299815e-03,7.079507338766713107e-03,3.098357387521949224e+00,-2.579673743288237592e-03,-2.351381278303093722e-02,3.310758770838486131e-01
1.650000000000000000e+01,6.277797785240609718e-01,-8.616746692021570730e-02,1.000274986492915991e-01,7.443499109364440369e-02,2.116080108619071698e-01,9.195179690111183538e-06,4.894982562534930942e-03,9.874559790818431340e-03,3.139743160941537603e+00,-8.855294677978100084e-05,-2.045914296830709384e-02,3.310798960483624653e-01
1.675000000000000000e+01,6.362171611083392575e-01,-5.942363048954918403e-02,1.000374069742878125e-01,6.055704817864424744e-02,2.160251915422458924e-01,1.228037410079222213e-05,4.810451426735519627e-03,1.200495925505440896e-02,-3.101696170846671485e+00,1.898274859460008512e-03,-1.327437391024997512e-02,3.271292470733809798e-01
1.700000000000000000e+01,6.427655535376204377e-01,-3.218219649949350530e-02,1.000360948991289717e-01,4.450590569348619741e-02,2.195456175358032058e-01,-2.168321077719721532e-05,4.556137643794658243e-03,1.308604847926543753e-02,-3.060586001796261169e+00,2.900974752548588723e-03,-3.874316712224451769e-03,3.299728501416092641e-01
1.725000000000000000e+01,6.472452149937772958e-01,-4.571690299646868731e-03,1.000329237287883449e-01,2.773351247001812347e-02,2.219518987483717343e-01,-2.739382430594073910e-05,4.182366143591519612e-03,1.299757066646213544e-02,-3.019287054472855836e+00,2.652348280344803914e-03,5.342206680503973001e-03,3.307006958777467531e-01
1.750000000000000000e+01,6.496607751974984302e-01,2.326804114563445561e-02,1.000294797542616021e-01,1.167352300311173818e-02,2.232735292440052866e-01,-2.687562585607787918e-05,3.759210261258412716e-03,1.190937286571344331e-02,-2.977941019593168370e+00,1.450272116812408333e-03,1.204329892944049941e-02,3.308731982071139166e-01
1.775000000000000000e+01,6.501749569084801506e-01,5.121452210138063843e-02,1.000264192200500946e-01,-2.618684371647245126e-03,2.237369848932730665e-01,-2.157460065514397063e-05,3.360392245613738789e-03,1.023304506812654571e-02,-2.936583328625856915e+00,-4.366529995769759254e-05,1.464081846192597999e-02,3.309106287708916128e-01
1.800000000000000000e+01,6.490438148412955854e-01,7.918005012090835459e-02,1.000242321514687727e-01,-1.471154382055792423e-02,2.236460791349959842e-01,-1.348097800899458019e-05,3.046316280817415196e-03,8.508430909920818366e-03,-2.895221559277444179e+00,-1.043631470789476139e-03,1.271773711837511332e-02,3.309237763589584769e-01
1.825000000000000000e+01,6.465324842347599521e-01,1.071120218599333485e-01,1.000230704752544386e-01,-2.486268349985413031e-02,2.232373838052400250e-01,-5.619313118771277786e-06,2.848932898018216413e-03,7.258601260637221816e-03,-2.853856742876681007e+00,-9.355688601650716685e-04,7.106780306015894090e-03,3.309385467689824334e-01
1.850000000000000000e+01,6.428353763539723653e-01,1.349763593313403065e-01,1.000227687868194409e-01,-3.389164169644175162e-02,2.225619946597880150e-01,2.276315107884698891e-07,2.763728386707940861e-03,6.853818638314527339e-03,-2.812488799527484318e+00,4.806538437698949849e-04,-3.951488225842167304e-04,3.309581172731514975e-01
1.875000000000000000e+01,6.380226064318818002e-01,1.627303043272761152e-01,1.000230697622764842e-01,-4.290382165716476182e-02,2.214369134284373819e-01,4.221173650609707283e-06,2.751737003567964260e-03,7.421141769488021935e-03,-2.771117719677037350e+00,2.894598734397275160e-03,-7.575536787450759015e-03,3.309797470591777091e-01
1.900000000000000000e+01,6.320260676322956295e-01,1.902948313140548908e-01,1.000237939811191995e-01,-5.295049417944348857e-02,2.194852674523096181e-01,7.106616054991032643e-06,2.751139591651539061e-03,8.821649781389575423e-03,-2.729743980693017047e+00,5.569984942835960393e-03,-1.243816156644649354e-02,3.309986616421377037e-01
1.925000000000000000e+01,6.246667935379678349e-01,2.175373537188087514e-01,1.000247986563291697e-01,-6.472281374457404535e-02,2.162537981393065356e-01,8.584278422303788357e-06,2.695006588260741125e-03,1.069711861355283553e-02,-2.688368895815366422e+00,7.579349951941137011e-03,-1.372704858495441514e-02,3.310095782812954024e-01
1.950000000000000000e+01,6.157137931299137001e-01,2.442721570220809379e-01,1.000258228057402110e-01,-7.836122051012545109e-02,2.113698230124175237e-01,7.258049420721059586e-06,2.530040948355743221e-03,1.256915386037621256e-02,-2.646994550193466633e+00,8.106136403622371533e-03,-1.120311458780851553e-02,3.310090570286545741e-01
1.975000000000000000e+01,6.049566926609524220e-01,2.702802676584435959e-01,1.000264415617275054e-01,-9.342312592834434160e-02,2.046870006775483308e-01,2.209489147111539307e-06,2.231165722204199453e-03,1.396161252695412788e-02,-2.605623046533987797e+00,6.712991716291855440e-03,-5.621554692234240376e-03,3.309978889810732405e-01
2.000000000000000000e+01,5.922721677200001311e-01,2.953442152188739955e-01,1.000262371234529463e-01,-1.090050172823641278e-01,1.963731912377931210e-01,-5.442715595088507668e-06,1.808285578561787859e-03,1.451400343216008304e-02,-2.564255418361193417e+00,3.491162062311131426e-03,1.551540791758166966e-03,3.309813789187643351e-01
2.025000000000000000e+01,5.776673971122244788e-01,3.192883801983785741e-01,1.000250695821034985e-01,-1.239742600106170656e-01,1.869122276454009690e-01,-1.261806954538677166e-05,1.303928486207283190e-03,1.405902515431571576e-02,-2.522890991994464205e+00,-9.518340593229815665e-04,8.577465438048657506e-03,3.309667290930243255e-01
2.050000000000000000e+01,5.612911391893460333e-01,3.420137631873527706e-01,1.000232189003413819e-01,-1.372415790441175176e-01,1.770178054124138811e-01,-1.606243680045895487e-05,7.829785857134066327e-04,1.264908052708603459e-02,-2.481527724455740547e+00,-5.655339327087393307e-03,1.390202241685712346e-02,3.309591262659450361e-01
2.075000000000000000e+01,5.434120735318357376e-01,3.635174911575514423e-01,1.000212666637996795e-01,-1.480022707338481402e-01,1.674832402581490631e-01,-1.441080337974814421e-05,3.176380312370491584e-04,1.053095417058122832e-02,-2.440163324363256336e+00,-9.561743768228336132e-03,1.650707934316054254e-02,3.309592479275136334e-01
2.100000000000000000e+01,5.243721402103646012e-01,3.838915547404672668e-01,1.000197932702735076e-01,-1.558909041970849563e-01,1.590076898273654893e-01,-8.925545782488814012e-06,-2.836790126293331387e-05,8.080693493411337733e-03,-2.398796400280213792e+00,-1.178455916259237880e-02,1.607941896997186482e-02,3.309637814351265028e-01
2.125000000000000000e+01,5.045277172521200892e-01,4.033007349553222598e-01,1.000190999188665941e-01,-1.610232933004455136e-01,1.520432702825695870e-01,-2.474976795849420116e-06,-2.126231408585971391e-04,5.718623979436378291e-03,-2.357426918913635205e+00,-1.181310458426011907e-02,1.298331238107132413e-02,3.309682755335179305e-01
2.150000000000000000e+01,4.841927045798598006e-01,4.219447792639399175e-01,1.000191271314023467e-01,-1.639308052799716697e-01,1.466987285717472334e-01,2.335594393069889978e-06,-2.213858610407441795e-04,3.825765374133437841e-03,-2.316055802824379839e+00,-9.608552685683509342e-03,8.080574937824087575e-03,3.309701240844266645e-01
2.175000000000000000e+01,4.635952664000864143e-01,4.400133060223584414e-01,1.000195863484043685e-01,-1.654164463775446015e-01,1.427184425145528734e-01,4.519882609706074422e-06,-7.060903124446559333e-05,2.678346781155571937e-03,-2.274684083502208409e+00,-5.585928375469119758e-03,2.474693182284640539e-03,3.309697381065965227e-01
2.200000000000000000e+01,4.428553802892414293e-01,4.576430433509310891e-01,1.000201815644509717e-01,-1.663743347053276700e-01,1.395368505635104228e-01,4.794654475064893044e-06,1.987568182440835384e-04,2.409223019530606132e-03,-2.233312234223348458e+00,-5.089397130932304340e-04,-2.743258303466022865e-03,3.309694942217764613e-01
2.225000000000000000e+01,4.219850421968359688e-01,4.748859910862775480e-01,1.000207667909019105e-01,-1.676138971452014181e-01,1.363933408278052151e-01,4.609673773166140151e-06,5.295358681837819504e-04,2.997193819780583253e-03,-2.191940070847708810e+00,4.662878589590973774e-03,-6.693364507372730025e-03,3.309715480475928229e-01
2.250000000000000000e+01,4.009083248849317216e-01,4.916945753054635659e-01,1.000213576018664924e-01,-1.697211627849300186e-01,1.324835950678749374e-01,4.942464458421158479e-06,8.591124757442471487e-04,4.280228680873092786e-03,-2.150567172240056557e+00,8.942205347777966093e-03,-8.829615470345173259e-03,3.309761047478539941e-01
2.275000000000000000e+01,3.794952371672758451e-01,5.079265849506023889e-01,1.000220211957083688e-01,-1.729769990255005940e-01,1.271197763105871847e-01,5.641136016234896922e-06,1.130240580447212885e-03,5.987144966217438323e-03,-2.109193447403976851e+00,1.147945611017189144e-02,-8.990392975207074644e-03,3.309811820839779206e-01
2.300000000000000000e+01,3.576016545544060676e-01,5.233691904072427237e-01,1.000227402375776370e-01,-1.773399272412337080e-01,1.198717549107139319e-01,5.640168299608167224e-06,1.300243022344650190e-03,7.783009255500321875e-03,-2.067819433638910631e+00,1.171643927928945478e-02,-7.388642677432628175e-03,3.309838593721779465e-01
2.325000000000000000e+01,3.351073299547204787e-01,5.377779709288773580e-01,1.000233509753572364e-01,-1.824907209656403406e-01,1.106634824233169445e-01,3.837078637554834934e-06,1.347407336037758719e-03,9.324149532213955524e-03,-2.026446124421190209e+00,9.513861946280559312e-03,-4.549945563603072750e-03,3.309821316653240308e-01
2.350000000000000000e+01,3.119449343738271985e-01,5.509238991381245620e-01,1.000236030085447647e-01,-1.879269997005950377e-01,9.980316651775039682e-02,4.610191208973651990e-08,1.273804033302183619e-03,1.031746880471221157e-02,-1.985074443086157769e+00,5.224787519946598631e-03,-1.201994938301473260e-03,3.309761867060153628e-01
2.375000000000000000e+01,2.881150806341082338e-01,5.626390863202490600e-01,1.000233073093616948e-01,-1.930879969843042054e-01,8.793486764958277635e-02,-4.617105508012325481e-06,1.104153348360928074e-03,1.057577558437663122e-02,-1.943704709618544024e+00,-3.221755328377325523e-04,1.876866232987855175e-03,3.309683046235792903e-01
2.400000000000000000e+01,2.636851944194978370e-01,5.728514244719887794e-01,1.000224750899520176e-01,-1.974834014181100772e-01,7.591361069902981262e-02,-8.245728025577226704e-06,8.808158367458464007e-04,1.005801241883558586e-02,-1.902336454509578667e+00,-5.955057782706415018e-03,4.027836001149641930e-03,3.309614616763106310e-01
2.425000000000000000e+01,2.387735610977698153e-01,5.815996828726692769e-01,1.000213464995583224e-01,-2.007979175809604111e-01,6.462436071048688335e-02,-9.276110039208716225e-06,6.555390592188099904e-04,8.883199119743497713e-03,-1.860968702390496610e+00,-1.039887122032510762e-02,4.862290974775883290e-03,3.309575986290280714e-01
2.450000000000000000e+01,2.135232264973715155e-01,5.890243110246375924e-01,1.000202779639595557e-01,-2.029473647462495811e-01,5.478233488238288401e-02,-7.472885027656514123e-06,4.792268268405326420e-04,7.311084999254875705e-03,-1.819600523023509719e+00,-1.257601596196439124e-02,4.349372238574593895e-03,3.309567654578629559e-01
2.475000000000000000e+01,1.880727963084232457e-01,5.953346176009616242e-01,1.000195586714854451e-01,-2.040733308077848918e-01,4.676181598084658969e-02,-4.022784632998234252e-06,3.915599780856666404e-04,5.690276146518063495e-03,-1.778231460721752422e+00,-1.188848681235203653e-02,2.809617646097759859e-03,3.309576976627257028e-01
2.500000000000000000e+01,1.625317988002774328e-01,6.007588699542349975e-01,1.000192825514287925e-01,-2.044793728255768772e-01,4.049813986726347875e-02,-6.426823730587638773e-07,4.125719678441636226e-04,4.383514792603252809e-03,-1.736861559476206462e+00,-8.398120536881917633e-03,8.110953718700173766e-04,3.309592469776423962e-01
2.525000000000000000e+01,1.369668326838331673e-01,6.054885595868603199e-01,1.000193605309294548e-01,-2.045279018377489932e-01,3.549188369351105599e-02,1.601485080015339048e-06,5.380901950773654685e-04,3.686905696944048783e-03,-1.695491031364074752e+00,-2.843183488686016561e-03,-1.003852169046340684e-03,3.309613955431594534e-01
2.550000000000000000e+01,1.114015361981315205e-01,6.096301366175858050e-01,1.000196463564730909e-01,-2.045279845998155543e-01,3.091885923223447463e-02,2.819890599694587540e-06,7.402495155082092606e-04,3.762828840160037640e-03,-1.654119905561905357e+00,3.526057758277948220e-03,-2.109073017483184542e-03,3.309649630919038188e-01
2.575000000000000000e+01,8.582938930315608950e-02,6.131761249951704906e-01,1.000200600666716622e-01,-2.046464730965099343e-01,2.582120385645521668e-02,3.784497812464954216e-06,9.731888945410305984e-04,4.603772752273068390e-03,-1.612747995074474083e+00,9.255764857320799080e-03,-2.242898517505010746e-03,3.309702992217407602e-01
2.600000000000000000e+01,6.023471259007567163e-02,6.160028720832332327e-01,1.000206046464301723e-01,-2.048671265194244029e-01,1.933211993799381287e-02,4.901040488582082393e-06,1.182811616964502249e-03,6.036680797468642334e-03,-1.571375219136469381e+00,1.305721352849052545e-02,-1.468147672795488533e-03,3.309762117115054303e-01
2.625000000000000000e+01,3.461507555893592741e-02,6.178954574476139827e-01,1.000212740289781188e-01,-2.050070872124851729e-01,1.087697544989259940e-02,5.633586830220953228e-06,1.318448314928498269e-03,7.766591936547244043e-03,-1.530001978701383880e+00,1.412946963301576174e-02,-1.274946387207007560e-04,3.309802315730006050e-01
2.650000000000000000e+01,8.998313207152762797e-03,6.185933816970583532e-01,1.000219516639798412e-01,-2.047822426240076543e-01,3.001371081896339176e-04,4.910622714566925147e-06,1.343717794173029337e-03,9.447603455242111967e-03,-1.488629205009287082e+00,1.234252983354241009e-02,1.286318902467835975e-03,3.309801534689643665e-01
2.675000000000000000e+01,-1.655059665982649628e-02,6.178455793015134034e-01,1.000224070591373970e-01,-2.038985937936175497e-01,-1.211179088352272622e-02,2.136254655510172318e-06,1.244026212669919074e-03,1.076206120885322796e-02,-1.447257962148868371e+00,8.233180362140548117e-03,2.297837534523149323e-03,3.309756494458758191e-01
2.700000000000000000e+01,-4.193417331189718683e-02,6.154614725718050572e-01,1.000224086161204395e-01,-2.021403871305449962e-01,-2.571067930950377348e-02,-2.101473846880274238e-06,1.028980749506381090e-03,1.148777505114101025e-02,-1.405888857720480889e+00,2.827316791240336996e-03,2.596873394705675239e-03,3.309686530328739273e-01
2.725000000000000000e+01,-6.703642593061312493e-02,6.113465616520505908e-01,1.000218685595333917e-01,-1.994290055066728629e-01,-3.964472318429856923e-02,-6.234402787550931431e-06,7.293012038265991696e-04,1.153807536018252103e-02,-1.364521680360061051e+00,-2.644791681566712425e-03,2.122266386296466426e-03,3.309622090547039153e-01
2.750000000000000000e+01,-9.174142832264009506e-02,6.055156398086044556e-01,1.000209094652541597e-01,-1.958375075460301040e-01,-5.304945497999158377e-02,-8.646337010792028233e-06,3.892109455731284457e-04,1.096840240906721102e-02,-1.323155511335711632e+00,-7.050068882151788729e-03,1.063047946263018153e-03,3.309586716445503396e-01
2.775000000000000000e+01,-1.159507240226545222e-01,5.980825773592444161e-01,1.000198064285420518e-01,-1.915599001319048533e-01,-6.522469553788466656e-02,-8.596316021789392100e-06,5.635855019007730637e-05,9.952381416603274175e-03,-1.281789211549708929e+00,-9.590853852237663998e-03,-2.129182715274703858e-04,3.309585233076596800e-01
2.800000000000000000e+01,-1.395945547033319301e-01,5.892310252405055238e-01,1.000188512779752320e-01,-1.868469562849527921e-01,-7.575959417519753658e-02,-6.498414980069571084e-06,-2.282404203135804052e-04,8.736937098225039389e-03,-1.240421948861347934e+00,-9.933754701773970033e-03,-1.273407205620769381e-03,3.309604835382028987e-01
2.825000000000000000e+01,-1.626339509929201621e-01,5.791740721645759482e-01,1.000182307769418300e-01,-1.819282711696717791e-01,-8.458484697583673606e-02,-3.479953644855181523e-06,-4.380171548609877665e-04,7.588481295369798284e-03,-1.199053460889445422e+00,-8.223202228183346119e-03,-1.744518793211163876e-03,3.309625998354858156e-01
2.850000000000000000e+01,-1.850533704290040771e-01,5.681123060883436215e-01,1.000179852156184851e-01,-1.769421587352238423e-01,-9.194948300935697205e-02,-6.398241331389018412e-07,-5.649863328072811516e-04,6.741022786475629573e-03,-1.157683975479718574e+00,-5.003283898339817327e-03,-1.412630415466454648e-03,3.309634434441225403e-01
2.875000000000000000e+01,-2.068461042511978432e-01,5.561990430620491477e-01,1.000180496331462138e-01,-1.718917683529422591e-01,-9.833451126075067050e-02,1.465259477688240569e-06,-6.197653269391373157e-04,6.353920437194430712e-03,-1.116313938164376518e+00,-1.082727662644856646e-03,-2.874444815818632355e-04,3.309626685451524386e-01
2.900000000000000000e+01,-2.279965725151526790e-01,5.435192802999930795e-01,1.000183279426262728e-01,-1.666392222345353669e-01,-1.043251884187130635e-01,2.836978583539158949e-06,-6.279092424494140149e-04,6.483833819803155527e-03,-1.074943770624166461e+00,2.625861180325638269e-03,1.382482618020759767e-03,3.309607784813212716e-01
2.925000000000000000e+01,-2.484645803739527481e-01,5.300858818149223328e-01,1.000187408551271723e-01,-1.609413400695479945e-01,-1.104680309429375007e-01,3.657466933566303291e-06,-6.235668905841809315e-04,7.073294307173350060e-03,-1.033573790799851233e+00,5.270734988839377577e-03,3.144240499713285477e-03,3.309584961515931179e-01
2.950000000000000000e+01,-2.681764917753390876e-01,5.158531695183830035e-01,1.000192196427445862e-01,-1.545218013313194305e-01,-1.171392730767150669e-01,3.869265101024313116e-06,-6.417183503026630681e-04,7.957210275120595727e-03,-9.922042612737510536e-01,6.214287744653622381e-03,4.423446185616691437e-03,3.309563168733299365e-01
2.975000000000000000e+01,-2.870270845827764261e-01,5.007448716078228834e-01,1.000196649391502518e-01,-1.471662262368992891e-01,-1.244492442643991420e-01,3.072281522197785047e-06,-7.102941499563252296e-04,8.887697870805965489e-03,-9.508354237354900151e-01,5.158662247692940434e-03,4.647928295655539069e-03,3.309545745377859838e-01
3.000000000000000000e+01,-3.048936880803124194e-01,4.846906142272694451e-01,1.000199219701728426e-01,-1.388196644885287268e-01,-1.322020964105394825e-01,8.684873380781322730e-07,-8.434133826603039397e-04,9.575827084360605604e-03,-9.094674001672637953e-01,2.221874803111976212e-03,3.394347479965947878e-03,3.309538698491936715e-01
3.025000000000000000e+01,-3.216613411297996050e-01,4.676632238146483656e-01,1.000198177587571652e-01,-1.296619970264157040e-01,-1.399218089790437158e-01,-2.562924598571635570e-06,-1.036862666403314849e-03,9.745717369963541668e-03,-8.680999817670682628e-01,-2.059541516664698240e-03,5.274408974969186942e-04,3.309553270272190262e-01
3.050000000000000000e+01,-3.372546491818397829e-01,4.497084882684055374e-01,1.000192599786401820e-01,-1.201377216400430353e-01,-1.469433271137845221e-01,-6.131858101313828305e-06,-1.266735697703710948e-03,9.192569824201994241e-03,-8.267324834475119344e-01,-6.816663025849341480e-03,-3.706524554250900487e-03,3.309601750256916941e-01
3.075000000000000000e+01,-3.516694758994562409e-01,4.309600734186986859e-01,1.000183380623443363e-01,-1.109238018104355267e-01,-1.525535615816411283e-01,-8.155023108919885643e-06,-1.491787776369218541e-03,7.833234306989461312e-03,-7.853638805603510020e-01,-1.101771744875367810e-02,-8.667466707404532927e-03,3.309686671004584135e-01
3.100000000000000000e+01,-3.649963554478495853e-01,4.116350665099490214e-01,1.000173405941575389e-01,-1.028322862097785367e-01,-1.561540927624583130e-01,-7.304955904792509931e-06,-1.659488164587050998e-03,5.737422255948486198e-03,-7.439932916899302251e-01,-1.368976191260613470e-02,-1.340893415242128649e-02,3.309790490583536804e-01
3.125000000000000000e+01,-3.774281350951683711e-01,3.920097034771092281e-01,1.000166417533363689e-01,-9.666064143724148461e-02,-1.574098207276388717e-01,-3.625121335435802922e-06,-1.715030569547319446e-03,3.130502935450341605e-03,-7.026205947442906163e-01,-1.414133742430902056e-02,-1.685758815060250243e-02,3.309875900793562420e-01
3.150000000000000000e+01,-3.892469944339887467e-01,3.723793546870042825e-01,1.000164999808199340e-01,-9.301798980287320773e-02,-1.563485303377754043e-01,1.175005457894434151e-06,-1.611848472463642355e-03,3.644023998503693389e-04,-6.612467605339359400e-01,-1.213057122986862385e-02,-1.805083053364402862e-02,3.309901924038081700e-01
3.175000000000000000e+01,-4.007902291984750121e-01,3.530106879662578412e-01,1.000168922264276922e-01,-9.216541114447941718e-02,-1.533859472154371073e-01,4.554294398429514280e-06,-1.321682844259745469e-03,-2.140134512762361784e-03,-6.198735549143523649e-01,-7.935653884355839405e-03,-1.638083132376563084e-02,3.309849712136341271e-01
3.200000000000000000e+01,-4.123991614052116561e-01,3.340961030036156409e-01,1.000175088281731739e-01,-9.391013726363063585e-02,-1.492671874478146421e-01,4.718060094318211710e-06,-8.421289751007970210e-04,-3.970388766372971202e-03,-5.785026249473677051e-01,-2.307736523155658019e-03,-1.178652838631196777e-02,3.309742017138038728e-01
3.225000000000000000e+01,-4.243601105516358052e-01,3.157204379200328481e-01,1.000179389027331806e-01,-9.758566044564624675e-02,-1.449346559844773286e-01,1.901779210413245689e-06,-1.999086904779968791e-04,-4.803351997833772181e-03,-5.371344393698318509e-01,3.687139011377201132e-03,-4.839640515510152015e-03,3.309640114787603671e-01
3.250000000000000000e+01,-4.368493716928477655e-01,2.978475182181354874e-01,1.000179399303220140e-01,-1.021331479611889137e-01,-1.413500210673528379e-01,-1.639884256032561665e-06,5.511730216248439135e-04,-4.475473353775369888e-03,-4.957677701330264752e-01,8.905183645152841415e-03,3.313093118148860514e-03,3.309614233014044338e-01
3.275000000000000000e+01,-4.498946352449151309e-01,2.803298173701446738e-01,1.000176070475084777e-01,-1.062766263506694786e-01,-1.393098151818129848e-01,-3.110197496660365639e-06,1.337643041704287931e-03,-3.024094523058346810e-03,-4.544001628330497367e-01,1.238855201012880464e-02,1.116063878869361266e-02,3.309701826462724261e-01
3.300000000000000000e+01,-4.633627353590069609e-01,2.629392501133543947e-01,1.000173091038153994e-01,-1.087597182522550832e-01,-1.392973150658723125e-01,-1.176465948608513357e-06,2.078098872796088452e-03,-6.882126302463684436e-04,-4.130292375002013183e-01,1.359108728219626111e-02,1.716145687428672489e-02,3.309879675474821092e-01
3.325000000000000000e+01,-4.769782043025481699e-01,2.454121544522116782e-01,1.000174205887917334e-01,-1.085916200711117136e-01,-1.414059541839183254e-01,2.971706784050880323e-06,2.697177034053815578e-03,2.135899101487916726e-03,-3.716540746068926482e-01,1.250347054794020800e-02,2.012771301379179603e-02,3.310070431182441930e-01
3.350000000000000000e+01,-4.903698649203562243e-01,2.274981392457519347e-01,1.000180374145701462e-01,-1.052414434513918029e-01,-1.453522064582223605e-01,6.404092933841234907e-06,3.138903067486105425e-03,4.977683029564667662e-03,-3.302758146530769823e-01,9.635555219109631989e-03,1.955382332446308977e-02,3.310182796210764389e-01
3.375000000000000000e+01,-5.031354252559052664e-01,2.090017217470862276e-01,1.000188891771285477e-01,-9.872827509581671990e-02,-1.505722492772162135e-01,6.561099768718248960e-06,3.376399977063683413e-03,7.395632609443621511e-03,-2.888970819923866729e-01,5.853133228573183765e-03,1.577729674102492166e-02,3.310161106966087452e-01
3.400000000000000000e+01,-5.149089587999865492e-01,1.898079436601996517e-01,1.000195153211841798e-01,-8.958010570929712812e-02,-1.563733551759024787e-01,3.074433635155323276e-06,3.415548659705339857e-03,9.074218937986903641e-03,-2.475206194083271749e-01,2.115653807909803185e-03,9.897026237948814906e-03,3.310012770646965086e-01
3.425000000000000000e+01,-5.254151521189828200e-01,1.698878889045822571e-01,1.000195678587780523e-01,-7.867230088140240996e-02,-1.620957952315412454e-01,-2.109250301325887771e-06,3.291577655454974542e-03,9.886746249047851862e-03,-2.061480128328514738e-01,-7.991221502632159159e-04,3.452770525498073412e-03,3.309797779870808920e-01
3.450000000000000000e+01,-5.344980191196447850e-01,1.492857776392902958e-01,1.000190127354537162e-01,-6.699353187398797427e-02,-1.672401275194017045e-01,-6.273344577081927526e-06,3.059392182728647939e-03,9.905326572216576961e-03,-1.647792286434542897e-01,-2.488952192071004939e-03,-2.037909177718282873e-03,3.309591334423078179e-01
3.475000000000000000e+01,-5.421194623910413624e-01,1.280941682192258402e-01,1.000181019616902950e-01,-5.540993744090698392e-02,-1.715290882782398441e-01,-7.762805783512001707e-06,2.780198982684415395e-03,9.355819253900382951e-03,-1.234130483548889906e-01,-2.975777397999389284e-03,-5.525239114208644643e-03,3.309446738669543642e-01
3.500000000000000000e+01,-5.483320905895084918e-01,1.064261340016672830e-01,1.000171794572025513e-01,-4.449682064861165687e-02,-1.748976294501749795e-01,-6.694177170163958669e-06,2.508052221161391048e-03,8.534126802549994728e-03,-8.204791357855026335e-02,-2.604669378049556932e-03,-6.694093455697110173e-03,3.309379686885581262e-01
3.525000000000000000e+01,-5.532378869573139069e-01,8.439244536668957797e-02,1.000164898748660824e-01,-3.448081721265684740e-02,-1.774292864682999737e-01,-4.322447855037403239e-06,2.279905257322387829e-03,7.713342748344673323e-03,-4.068260119826766497e-02,-1.849205379048378655e-03,-5.957412549294710882e-03,3.309375553253698365e-01
3.550000000000000000e+01,-5.569470924228629993e-01,6.208839831716368718e-02,1.000161078629980826e-01,-2.529403021146593711e-02,-1.792721808901528990e-01,-1.949177802408153898e-06,2.111544689833350086e-03,7.073431270771002657e-03,6.835282750787801537e-04,-1.113577842598975328e-03,-4.190719432245468452e-03,3.309406814593600643e-01
