time_total,x,y,z,vx,vy,vz,roll,pitch,yaw,roll_rate,pitch_rate,yaw_rate
-03,9.990819359614733219e-02,4.973419454701532433e-02,-1.709670198906969030e-01,3.610297596956294451e-04,-2.789392286725866921e-03,-7.287445360125891598e-04,3.037501491650584917e+00,2.040535732509111272e-02,-4.562171109186739792e-02,-3.488310620947450147e-01
2.500000000000000000e-01,5.087841854856930413e-01,-1.357570430981703408e-02,9.994718733893792617e-02,4.669235045516752919e-02,-1.748400933261072265e-01,2.720159155477162708e-04,-6.011145657276808357e-03,4.703882705802728270e-03,2.993849035648609380e+00,1.701800573697639929e-02,-4.542356656410944521e-02,-3.493817254467304623e-01
5.000000000000000000e-01,5.140353295884677598e-01,-3.581089775017932270e-02,9.997660620728826553e-02,3.654913650668626529e-02,-1.809135828415392722e-01,2.019789303287268533e-04,-8.095771327222649888e-03,9.620174639490802759e-03,2.950150111241175210e+00,2.311057214754142029e-03,-3.679923091230851567e-02,-3.495284540157741482e-01
7.500000000000000000e-01,5.176209609970274794e-01,-5.882192747564129326e-02,9.999757130008854467e-02,2.053377886570827149e-02,-1.868208835470067941e-01,1.367668147950558324e-04,-8.220006141506171551e-03,1.344754784574431553e-02,2.906457581509038768e+00,-1.187531180985502803e-02,-2.332787522956755039e-02,-3.495245102110913771e-01
1.000000000000000000e+00,5.189361056425823016e-01,-8.243049590268719529e-02,1.000110168743143929e-01,7.365526271592969529e-04,-1.902518361872453934e-01,8.257977698561562766e-05,-6.783472864689314534e-03,1.585190887968971826e-02,2.862791672238857998e+00,-1.823671587721361828e-02,-8.513846845922609999e-03,-3.494722144456597346e-01
1.250000000000000000e+00,5.176618665459761237e-01,-1.062403411595929520e-01,1.000186514668350152e-01,-2.045425954833414786e-02,-1.901020602948000904e-01,4.328505743706685172e-05,-4.732132273115164170e-03,1.665973163041938043e-02,2.819144838145281717e+00,-1.561052865605564929e-02,5.040717128064021307e-03,-3.494187423013965232e-01
1.500000000000000000e+00,5.137711834945480893e-01,-1.298115141557133201e-01,1.000222513339741742e-01,-4.081700177480208219e-02,-1.866970424640901349e-01,1.722554633163010454e-05,-2.908909711516245982e-03,1.587177026033994784e-02,2.775500198459002643e+00,-7.223989555292382493e-03,1.566901191713688385e-02,-3.493778067027596967e-01
1.750000000000000000e+00,5.074860940526302322e-01,-1.528141958613740969e-01,1.000233774724737096e-01,-5.861242186645505836e-02,-1.813299359555617107e-01,3.256724269983187071e-06,-1.725154802523298694e-03,1.372071119628854273e-02,2.731847701380381022e+00,2.264127215732183746e-03,2.234771736259004785e-02,-3.493490549573537995e-01
2.000000000000000000e+00,4.992042652992829677e-01,-1.751041255067949109e-01,1.000235057818798373e-01,-7.276903455162496426e-02,-1.755509811937449038e-01,5.536768868276800431e-07,-1.172780773828327808e-03,1.068863580551289959e-02,2.688187227042265537e+00,9.148898621757122276e-03,2.452672979632710207e-02,-3.493314261324654835e-01
2.250000000000000000e+00,4.894093649885866704e-01,-1.967139402939792614e-01,1.000238289814416870e-01,-8.296209575969953898e-02,-1.705749154505465381e-01,5.170304722075420923e-06,-1.025382496251419761e-03,7.433657703778799759e-03,2.644522754122486052e+00,1.173222704027676935e-02,2.221255493210766083e-02,-3.493245974485177929e-01
2.500000000000000000e+00,4.785782843292295530e-01,-2.177884915846103053e-01,1.000248596617367564e-01,-8.958688560716146498e-02,-1.669795031087706327e-01,1.081796181068391280e-05,-1.048968740340780600e-03,4.637509685649259319e-03,2.600857012093991116e+00,1.019264228718826451e-02,1.614538638640921134e-02,-3.493264357235427719e-01
2.750000000000000000e+00,4.670991240053479765e-01,-2.385016990682981841e-01,1.000264034593640605e-01,-9.361605130619166104e-02,-1.646905235404547141e-01,1.311296060069624232e-05,-1.114249854179530591e-03,2.832431578774596229e-03,2.557190549729096762e+00,5.853379894445511281e-03,7.819755549396876365e-03,-3.493336055428782339e-01
3.000000000000000000e+00,4.552142150230659712e-01,-2.589848262290804781e-01,1.000279934385624458e-01,-9.634963489752688959e-02,-1.631535563793185539e-01,1.198003274649858271e-05,-1.197635098848988952e-03,2.274349620916368397e-03,2.513523011346817881e+00,4.018899863647270925e-04,-7.903092371728193599e-04,-3.493438209312310638e-01
3.250000000000000000e+00,4.429990180832454882e-01,-2.792820421148151100e-01,1.000293576925868899e-01,-9.910383804608201286e-02,-1.615793512290075729e-01,9.993248205088117413e-06,-1.320495758903047915e-03,2.904392847808819240e-03,2.469853958869588251e+00,-4.646859206614184674e-03,-7.742532170883910207e-03,-3.493558378365553274e-01
3.500000000000000000e+00,4.303798272713669770e-01,-2.993367402842105895e-01,1.000305321948953691e-01,-1.029148072927907331e-01,-1.591805610934002302e-01,9.033804251354137781e-06,-1.488015146475020348e-03,4.401805953545928803e-03,2.426183096197798594e+00,-8.207249317435874256e-03,-1.166710977976389077e-02,-3.493675356267030851e-01
3.750000000000000000e+00,4.171831773588801084e-01,-3.190043414390037468e-01,1.000316394575247736e-01,-1.083359413861323395e-01,-1.553558337773972842e-01,8.653524282631665525e-06,-1.664416419886691765e-03,6.298748542243825209e-03,2.382510652550434482e+00,-9.693559181046574463e-03,-1.211162779763353195e-02,-3.493753200826523186e-01
4.000000000000000000e+00,4.032016545722778011e-01,-3.380836607722924603e-01,1.000326421497375190e-01,-1.153778375345766161e-01,-1.498035747776972626e-01,7.118703984070465701e-06,-1.787232031924342220e-03,8.112989302923001925e-03,2.338837731808342646e+00,-9.002340785572904638e-03,-9.565200706295039212e-03,-3.493760901856799994e-01
4.250000000000000000e+00,3.882576569399985300e-01,-3.563576836819208338e-01,1.000333175420714121e-01,-1.235924974173080448e-01,-1.425612344966663836e-01,3.472269417349807355e-06,-1.800593094476125346e-03,9.458647649600146826e-03,2.295165967378780092e+00,-6.451526817755075423e-03,-5.183985252460421821e-03,-3.493696779350596859e-01
4.500000000000000000e+00,3.722494603463519791e-01,-3.736346217396808722e-01,1.000334361985860676e-01,-1.322588945744581357e-01,-1.339742122939971136e-01,-1.480954655408053710e-06,-1.683482244366004462e-03,1.011100060342188904e-02,2.251496575885663542e+00,-2.677435236450266196e-03,-3.559065814017079365e-04,-3.493591841777403673e-01
4.750000000000000000e+00,3.551711441993934404e-01,-3.897811862786090820e-01,1.000329525868780128e-01,-1.406027217135392970e-01,-1.246073232274769876e-01,-5.854301539938186163e-06,-1.458688011856258465e-03,1.002024398099582783e-02,2.207829637345747553e+00,1.513163440463510812e-03,3.719014209468441811e-03,-3.493489473633116238e-01
5.000000000000000000e+00,3.371064546403300111e-01,-4.047422556664954096e-01,1.000320506357613576e-01,-1.479852960251043237e-01,-1.151211843663917100e-01,-8.071156706140020668e-06,-1.181952946492632319e-03,9.284319270675796959e-03,2.164164191377743851e+00,5.314160873537292912e-03,6.296545422870431993e-03,-3.493420239886941281e-01
5.250000000000000000e+00,3.182034821668642266e-01,-4.185443376383412573e-01,1.000310383206771681e-01,-1.540196200199671350e-01,-1.061415560090471083e-01,-7.750062004948535816e-06,-9.203492556744209728e-04,8.099057524285661544e-03,2.120498953013202570e+00,8.070987265844578942e-03,7.154592166350471141e-03,-3.493390558640770971e-01
5.500000000000000000e+00,2.986402837702379909e-01,-4.312837024757332216e-01,1.000301935619921923e-01,-1.586026599949600935e-01,-9.814789865834414040e-02,-5.636373360969517165e-06,-7.311055317730537741e-04,6.704351637595153644e-03,2.076833015991383480e+00,9.372410511061237889e-03,6.495013999922860659e-03,-3.493388755077296293e-01
5.750000000000000000e+00,2.785911665070353038e-01,-4.431028350997531229e-01,1.000296632264039004e-01,-1.618787828762498493e-01,-9.139866965156960565e-02,-2.939065086519006450e-06,-6.484815606963861443e-04,5.339439270556741585e-03,2.033166105761548881e+00,9.074280219732061212e-03,4.767886353551673874e-03,-3.493399051525905574e-01
6.000000000000000000e+00,2.582005037033147654e-01,-4.541603233934525807e-01,1.000294510309645141e-01,-1.641620858650870429e-01,-8.589982012665331457e-02,-6.568826851714394573e-07,-6.805884176226637558e-04,4.211849626235407429e-03,1.989498391157182633e+00,7.279577918797536067e-03,2.504560336492040688e-03,-3.493412406089112521e-01
6.250000000000000000e+00,2.375674057468099287e-01,-4.645995407470976390e-01,1.000294701156947685e-01,-1.658448241532770040e-01,-8.141499730748541497e-02,7.660378338633071732e-07,-8.136346371364174468e-04,3.477104798389930949e-03,1.945830132758679332e+00,4.310829663134767113e-03,2.068065892174277497e-04,-3.493429187753214760e-01
6.500000000000000000e+00,2.167416518439844175e-01,-4.745210758224149838e-01,1.000296145522985153e-01,-1.673110269525839855e-01,-7.751337654568182800e-02,1.423206116825444979e-06,-1.019471462239636850e-03,3.223250052460460875e-03,1.902161434374251670e+00,6.915757319509763289e-04,-1.709336754153072124e-03,-3.493454856060511649e-01
6.750000000000000000e+00,1.957294725087261600e-01,-4.839633679900722241e-01,1.000298113721569404e-01,-1.688660254886364120e-01,-7.365134451109171809e-02,1.682524380522873982e-06,-1.263154606125092448e-03,3.456885167368074514e-03,1.858492211983062248e+00,-2.882066335573711148e-03,-2.945491248155116849e-03,-3.493492564962127900e-01
7.000000000000000000e+00,1.745067521792526555e-01,-4.928954552781194542e-01,1.000300317800633942e-01,-1.706884401037891130e-01,-6.928226500359543905e-02,1.827121059640318681e-06,-1.509144033812751667e-03,4.093574444305130879e-03,1.814822347671070757e+00,-5.620863970728205532e-03,-3.355295525646178386e-03,-3.493536994706904486e-01
7.250000000000000000e+00,1.530364561277853530e-01,-5.012245864034714504e-01,1.000302613399067508e-01,-1.728106727056831493e-01,-6.398089178588765857e-02,1.790872656235788133e-06,-1.726320189822679865e-03,4.960935412140005801e-03,1.771151904835859492e+00,-6.800314262361458958e-03,-2.980447095929922643e-03,-3.493573216540393211e-01
7.500000000000000000e+00,1.312863584090706581e-01,-5.088190373478598261e-01,1.000304547931898658e-01,-1.751330721121642786e-01,-5.755748890988637151e-02,1.195786201989102898e-06,-1.892458815446114136e-03,5.823084965417857709e-03,1.727481249888015435e+00,-5.977436220351029124e-03,-2.060886537954053320e-03,-3.493582425208239250e-01
7.750000000000000000e+00,1.093265168422702383e-01,-5.155329802085931723e-01,1.000335447199513922e-01,-1.740516567702949657e-01,-4.973757737356664793e-02,8.356571830892102818e-05,1.115456785771306095e-02,6.148137777199199662e-03,1.706393318280040372e+00,-2.963404717294169932e-02,2.417871755259130839e-01,7.427652835719919522e-02
8.000000000000000000e+00,8.922532639315763903e-02,-5.210330219737191459e-01,1.000782227659025858e-01,-1.413917738848070871e-01,-3.774772219195329792e-02,6.550308747999592732e-04,4.690513377089139402e-02,4.679656287982547451e-03,1.731524268397890642e+00,-2.470307430754981742e-02,2.770269917137044846e-01,2.747138081065933490e-01
8.250000000000000000e+00,7.588568438448514697e-02,-5.246841085131984661e-01,1.001666898966325631e-01,-6.929370607476144361e-02,-2.051818687401539207e-02,5.367742590047607345e-04,7.155278182360273742e-02,1.434914399187787017e-03,1.770097621632204188e+00,8.367794497429238004e-03,1.080231114354834598e-01,3.280796572304956471e-01
8.500000000000000000e+00,7.290977297480560892e-02,-5.259957587212921171e-01,1.001689416034904218e-01,1.885236233977728021e-02,-1.185329500775181028e-03,-4.936523241835541562e-04,7.126201115771513273e-02,-2.023978883277088685e-03,1.812263461417885413e+00,4.506961810685217867e-02,-8.542690728685869983e-02,3.429507789109781934e-01
8.750000000000000000e+00,8.040740642715674125e-02,-5.250335314102788642e-01,1.000667650745731829e-01,9.468491721056884747e-02,1.515453415364085427e-02,-9.456285043131381317e-04,5.151141028200123539e-02,-3.896331163383939030e-03,1.855531203977939914e+00,6.167514622342558372e-02,-1.890569316302067315e-01,3.473120265751016844e-01
9.000000000000000000e+00,9.563681015132922958e-02,-5.224259196661794613e-01,9.997134998970057251e-02,1.422852469254138885e-01,2.506597813685450607e-02,-5.087642785094035648e-04,2.624696210599966259e-02,-3.539279875189494436e-03,1.899148463402200449e+00,5.101376759604394490e-02,-1.824385821905074034e-01,3.487050139978306595e-01
9.250000000000000000e+00,1.149438298078800658e-01,-5.190040775457145372e-01,9.994374398940793214e-02,1.620476392349014805e-01,2.871825485932444008e-02,2.136646037188288683e-06,7.347068558658436353e-03,-1.614743473683924848e-03,1.942827745097785330e+00,2.260187010637265681e-02,-1.087955318345128625e-01,3.492364614709130843e-01
9.500000000000000000e+00,1.354786772425410624e-01,-5.153694744772563396e-01,9.995784760871337382e-02,1.646569527028894364e-01,2.923501566140299796e-02,1.652131533268272464e-04,-4.977047967393222671e-04,6.929138883848297552e-04,1.986502637707212582e+00,-7.029058000468987183e-03,-2.712563735382647959e-02,3.494246187375746882e-01
9.750000000000000000e+00,1.559089961258926516e-01,-5.116562359669145632e-01,9.997777506909281964e-02,1.623063299995268771e-01,3.055288803440196418e-02,1.444242468837398632e-04,6.717530260213146372e-04,2.551294188195386749e-03,2.030185834503923203e+00,-2.506289097451855005e-02,2.272715322519236122e-02,3.494417018103254668e-01
1.000000000000000000e+01,1.761711763038852629e-01,-5.075673853193398699e-01,9.999379472332245444e-02,1.626211216216009448e-01,3.541936546536286062e-02,1.154045181001615091e-04,5.646769407254756228e-03,3.855498620592709338e-03,2.073880602320706146e+00,-2.790687165676567980e-02,3.174326935240434633e-02,3.494164582327639046e-01
1.025000000000000000e+01,1.967556942231943884e-01,-5.025922672091466259e-01,1.000065608785618843e-01,1.671437138782785325e-01,4.454459744791072068e-02,8.769117960467317271e-05,9.749322032306100005e-03,5.012597003316676507e-03,2.117574939874559803e+00,-1.995505231537437335e-02,1.369808300056324195e-02,3.494108768684687782e-01
1.050000000000000000e+01,2.180477800050658055e-01,-4.962482576700475989e-01,1.000150766317588757e-01,1.732781522296339971e-01,5.695929745161425195e-02,4.945240038303336168e-05,1.079591124686297456e-02,6.447386118256424013e-03,2.161257665907385217e+00,-8.625470127941100087e-03,-1.050671016270343476e-02,3.494250941939611166e-01
1.075000000000000000e+01,2.400103987809111827e-01,-4.882307286891544584e-01,1.000192579039405200e-01,1.773958588399034142e-01,7.097998601284666309e-02,2.184074609067691153e-05,9.077191715563646610e-03,8.218933513611210301e-03,2.204924163747802979e+00,3.765724645482926140e-04,-2.544329364396354445e-02,3.494440350011721597e-01
1.100000000000000000e+01,2.622214658554573585e-01,-4.784420628948799492e-01,1.000213209627497934e-01,1.771904112255260344e-01,8.508371887884060014e-02,1.388942011633700823e-05,6.168016362065958068e-03,9.956496610162882469e-03,2.248578992015044964e+00,5.155318490196545561e-03,-2.606042708175944356e-02,3.494556045787474141e-01
1.125000000000000000e+01,2.841083613494804205e-01,-4.669403471964609365e-01,1.000229519803636780e-01,1.724988654842219415e-01,9.830584672685435677e-02,1.197581387268935194e-05,3.618400157335421082e-03,1.108029333371970265e-02,2.292233821195171384e+00,6.898997543780081322e-03,-1.580405007691425626e-02,3.494488791493911561e-01
1.150000000000000000e+01,3.051955816417692424e-01,-4.538698306573988317e-01,1.000241015972666292e-01,1.648330992207118206e-01,1.101800930704276565e-01,5.883480774049290126e-06,2.207213286385123052e-03,1.112263641953268808e-02,2.335897454125337003e+00,7.751431574862277171e-03,-1.688723424316921490e-03,3.494197159880715331e-01
1.175000000000000000e+01,3.252491952122369967e-01,-4.394146791911870409e-01,1.000243454887028149e-01,1.563451802333224172e-01,1.204828683425493985e-01,-1.332631731388740658e-06,1.887245338421633884e-03,9.959300194416535745e-03,2.379568750575062452e+00,8.976099846712329994e-03,1.012407233344864328e-02,3.493774433595299156e-01
1.200000000000000000e+01,3.442930535043848828e-01,-4.237823574589255626e-01,1.000239534850330403e-01,1.488936894932743060e-01,1.290465540101490560e-01,-3.853235892539524392e-06,2.160351381585995465e-03,7.855420978403445179e-03,2.423240732232496697e+00,1.035385308904466194e-02,1.647593315468245251e-02,3.493392420652496888e-01
1.225000000000000000e+01,3.625348491078004831e-01,-4.071988622030583427e-01,1.000235985061431188e-01,1.435451765206892938e-01,1.357537518409712707e-01,-1.328062073295090183e-06,2.518257034121698830e-03,5.344070747105739497e-03,2.466908927597559753e+00,1.074984241476916597e-02,1.715417384102050150e-02,3.493176614891716492e-01
1.250000000000000000e+01,3.802594151706552017e-01,-3.898953108713226756e-01,1.000236913654430349e-01,1.405141874006664293e-01,1.406579518166865272e-01,2.582678337627795348e-06,2.701956511993917030e-03,3.025640278055117573e-03,2.510574063925183896e+00,9.155055089633103507e-03,1.367878184101598005e-02,3.493145303078242780e-01
1.275000000000000000e+01,3.977337849430943595e-01,-3.720785165827320551e-01,1.000241796728126714e-01,1.393683955975177635e-01,1.440963662749980834e-01,4.743639593049876414e-06,2.723847042885143514e-03,1.383475327236510354e-03,2.554238985744786916e+00,5.455756689656789983e-03,8.024418919374973896e-03,3.493245670042300355e-01
1.300000000000000000e+01,4.151445438146618150e-01,-3.538942052541002581e-01,1.000247858153077984e-01,1.393112650962397281e-01,1.466871747979500706e-01,4.673778546793358097e-06,2.737984610366915161e-03,6.751257840172014734e-04,2.597905628517259480e+00,5.478935205307265211e-04,1.864094770635289474e-03,3.493418110545268851e-01
1.325000000000000000e+01,4.325689476909741482e-01,-3.353996424945431820e-01,1.000253121024113484e-01,1.394296678866278616e-01,1.491908053456237337e-01,3.783778042537139017e-06,2.885858810430454342e-03,9.114822609346056540e-04,2.641574770044164300e+00,-4.127193793149178634e-03,-3.628888806545440063e-03,3.493622885605177641e-01
1.350000000000000000e+01,4.499727435342368853e-01,-3.165592833169182385e-01,1.000257547481766401e-01,1.388755815768955848e-01,1.522978260568541575e-01,3.456482966147432971e-06,3.207090641540858746e-03,1.902439648603391825e-03,2.685246844176331749e+00,-7.264001959313313647e-03,-7.683587959600286788e-03,3.493827224779682550e-01
1.375000000000000000e+01,4.672270259538429116e-01,-2.972664137287125974e-01,1.000262054429695985e-01,1.369939218440250073e-01,1.564402298870611885e-01,3.790003020601833082e-06,3.637119983691913805e-03,3.335899458524253531e-03,2.728921927132114345e+00,-8.211516574784215317e-03,-9.813920764980037931e-03,3.493990254585630506e-01
1.400000000000000000e+01,4.841384346436865549e-01,-2.773825158871225383e-01,1.000266896927510113e-01,1.334106212793610136e-01,1.617019638571147166e-01,3.807656183800120413e-06,4.062011146560390480e-03,4.861899652522406155e-03,2.772599160538817387e+00,-7.124959214229849291e-03,-9.808369462600654773e-03,3.494069973051522338e-01
1.425000000000000000e+01,5.004877549324932007e-01,-2.567798590892262922e-01,1.000271013796920905e-01,1.280786574621259610e-01,1.678517084196405051e-01,2.578175079546958885e-06,4.383311329516786231e-03,6.165082801746607152e-03,2.816276744929243403e+00,-4.767627535721585992e-03,-7.798670800776123097e-03,3.494044058393264152e-01
1.450000000000000000e+01,5.160708277178313041e-01,-2.353734888405716041e-01,1.000272730415495692e-01,1.212684463260658568e-01,1.744683752135653687e-01,1.001983327314212829e-07,4.558157632927694811e-03,7.018257829272828326e-03,2.859952746321492434e+00,-2.127631764177452707e-03,-4.306675920829412113e-03,3.493922962565588208e-01
1.475000000000000000e+01,5.307341075849816292e-01,-2.131346719544360280e-01,1.000271019844139048e-01,1.134936848624351069e-01,1.811005733810125140e-01,-2.692087120421278079e-06,4.604074761684102610e-03,7.314598722016142467e-03,2.903625996186912861e+00,-4.457184688717853954e-05,-1.885024863916013444e-04,3.493744956437156435e-01
1.500000000000000000e+01,5.443971263129070426e-01,-1.900854735582316879e-01,1.000266274485557411e-01,1.053809586937940884e-01,1.874014292040687424e-01,-4.609715457360982306e-06,4.577848855399362267e-03,7.077557230420240125e-03,2.947296403771793472e+00,1.020780262091825668e-03,3.536404048274880123e-03,3.493559493697091511e-01
1.525000000000000000e+01,5.570564241838380504e-01,-1.662802437855610826e-01,1.000260112183736366e-01,9.751036647341931873e-02,1.932014170590751478e-01,-4.964586328507001982e-06,4.545788456847637236e-03,6.448687377068548950e-03,2.990964663377856603e+00,1.036309342050287415e-03,5.919782228614591836e-03,3.493411315993856237e-01
1.550000000000000000e+01,5.687697227712003034e-01,-1.417826348975244344e-01,1.000254481821413327e-01,9.026497779341299821e-02,1.985101135115477644e-01,-3.891596004638618422e-06,4.559705621852546721e-03,5.655942762736841309e-03,3.034631791857837158e+00,3.072633581874629821e-04,6.304614854594745715e-03,3.493332570903688317e-01
1.575000000000000000e+01,5.796238406252851583e-01,-1.166463146078949992e-01,1.000250742010221489e-01,8.372495375742999846e-02,2.034609164400468240e-01,-2.100535392550614298e-06,4.644897481495860805e-03,4.968135377310796581e-03,3.078298859471225946e+00,-6.833531251063732197e-04,4.468198704184738780e-03,3.493342113055766807e-01
1.600000000000000000e+01,5.896936247253327101e-01,-9.090487939876851220e-02,1.000249301699238230e-01,7.763002044821341874e-02,2.082249190903589509e-01,-3.005158094094908631e-07,4.799109500412471196e-03,4.643390735207422564e-03,3.121966946321322656e+00,-1.437104030604800841e-03,6.651462017441077791e-04,3.493446688028032932e-01
1.625000000000000000e+01,5.990010019335206826e-01,-6.457301983139583645e-02,1.000327035060020880e-01,7.141570875991566647e-02,2.129202709245681946e-01,5.570837687224780804e-05,4.999605581728749221e-03,4.878239606571593660e-03,-3.116931901981975006e+00,-1.593115692299882117e-03,-4.394258987536394517e-03,3.427000363397509908e-01
1.650000000000000000e+01,6.074836270063278532e-01,-3.765787464671229573e-02,1.000336946103594499e-01,6.432993255693021661e-02,2.175491173771588183e-01,-1.227225646632969027e-05,5.205260017931406975e-03,5.769288508228835773e-03,-3.073711109234692263e+00,-8.870639224790387951e-04,-9.762300143496795840e-03,3.476095383478309264e-01
1.675000000000000000e+01,6.149808529600795381e-01,-1.017596956563213140e-02,1.000319532172380260e-01,5.557885287713128231e-02,2.219560688991450981e-01,-1.268007507929260485e-05,5.368309504187287334e-03,7.284147595488800128e-03,-3.030155442204358174e+00,5.459774263385470472e-04,-1.420035680513984100e-02,3.489409386483400821e-01
1.700000000000000000e+01,6.212402288642596693e-01,1.782671932089345546e-02,1.000307648607482447e-01,4.451615847980058133e-02,2.258397191997217612e-01,-6.545397261706960125e-06,5.444983431215241060e-03,9.246707043676253429e-03,-2.986508584483899664e+00,2.397266749535282258e-03,-1.656672285268208367e-02,3.493106507584811116e-01
1.725000000000000000e+01,6.259480054339436883e-01,4.626042683405668515e-02,1.000302550523395340e-01,3.082292735925506316e-02,2.288163511716105047e-01,-2.290202442268361502e-06,5.398369943267884025e-03,1.135676859496677869e-02,-2.942837282521371556e+00,4.149786666716274997e-03,-1.601280701298071762e-02,3.494123787275417170e-01
1.750000000000000000e+01,6.287790101666870246e-01,7.498702510083056494e-02,1.000300378927340694e-01,1.463530062976060690e-02,2.305133646067678843e-01,-1.925336645353108832e-06,5.206322061716259914e-03,1.323512370421117690e-02,-2.899161550394779852e+00,5.195389544662007246e-03,-1.223580572505542086e-02,3.494287628991041839e-01
1.775000000000000000e+01,6.294572757515513040e-01,1.038285563862619137e-01,1.000295867287939455e-01,-3.414136478250759214e-03,2.306804681632527720e-01,-5.800551463618132250e-06,4.868655185374821774e-03,1.449595551096620472e-02,-2.855488620837809410e+00,5.011050782831632383e-03,-5.657924623372207959e-03,3.494104246814541126e-01
1.800000000000000000e+01,6.278147167028703679e-01,1.325891652167789092e-01,1.000284546474063674e-01,-2.226788473630224655e-02,2.292875874720140261e-01,-1.228587571612501357e-05,4.411489064414186867e-03,1.483538287172040879e-02,-2.811821136586245551e+00,3.357681007099867516e-03,2.554137163798242058e-03,3.493770764746841895e-01
1.825000000000000000e+01,6.238333340419037754e-01,1.610865246330744627e-01,1.000265215579531214e-01,-4.062932377608872297e-02,2.265749459815492306e-01,-1.800571807875296483e-05,3.886427782889493275e-03,1.411589760981367056e-02,-2.768158951907682575e+00,4.329502196401241020e-04,1.068216502364168104e-02,3.493420261627026013e-01
1.850000000000000000e+01,6.176583512614211013e-01,1.891848885095967214e-01,1.000241162600853939e-01,-5.723125727786377431e-02,2.230282848924645400e-01,-1.952990974270120094e-05,3.363351003885420298e-03,1.242238832528310549e-02,-2.724500040567872983e+00,-3.092920882471921797e-03,1.684335631816340217e-02,3.493151176758077514e-01
1.875000000000000000e+01,6.095756345841041313e-01,2.168196629648346252e-01,1.000218769016154585e-01,-7.112610349205823745e-02,2.192715091432163588e-01,-1.558458864613660391e-05,2.917411285121067777e-03,1.006954556998152644e-02,-2.680841747023493316e+00,-6.197954927513905400e-03,1.947532315588995644e-02,3.493011651372586734e-01
1.900000000000000000e+01,5.999555317327232018e-01,2.440040895411331179e-01,1.000203981350970273e-01,-8.192215305678110515e-02,2.158952850813716795e-01,-8.010980169857045296e-06,2.612737309219601706e-03,7.552239566837998935e-03,-2.637182012922758112e+00,-7.771500691129047851e-03,1.777686315112097723e-02,3.493000260099760057e-01
1.925000000000000000e+01,5.891744501223584729e-01,2.708125939854327813e-01,1.000199040971203462e-01,-8.989811866460907519e-02,2.132645188267605629e-01,-4.403306982843724825e-07,2.486656794448555835e-03,5.446109566938796449e-03,-2.593519853167244094e+00,-6.951258481286774413e-03,1.196739458410106711e-02,3.493092732270021705e-01
1.950000000000000000e+01,5.775322748301764397e-01,2.973417458499035826e-01,1.000201981665295864e-01,-9.595734803879106545e-02,2.113611594699817409e-01,4.458804755990642275e-06,2.538521307182822328e-03,4.279912729430999409e-03,-2.549854893476807050e+00,-3.432698830826406023e-03,3.280502786447959951e-03,3.493271666588114166e-01
1.975000000000000000e+01,5.651859108225486539e-01,3.236568110786640085e-01,1.000209280988757776e-01,-1.014251628235045694e-01,2.097155773992339101e-01,6.899009650001730907e-06,2.726351273711075194e-03,4.409925311193004828e-03,-2.506186606946334106e+00,2.351632937595886982e-03,-6.315234505584291745e-03,3.493530965302863445e-01
2.000000000000000000e+01,5.521159836152393918e-01,3.497373791057021841e-01,1.000219322269597366e-01,-1.077354559531167599e-01,2.074593275623845268e-01,9.298490501579158938e-06,2.972773065267635215e-03,5.927614491989329805e-03,-2.462514199161722761e+00,9.253118680937739635e-03,-1.459684982442720214e-02,3.493850304237812177e-01
2.025000000000000000e+01,5.381357902269143789e-01,3.754376233565414056e-01,1.000233441735701029e-01,-1.160836214123351084e-01,2.034994566295600105e-01,1.344714100857622811e-05,3.179533995436880506e-03,8.624685536823065157e-03,-2.418837509617248305e+00,1.564184190551492354e-02,-1.964053524134186032e-02,3.494166462167597742e-01
2.050000000000000000e+01,5.229410484914821522e-01,4.004744489490802972e-01,1.000253330890288339e-01,-1.271331986684388626e-01,1.967789116422077877e-01,1.798890495839025882e-05,3.247766203686554623e-03,1.202606814406570121e-02,-2.375158248635039104e+00,1.980354237961328562e-02,-2.029810522176048182e-02,3.494377837248384688e-01
2.075000000000000000e+01,5.061886995922399990e-01,4.244504231184434428e-01,1.000276911251369444e-01,-1.408501251731369419e-01,1.865598381938792238e-01,1.867292483319197595e-05,3.099631689910526539e-03,1.548473617434298344e-02,-2.331480304683205773e+00,2.039399108923224332e-02,-1.646758638146617049e-02,3.494393521522365931e-01
2.100000000000000000e+01,4.875857842237367734e-01,4.469095615772366026e-01,1.000296569970653138e-01,-1.565048786683500281e-01,1.726554889370724433e-01,1.156506068894046253e-05,2.696430228699012079e-03,1.831681204276624023e-02,-2.287808365332657523e+00,1.682256251985423529e-02,-9.088301661881507953e-03,3.494197459405703476e-01
2.125000000000000000e+01,4.669671803629676932e-01,4.674151668385793101e-01,1.000302085959186987e-01,-1.728386886977201498e-01,1.555461286047876146e-01,-3.226102756939590098e-06,2.048884020753575456e-03,1.994540683153767438e-02,-2.244145406149441691e+00,9.452021335744850011e-03,1.299187206988935473e-04,3.493877105268998196e-01
2.150000000000000000e+01,4.443442677336299496e-01,4.856325003616313585e-01,1.000286788030040896e-01,-1.883480141018267773e-01,1.363425777622266355e-01,-2.044505918004683401e-05,1.217026975032952339e-03,2.001979898487821902e-02,-2.200490670466742404e+00,-4.475505163393021617e-04,9.159131820035804061e-03,3.493586237778515402e-01
2.175000000000000000e+01,4.199143241232336510e-01,5.013969926913875996e-01,1.000252597947609845e-01,-2.016132573599802302e-01,1.166001467733232960e-01,-3.239061578899877852e-05,2.995478418303982476e-04,1.848329352198380127e-02,-2.156839649041053963e+00,-1.098179982346709528e-02,1.615626364089131975e-02,3.493459922500972703e-01
2.200000000000000000e+01,3.940304154770435940e-01,5.147516156005892407e-01,1.000210094138220956e-01,-2.115904551813674039e-01,9.802462325344107885e-02,-3.360699402250948945e-05,-5.850165751771997571e-04,1.557635800467641746e-02,-2.113186264403950965e+00,-2.007555566661081356e-02,1.988024902155922230e-02,3.493537328178730195e-01
2.225000000000000000e+01,3.671409618075789916e-01,5.259442028936293090e-01,1.000173261387602569e-01,-2.177993655964589603e-01,8.213968436436573650e-02,-2.419242110454546140e-05,-1.320872637811730359e-03,1.177748133164277858e-02,-2.069525943892816855e+00,-2.595790981085320179e-02,1.992220571164074819e-02,3.493744221013748152e-01
2.250000000000000000e+01,3.397145990397668625e-01,5.353849743509317971e-01,1.000152360777721711e-01,-2.203724799072472318e-01,6.999409291628938545e-02,-9.451979251781986429e-06,-1.816204903355857431e-03,7.698208865368651524e-03,-2.025857683193927006e+00,-2.756429696285587691e-02,1.670866265425845210e-02,3.493944855803179372e-01
2.275000000000000000e+01,3.121679721938170893e-01,5.435737709454301347e-01,1.000149484577120690e-01,-2.199670766755581486e-01,6.197552308403786459e-02,3.635432086837304442e-06,-2.018553370883190232e-03,3.957745430719902813e-03,-1.982183954179357999e+00,-2.475779080004910856e-02,1.130240785414059548e-02,3.494025876761355232e-01
2.300000000000000000e+01,2.848115892890108469e-01,5.510131901421050360e-01,1.000159203607395575e-01,-2.175756552520180520e-01,5.776981280345568071e-02,1.049688365619721662e-05,-1.921568064274816173e-03,1.065191047746718092e-03,-1.938508769855990632e+00,-1.831931542641059354e-02,5.074248832987932924e-03,3.493956968213804415e-01
2.325000000000000000e+01,2.578229570906747092e-01,5.581263268913958520e-01,1.000173136611216540e-01,-2.142906939386981791e-01,5.646764423015050716e-02,1.089865621172759539e-05,-1.562561950989477776e-03,-6.657435119393287099e-04,-1.894835309388214428e+00,-9.713551512792446482e-03,-6.571288041626411952e-04,3.493793996360874954e-01
2.350000000000000000e+01,2.312487826687738834e-01,5.651956837446420190e-01,1.000184964943449800e-01,-2.110838275867156499e-01,5.678448743945602867e-02,7.883240587031986637e-06,-1.012288450743370006e-03,-1.152961568793620150e-03,-1.851164543062219225e+00,-6.955298885814237882e-04,-4.921720762351042625e-03,3.493631573927800105e-01
2.375000000000000000e+01,2.050311184321525204e-01,5.723337012796337886e-01,1.000192813184591356e-01,-2.086478785943261249e-01,5.733341167184088233e-02,5.019923049820865628e-06,-3.597953634785390899e-04,-5.286603346135905490e-04,-1.807495418322280001e+00,7.130647100075515957e-03,-7.260883060332758848e-03,3.493542848582406601e-01
2.400000000000000000e+01,1.790476722349426397e-01,5.794870266588924013e-01,1.000198297943278025e-01,-2.073272410585858816e-01,5.688141650928110749e-02,4.142650965895325744e-06,3.041130721120394371e-04,9.224265855496589523e-04,-1.763826111259220619e+00,1.267229485470393845e-02,-7.729254405430740701e-03,3.493545296642942555e-01
2.425000000000000000e+01,1.531550537965324643e-01,5.864684893484553019e-01,1.000203863660846793e-01,-2.071352648323697698e-01,5.453115070280486337e-02,4.898062371017928867e-06,9.013624786007195556e-04,2.848669724676632358e-03,-1.720155338744492779e+00,1.552369107612910915e-02,-6.759527029365697791e-03,3.493606588229254406e-01
2.450000000000000000e+01,1.272254360817137164e-01,5.930051537050814447e-01,1.000210645215339200e-01,-2.078347918741033640e-01,4.979776042294662558e-02,5.826480577384529440e-06,1.376394817176166113e-03,4.915093099708901445e-03,-1.676482972023222828e+00,1.591585069925514559e-02,-4.954867756569669712e-03,3.493676060894231883e-01
2.475000000000000000e+01,1.011709733817355156e-01,5.987892819085138818e-01,1.000218005323112030e-01,-2.090464493938752333e-01,4.258553253026748503e-02,5.728797226995928630e-06,1.699957179646816507e-03,6.861738024357407623e-03,-1.632809837969206201e+00,1.448011096798590587e-02,-2.890032565948972860e-03,3.493715536543586797e-01
2.500000000000000000e+01,7.495475705157260415e-02,6.035216480224641078e-01,1.000224373000805217e-01,-2.103511706974890150e-01,3.309848581185444866e-02,4.306040848040208538e-06,1.867210602042818166e-03,8.524223545489503437e-03,-1.589137102248653566e+00,1.193145610840910635e-02,-9.868057611758676659e-04,3.493712044401414696e-01
2.525000000000000000e+01,4.859054879239515373e-02,6.069419918305456463e-01,1.000228301148185367e-01,-2.113660280390550206e-01,2.173263567288483480e-02,1.950585499472630861e-06,1.891923732596144771e-03,9.818298562554244116e-03,-1.545465713884968562e+00,8.802118384905440254e-03,5.110369239696165066e-04,3.493672408216664804e-01
2.550000000000000000e+01,2.213506970103196192e-02,6.088471533925731149e-01,1.000228986651993113e-01,-2.117891310968096630e-01,8.991227901233708394e-03,-7.880770231429091760e-07,1.799330743011320032e-03,1.070311479450111215e-02,-1.501796151710830918e+00,5.326446466833875681e-03,1.485157815159008623e-03,3.493610876619252514e-01
2.575000000000000000e+01,-4.323758199262664123e-03,6.091012744949113600e-01,1.000226216916134392e-01,-2.114223370593003859e-01,-4.557951678022224493e-03,-3.531521598193270241e-06,1.620125576566288673e-03,1.114431545686841649e-02,-1.458128433900247156e+00,1.505816187857459722e-03,1.866045851123635749e-03,3.493540486594412520e-01
2.600000000000000000e+01,-3.068068452250703043e-02,6.076430744448052534e-01,1.000220148078960342e-01,-2.101846318487411713e-01,-1.829119613030213629e-02,-6.032519149030617865e-06,1.387085880603828713e-03,1.109547534853456800e-02,-1.414462231703535355e+00,-2.698751936681750927e-03,1.587832766685782094e-03,3.493471311262154599e-01
2.625000000000000000e+01,-5.682854113433904314e-02,6.044928048430200374e-01,1.000211285451511750e-01,-2.081239131372366324e-01,-3.153108885751439161e-02,-7.944982367866190549e-06,1.134370552054950795e-03,1.050657686261718959e-02,-1.370796979156649220e+00,-7.150490133776376059e-03,6.039591863224751849e-04,3.493411976626535353e-01
2.650000000000000000e+01,-8.267494633728716957e-02,5.997575869693184680e-01,1.000200707882668572e-01,-2.054247669416071898e-01,-4.357402414474279007e-02,-8.709613966013196411e-06,8.982086024434660478e-04,9.355678971787902837e-03,-1.327131983716124175e+00,-1.140461364890358112e-02,-1.045323632972575958e-03,3.493369427975674402e-01
2.675000000000000000e+01,-1.081591427946554940e-01,5.936305177792605692e-01,1.000190232287433284e-01,-2.024010378116552489e-01,-5.376241070379172982e-02,-7.770519966772711077e-06,7.170338662313482112e-04,7.689717300235653606e-03,-1.283466598999338570e+00,-1.472737036356309981e-02,-3.154450645023945329e-03,3.493345630251332712e-01
2.700000000000000000e+01,-1.332661864949473696e-01,5.863779191910658550e-01,1.000182108241963880e-01,-1.994599075982014247e-01,-6.159812835541442905e-02,-5.062049072664142557e-06,6.293784231140191806e-04,5.655813784249934945e-03,-1.239800461731737968e+00,-1.627149912810980231e-02,-5.315524674670467353e-03,3.493334998521617774e-01
2.725000000000000000e+01,-1.580343868364820215e-01,5.783111064561839987e-01,1.000178126291843272e-01,-1.970308831957584828e-01,-6.687014939986904438e-02,-1.380590861852430615e-06,6.688916532299590736e-04,3.506679798115455195e-03,-1.196133663547734427e+00,-1.535141187308989262e-02,-6.962286975600392828e-03,3.493328016544375303e-01
2.750000000000000000e+01,-1.825518929058707329e-01,5.697435334600119416e-01,1.000178597990882545e-01,-1.954665174301357666e-01,-6.975432597408955104e-02,1.822168205876322358e-06,8.572583271942770542e-04,1.571774576098885134e-03,-1.152466659929140214e+00,-1.171978511695027925e-02,-7.501635315615590507e-03,3.493321947203771871e-01
2.775000000000000000e+01,-2.069401493263683944e-01,5.609395803093855104e-01,1.000182043421341677e-01,-1.949364657326862760e-01,-7.084362085757581196e-02,3.301876531456711470e-06,1.196982860113324394e-03,1.974147891655546859e-04,-1.108799841480184067e+00,-5.738724437406094586e-03,-6.498424701524801832e-03,3.493331365331241445e-01
2.800000000000000000e+01,-2.313253411765605339e-01,5.520655449131074421e-01,1.000186102792840759e-01,-1.953458715793045253e-01,-7.108371524652176698e-02,2.975359237976911653e-06,1.666525399728476745e-03,-3.294815637335582730e-04,-1.065132979147997982e+00,1.631146745973324763e-03,-3.847618095702026297e-03,3.493387048041932119e-01
2.825000000000000000e+01,-2.558028638573359159e-01,5.431547878283997655e-01,1.000189226579014656e-01,-1.963077525113395838e-01,-7.161714139672235857e-02,2.112801278321374567e-06,2.219917733042898154e-03,1.480126300088702054e-04,-1.021464977617894343e+00,9.036934583105254992e-03,1.378249970654314802e-04,3.493517957224978043e-01
2.850000000000000000e+01,-2.804028211222323042e-01,5.340966085419854847e-01,1.000191874843415069e-01,-1.971858385942629743e-01,-7.356905011253658810e-02,2.418065548679902914e-06,2.791855293359573383e-03,1.613810746854607700e-03,-9.777942731883304539e-01,1.507372621365080448e-02,4.767658859657338509e-03,3.493725187894256567e-01
2.875000000000000000e+01,-3.050652999062576920e-01,5.246528272453080399e-01,1.000196139912307158e-01,-1.972033426591029981e-01,-7.782803644179245306e-02,4.616952391686038028e-06,3.307704822592675252e-03,3.877020144715005723e-03,-9.341197771084768231e-01,1.864436791498764664e-02,9.137862726719696640e-03,3.493967045678903482e-01
2.900000000000000000e+01,-3.296322185186286169e-01,5.144989966740051157e-01,1.000203914444997705e-01,-1.955924237567820967e-01,-8.487802591262359753e-02,7.701462786884189085e-06,3.696375487326739734e-03,6.611638056818424508e-03,-8.904418038099309873e-01,1.921828678844927571e-02,1.236180451886745475e-02,3.494169860923083126e-01
2.925000000000000000e+01,-3.538584742262265714e-01,5.032810331153438899e-01,1.000214951309406908e-01,-1.917467867771764090e-01,-9.472118510838208050e-02,9.492209438030654203e-06,3.903069262882370282e-03,9.424908376561701162e-03,-8.467623338807308553e-01,1.691310781425484425e-02,1.378966784756367747e-02,3.494261327568861653e-01
2.950000000000000000e+01,-3.774403118638942622e-01,4.906747896536394760e-01,1.000226303354483925e-01,-1.853402744968029314e-01,-1.069039843395029471e-01,8.101351037327101469e-06,3.898887593257205266e-03,1.193401714799867397e-02,-8.030843594173889821e-01,1.239418754999602537e-02,1.314778615010629530e-02,3.494206341568724117e-01
2.975000000000000000e+01,-4.000548629987133453e-01,4.764364760031980506e-01,1.000233581754069317e-01,-1.763861741856403986e-01,-1.206299483155655744e-01,3.195946734783680903e-06,3.685151369409152798e-03,1.383122678622418153e-02,-7.594106525158458298e-01,6.650675692978555605e-03,1.056684603766211254e-02,3.494023394455317844e-01
3.000000000000000000e+01,-4.214027624486424983e-01,4.604352756229027066e-01,1.000233168542018075e-01,-1.652296165094969682e-01,-1.349231718958696091e-01,-3.780101604043074930e-06,3.291773367602119325e-03,1.492450786936516151e-02,-7.157426425438251361e-01,7.366266890823430433e-04,6.511326982198793224e-03,3.493773328688319357e-01
3.025000000000000000e+01,-4.412459074676863824e-01,4.426645118821727065e-01,1.000223989158010307e-01,-1.524819759978868761e-01,-1.488010485192320653e-01,-1.042671898478387805e-05,2.770575887438338041e-03,1.515035323093464475e-02,-6.720799668301639107e-01,-4.443979877730546042e-03,1.651834402556018712e-03,3.493529800844508704e-01
3.050000000000000000e+01,-4.594342908854835983e-01,4.232325765456285693e-01,1.000207927262701246e-01,-1.389166295854527000e-01,-1.614214369461928755e-01,-1.459311795078578673e-05,2.185556154526573352e-03,1.456355803343372009e-02,-6.284208208831056908e-01,-8.265442728855714946e-03,-3.272576540911949043e-03,3.493349337363292895e-01
3.075000000000000000e+01,-4.759185269118159090e-01,4.023383349061727121e-01,1.000188887861978987e-01,-1.253484659739625140e-01,-1.721831641909175314e-01,-1.525134821372579995e-05,1.602473622556395850e-03,1.331266984059153828e-02,-5.847628113233370728e-01,-1.041979320087577099e-02,-7.570247215025855195e-03,3.493254974268258373e-01
3.100000000000000000e+01,-4.907473710962779734e-01,3.802374163759815184e-01,1.000171188338166289e-01,-1.125171208560888092e-01,-1.807730332439918541e-01,-1.270421053264176122e-05,1.079782460167252010e-03,1.160930924881661656e-02,-5.411038457413552827e-01,-1.089249966770110441e-02,-1.068156527060182617e-02,3.493237128491503141e-01
3.125000000000000000e+01,-5.040517441243782537e-01,3.572059174681501692e-01,1.000158087663201439e-01,-1.009893467035190007e-01,-1.871631306900697345e-01,-8.215414217530071049e-06,6.621345652359964494e-04,9.696471991164766491e-03,-4.974426944452602362e-01,-9.905358968895251748e-03,-1.223844054655057363e-02,3.493266578603274053e-01
3.150000000000000000e+01,-5.160184115760789725e-01,3.335071438227087404e-01,1.000150991739189449e-01,-9.109169052019255863e-02,-1.915681176298634214e-01,-3.362112170278615670e-06,3.768170041405119832e-04,7.817803149983879388e-03,-4.537790931199719435e-01,-7.847747964613332322e-03,-1.210614067657789401e-02,3.493311061153932529e-01
3.175000000000000000e+01,-5.268576446639682276e-01,3.093656242670956291e-01,1.000149476700581130e-01,-8.288126847613645765e-02,-1.943746354171905777e-01,5.819597730380664829e-07,2.328742499775915983e-04,6.188496209797941967e-03,-4.101134738482188347e-01,-5.203800858424708665e-03,-1.040610466331675157e-02,3.493348160504098909e-01
3.200000000000000000e+01,-5.367699374499594889e-01,2.849510441974352215e-01,1.000151938613466351e-01,-7.615881011231340203e-02,-1.960559191074982555e-01,3.013071022725027296e-06,2.224154982471348793e-04,4.969191798647253772e-03,-3.664465338517610138e-01,-2.475613468444539441e-03,-7.508382667036423569e-03,3.493370455245085049e-01
3.225000000000000000e+01,-5.459170620600600765e-01,2.603730688358753542e-01,1.000156479919154656e-01,-7.052292863126995159e-02,-1.970852877023143990e-01,4.016654767098069414e-06,3.236287944260069242e-04,4.245999640579767483e-03,-3.227788625089500485e-01,-1.044083572758208197e-04,-3.980005532838858974e-03,3.493382637196226770e-01
3.250000000000000000e+01,-5.544021677100383627e-01,2.356863107844239247e-01,1.000161613807598326e-01,-6.545742438062186752e-02,-1.978621153185930737e-01,4.087572803883606312e-06,5.051134340331322027e-04,4.020988771370396023e-03,-2.791107693770778497e-01,1.600764570247480059e-03,-4.844705122670177333e-04,3.493393654875150411e-01
3.275000000000000000e+01,-5.622620982643895537e-01,2.109030882118954064e-01,1.000166521468175973e-01,-6.043566590802802035e-02,-1.986620805168015091e-01,3.737369692411362142e-06,7.311235982357012922e-04,4.216952975857884457e-03,-2.354423308546609583e-01,2.510591244137442418e-03,2.355247764412012838e-03,3.493408832173242051e-01
3.300000000000000000e+01,-5.694726992975477353e-01,1.860104037240673802e-01,1.000170875474529764e-01,-5.502030548807021471e-02,-1.996190400062555215e-01,3.224614968770711986e-06,9.671385311410252410e-04,4.697696968531089000e-03,-1.917735590612757723e-01,2.683503650033575855e-03,4.100513395864065561e-03,3.493426327236885953e-01
3.325000000000000000e+01,-5.759650344366884500e-01,1.609870813212626872e-01,1.000174490796650467e-01,-4.893544781286134071e-02,-2.007389736303118455e-01,2.548127159293132009e-06,1.184930384445702324e-03,5.301166260311410833e-03,-1.481045510390956998e-01,2.326953876838113063e-03,4.607270118537423916e-03,3.493439280739129571e-01
3.350000000000000000e+01,-5.816478369647526403e-01,1.358174513141431894e-01,1.000177116802322130e-01,-4.209359979303319704e-02,-2.019386004250801059e-01,1.646578854392294617e-06,1.366170480432272408e-03,5.878474928479840607e-03,-1.044355212227966317e-01,1.719207528522812044e-03,4.061425706210598265e-03,3.493441322406831695e-01
