time_total,x,y,z,vx,vy,vz,roll,pitch,yaw,roll_rate,pitch_rate,yaw_rate
6e-01,9.990733099560571151e-02,1.388739033348730390e-01,-3.724389612792489840e-02,3.812705950171095992e-04,-2.522769497027038568e-04,9.464258235414264170e-03,1.288622253960499675e+00,-9.375036369463081443e-03,1.598739945660328926e-02,2.995192107879229848e-01
2.500000000000000000e-01,-1.687683945193934609e-01,-4.614109689854843377e-01,9.994707020451482071e-02,1.419576628995315726e-01,-2.526905980048749570e-02,2.646705513640319036e-04,1.504481575620063337e-03,1.077009520859649808e-02,1.326076844937000399e+00,-3.715409169806035364e-03,1.424470755437043032e-02,2.994679525590400737e-01
5.000000000000000000e-01,-1.507301949735553315e-01,-4.637538977767947102e-01,9.997431387815006176e-02,1.466519788937144242e-01,-1.259261554772532141e-02,1.781663815931659755e-04,2.540448415000911946e-03,1.109882284248500488e-02,1.363518568309810330e+00,2.328052698591494708e-03,2.729772956220511727e-03,2.994222579887637625e-01
7.500000000000000000e-01,-1.320867326796486552e-01,-4.645145212205383789e-01,9.999225595661742627e-02,1.513259750360803624e-01,-1.101431823912407204e-04,1.148522612101125854e-04,2.228577939864247008e-03,1.030370398643458418e-02,1.400941585838394898e+00,9.144242652169794205e-03,-8.945987635750296887e-03,2.994045948836446813e-01
1.000000000000000000e+00,-1.129557220243646298e-01,-4.637841304491511218e-01,1.000037699757946874e-01,1.542833868767452266e-01,1.112303975634826129e-02,7.434716395157871119e-05,9.163755725463381199e-04,8.521047967955722863e-03,1.438355362822035133e+00,1.547332737261225208e-02,-1.464496111358308192e-02,2.994171232484310052e-01
1.250000000000000000e+00,-9.361607532124796571e-02,-4.617869237136107419e-01,1.000114831715332442e-01,1.547066181189473977e-01,2.008413593501650121e-02,5.218415042758535303e-05,-6.300619078656546261e-04,6.111161959217169606e-03,1.475772834034626557e+00,1.932197960114042518e-02,-1.330911905932794480e-02,2.994445723495481881e-01
1.500000000000000000e+00,-7.437818934865614295e-02,-4.588551706062263813e-01,1.000171566475861890e-01,1.528475963324112397e-01,2.610920390985855405e-02,3.999173724299715058e-05,-1.758217857358216826e-03,3.564515146194658247e-03,1.513199430079629648e+00,1.916888963731913642e-02,-7.574113721005960170e-03,2.994674414064558698e-01
1.750000000000000000e+00,-5.547082357253286383e-02,-4.553660584408280587e-01,1.000215737845724234e-01,1.496458720709827050e-01,2.915140205807553037e-02,3.121546069713765684e-05,-2.196516620208620926e-03,1.390782374083568721e-03,1.550632332468573571e+00,1.477235059465752814e-02,-1.203802295131395578e-03,2.994750473685101610e-01
2.000000000000000000e+00,-3.699233584801708136e-02,-4.516586194264294862e-01,1.000249554850248246e-01,1.461519984937302286e-01,2.983461706822570017e-02,2.324537282968487510e-05,-2.038639092480587067e-03,3.478714510269722556e-06,1.588066459961742227e+00,7.297474554450524530e-03,3.016330679660650903e-03,2.994687836651382384e-01
2.250000000000000000e+00,-1.892807209553264494e-02,-4.479590183439889350e-01,1.000273901370687113e-01,1.430824061387667157e-01,2.927912316023373665e-02,1.617743172098311830e-05,-1.567280773163072516e-03,-3.785505894114576963e-04,1.625499147895279384e+00,-1.150227809871511627e-03,4.154606399184768498e-03,2.994564824064187558e-01
2.500000000000000000e+00,-1.205879279385447264e-03,-4.443386759056937585e-01,1.000290561215687879e-01,1.406536401933266844e-01,2.877387080352922580e-02,1.104728912298148272e-05,-1.064711193022363587e-03,2.158567576921970445e-04,1.662930372138222479e+00,-8.292175227192589981e-03,2.871956546975852793e-03,2.994453985500510340e-01
2.750000000000000000e+00,1.624495384617777316e-02,-4.407166475410458362e-01,1.000302375435405955e-01,1.386696138228981356e-01,2.941872740300114850e-02,8.310603683687218599e-06,-7.021756141164869165e-04,1.524746097407066354e-03,1.700360853734306676e+00,-1.241938269981745710e-02,5.837185332045765175e-04,2.994388747622538371e-01
3.000000000000000000e+00,3.345559285231732016e-02,-4.369020729893468014e-01,1.000311880717413837e-01,1.367401008206156898e-01,3.185509437462791249e-02,7.047451981096488969e-06,-5.243509249741602329e-04,3.136038855521152899e-03,1.737790926222129384e+00,-1.286738996583263253e-02,-1.376764769479256944e-03,2.994367194807355248e-01
3.250000000000000000e+00,5.040812026222993986e-02,-4.326602410817762534e-01,1.000319849173014336e-01,1.345004775959466325e-01,3.615956876482535887e-02,5.601260696391343404e-06,-4.937151563607152134e-04,4.614034203462282109e-03,1.775220633662694336e+00,-1.011112835546048618e-02,-2.255862463169250754e-03,2.994371840509462701e-01
3.500000000000000000e+00,6.704869058716111940e-02,-4.277803341789264135e-01,1.000325327551002952e-01,1.317489668466889641e-01,4.191474852081845948e-02,3.075621922986039463e-06,-5.472709338283087170e-04,5.627346681503934099e-03,1.812650093736430490e+00,-5.497986072015612069e-03,-1.980359401391238068e-03,2.994387261465691896e-01
3.750000000000000000e+00,8.331092721465277462e-02,-4.221249332637136975e-01,1.000327205613310427e-01,1.284772542454395150e-01,4.841489163377875327e-02,5.529679000000268800e-08,-6.340340489414601592e-04,6.035770359844326409e-03,1.850079545170234319e+00,-7.393592880862288972e-04,-9.787561497561581090e-04,2.994406449535692571e-01
4.000000000000000000e+00,9.913724733634492192e-02,-4.156492825723196449e-01,1.000325701617425928e-01,1.248156164113392724e-01,5.492745706672619993e-02,-2.160545568187722007e-06,-7.259838378593846606e-04,5.909510758208456720e-03,1.887509204131171403e+00,2.660894527458396424e-03,1.122094947776493756e-04,2.994426602134703241e-01
4.250000000000000000e+00,1.144900916761609211e-01,-4.083890596833020803e-01,1.000322403167216018e-01,1.209354812618447100e-01,6.092273048677217945e-02,-2.833988966798581275e-06,-8.120171149568864051e-04,5.479184528033065847e-03,1.924939158307691578e+00,3.858338943049564873e-03,7.267873253268881560e-04,2.994442915439042285e-01
4.500000000000000000e+00,1.293506875606905970e-01,-4.004254084432455341e-01,1.000319147976840017e-01,1.169541671532793176e-01,6.620269166034735420e-02,-2.244955632051902464e-06,-8.884917882751250124e-04,5.038582209590389098e-03,1.962369342600467359e+00,2.868721568450685253e-03,5.646346821232224372e-04,2.994448327967114687e-01
4.750000000000000000e+00,1.437079811350848724e-01,-3.918422440761596404e-01,1.000317031795327355e-01,1.128760943240589149e-01,7.089888045991916965e-02,-1.152931565225493777e-06,-9.546408870550146010e-04,4.835698282841614966e-03,1.999799575309792132e+00,4.777106273273491440e-04,-3.240956798402840500e-04,2.994438731145172006e-01
5.000000000000000000e+00,1.575436510966343462e-01,-3.826917328766411552e-01,1.000316271908410354e-01,1.085886125767244331e-01,7.535340865724922399e-02,-1.407606899217223628e-07,-1.013382301449863290e-03,4.987270413582728205e-03,2.037229641242350731e+00,-2.081761889448311559e-03,-1.560383302565051828e-03,2.994417001384418464e-01
5.250000000000000000e+00,1.708202528496757799e-01,-3.729796352908220647e-01,1.000316545526586803e-01,1.039131306766040846e-01,7.993264059514620934e-02,4.660777685031279937e-07,-1.073252290968416045e-03,5.440231665669199683e-03,2.074659378544822186e+00,-3.557727861270303452e-03,-2.546207496490467213e-03,2.994391977581747355e-01
5.500000000000000000e+00,1.834785829806535873e-01,-3.626747429187416882e-01,1.000317136036341786e-01,9.869656085908899701e-02,8.483914947657358874e-02,3.252919152578218288e-07,-1.147052694971267134e-03,5.986353499880785016e-03,2.112088731479637271e+00,-3.071823418185327080e-03,-2.633413234109761338e-03,2.994375064554443688e-01
5.750000000000000000e+00,1.954476880805187389e-01,-3.517385844143735008e-01,1.000316872227472315e-01,9.291666931937798968e-02,8.998208079725866781e-02,-8.971772749003853312e-07,-1.245850518488986073e-03,6.321033572729044953e-03,2.149517802128111832e+00,-3.715144953820282391e-04,-1.315910262022228347e-03,2.994378430545249770e-01
6.000000000000000000e+00,2.066672199184657888e-01,-3.401653364803382540e-01,1.000314431703803741e-01,8.676945358250688634e-02,9.494435023591055178e-02,-3.024398644515441950e-06,-1.370493256593547163e-03,6.128146651343581615e-03,2.186946940183596588e+00,4.102410588060146496e-03,1.592417657360687853e-03,2.994413820347713862e-01
6.250000000000000000e+00,2.171178627757390789e-01,-3.280189091049163785e-01,1.000309301861060374e-01,8.070789890425229818e-02,9.905627171044163737e-02,-4.949240919464428878e-06,-1.504690411719535569e-03,5.170551419548188518e-03,2.224376781186249374e+00,9.323539152416160034e-03,5.831234769681247800e-03,2.994487356474990758e-01
6.500000000000000000e+00,2.268521735179031273e-01,-3.154548037804599248e-01,1.000302801170339789e-01,7.540943654918924599e-02,1.015576042112122657e-01,-5.016578915060253080e-06,-1.613308805147797322e-03,3.367613502804722974e-03,2.261808037071362687e+00,1.392255496941680049e-02,1.065488263817126330e-02,2.994589514653782647e-01
6.750000000000000000e+00,2.360162049828755937e-01,-3.027180508635639589e-01,1.000298014549342168e-01,7.166379472241990456e-02,1.018087181425413323e-01,-2.280198185040770108e-06,-1.647476599835124211e-03,8.439923886056292356e-04,2.299240974989507968e+00,1.651361837377963299e-02,1.491305692100476990e-02,2.994688089850009449e-01
7.000000000000000000e+00,2.448524725548375802e-01,-2.901143628079020931e-01,1.000298022876996845e-01,7.019265201558660960e-02,9.949884741537906585e-02,2.232182326815817283e-06,-1.555587954661026649e-03,-2.063045836007932048e-03,2.336674871619527583e+00,1.604633095023733427e-02,1.726723424546357938e-02,2.994736141155376896e-01
7.250000000000000000e+00,2.536776833892945837e-01,-2.779584395729431390e-01,1.000303254462601016e-01,7.143474158399917839e-02,9.479653126020634590e-02,5.530373234969158708e-06,-1.297375704727668716e-03,-4.845896893498655850e-03,2.374107986109137869e+00,1.211353084487539443e-02,1.652477147554416367e-02,2.994699212400581123e-01
7.500000000000000000e+00,2.628341656175408603e-01,-2.665097967718023653e-01,1.000310072225006480e-01,7.534931311555025102e-02,8.839594326694656667e-02,4.546559847192962943e-06,-8.573534801094643805e-04,-6.918137294201597530e-03,2.411538407107301385e+00,5.134851579743904097e-03,1.202374832834027761e-02,2.994588721243484075e-01
7.750000000000000000e+00,2.726212635641976356e-01,-2.559110461357846367e-01,1.000312474131214574e-01,8.129961367378230053e-02,8.143378867684944455e-02,-1.107024178977797243e-06,-2.540826436737245479e-04,-7.742373966478251907e-03,2.448965474967445211e+00,-3.655745240401462801e-03,3.956841773890676373e-03,2.994474398124277736e-01
8.000000000000000000e+00,2.832203194225443865e-01,-2.461447804000386486e-01,1.000306573674882987e-01,8.806938683329988693e-02,7.528280334199685675e-02,-7.815365717569447337e-06,4.574006277145795931e-04,-6.967827654337802046e-03,2.486390802205344919e+00,-1.244983110894588157e-02,-6.491378097962085397e-03,2.994454200940532274e-01
8.250000000000000000e+00,2.946318395037753612e-01,-2.370221840754286602e-01,1.000294717517242471e-01,9.403683333587758986e-02,7.126297539216866483e-02,-9.893708486959088951e-06,1.191343948763452006e-03,-4.541912930971827786e-03,2.523817862002509127e+00,-1.929522921374604572e-02,-1.728391106361472709e-02,2.994589385250892577e-01
8.500000000000000000e+00,3.066437946450120688e-01,-2.282093863980715620e-01,1.000285310843685022e-01,9.748704763336468737e-02,7.034003619547192498e-02,-4.051366695538694183e-06,1.844961700574642783e-03,-7.609621960878064839e-04,2.561249983137519504e+00,-2.260849644431727617e-02,-2.595537635765964371e-02,2.994846933706981629e-01
8.750000000000000000e+00,3.188446295267854946e-01,-2.192879478570438079e-01,1.000287211936748272e-01,9.699844580468441890e-02,7.289162231492551935e-02,7.044819798152329462e-06,2.317951932615437520e-03,3.761653525568581929e-03,2.598687899738866935e+00,-2.161591526341371389e-02,-3.022764835622301915e-02,2.995099351987288716e-01
9.000000000000000000e+00,3.306842452679319977e-01,-2.098364227005765636e-01,1.000302280786482534e-01,9.180735513836535411e-02,7.860817451286453150e-02,1.562606097580844359e-05,2.533963155799665457e-03,8.209648396954483118e-03,2.636128687196862330e+00,-1.658058420737244451e-02,-2.864739635139868651e-02,2.995196171476652292e-01
9.250000000000000000e+00,3.415736141100481071e-01,-1.995136593717104778e-01,1.000322191700558638e-01,8.205006540946276072e-02,8.656018599092099586e-02,1.428018578169613241e-05,2.458992243595754367e-03,1.173616347728728346e-02,2.673567177590504329e+00,-8.739103337092022500e-03,-2.105433039640092902e-02,2.995064058040918797e-01
9.500000000000000000e+00,3.510024164165942984e-01,-1.881235197717369134e-01,1.000333024118881253e-01,6.880663824009303209e-02,9.541681262215268022e-02,2.017694333412909350e-06,2.111840717833694207e-03,1.365295117500652834e-02,2.710999131322214151e+00,3.463155837691298585e-05,-8.729989339698370626e-03,2.994761552490743384e-01
9.750000000000000000e+00,3.586475831642850221e-01,-1.756454432013857814e-01,1.000324953650714721e-01,5.391943113840136359e-02,1.037582323409735746e-01,-1.417553012189120101e-05,1.563326373679307414e-03,1.358924319348396928e-02,2.748423955794499829e+00,7.735572930973899121e-03,5.833726684057159891e-03,2.994442611782066055e-01
1.000000000000000000e+01,3.644460290894399601e-01,-1.622243576240334217e-01,1.000299744611791164e-01,3.961820061657285452e-02,1.103986539531693484e-01,-2.404191490711695081e-05,9.235964530870682419e-04,1.158033336922493356e-02,2.785844939226524986e+00,1.275177222675825429e-02,1.949711915819460351e-02,2.994252858842645360e-01
1.025000000000000000e+01,3.686123927643625287e-01,-1.481241717049318063e-01,1.000269978249407749e-01,2.803624519370732926e-02,1.146356760404315250e-01,-2.155136134843337425e-05,3.199836399009096878e-04,8.063838453351448651e-03,2.823266815857630618e+00,1.425525429881221995e-02,2.922063447281757556e-02,2.994236525491121848e-01
1.050000000000000000e+01,3.715954586510191171e-01,-1.336583647397895092e-01,1.000250360144179784e-01,2.073324892762138522e-02,1.163646077904770121e-01,-9.252427118286562293e-06,-1.295030316801264278e-04,3.785072789372730378e-03,2.860692538236864202e+00,1.235522551282737351e-02,3.279924491651950436e-02,2.994323364977659052e-01
1.075000000000000000e+01,3.739817607789313603e-01,-1.191164140385206349e-01,1.000247752606982093e-01,1.834087969307111876e-02,1.160361178125990517e-01,3.966465153508759502e-06,-3.407348696474954354e-04,-3.647032855038412932e-04,2.898121693066777027e+00,7.986986889839155224e-03,2.939106733983877853e-02,2.994400193504205276e-01
1.100000000000000000e+01,3.763676876171991315e-01,-1.047046373529833541e-01,1.000257487737109680e-01,2.041660871079135908e-02,1.144794655263870059e-01,9.789116929109046924e-06,-2.804154636884393205e-04,-3.538312553362413238e-03,2.935551609091233694e+00,2.589965860466013174e-03,1.970987968188456924e-02,2.994405658438020756e-01
1.125000000000000000e+01,3.792288817471901052e-01,-9.051486393622029669e-02,1.000268365258332043e-01,2.553921492371685406e-02,1.126480058242943227e-01,6.488541224316504282e-06,2.808291130998210710e-05,-5.107568323677573290e-03,2.972980054501267677e+00,-2.316653133913621192e-03,5.844767068527962663e-03,2.994372607205206815e-01
1.150000000000000000e+01,3.828161268129424144e-01,-7.652602053043203179e-02,1.000271910875623615e-01,3.162111564700405969e-02,1.113594765013328491e-01,-5.319771474147708090e-07,5.107757922098853532e-04,-4.785746077691097923e-03,3.010407258977656042e+00,-5.535986462973430111e-03,-9.232943627820741975e-03,2.994388562230295148e-01
1.175000000000000000e+01,3.871004485648538163e-01,-6.263477960535006328e-02,1.000268491864123171e-01,3.636314148314771788e-02,1.110984240965311592e-01,-3.701691661668612437e-06,1.059252700574222876e-03,-2.674509036865567284e-03,3.047835675859036364e+00,-6.469929922774151493e-03,-2.234181561174887823e-02,2.994511321315846963e-01
1.200000000000000000e+01,3.917787069093666141e-01,-4.870429078800906503e-02,1.000265841541277678e-01,3.774791066814792151e-02,1.119259186307096504e-01,4.697392907252644320e-07,1.553350361299212336e-03,7.697080704454948392e-04,3.085267773499540400e+00,-5.212913739293004861e-03,-3.077572491545705474e-02,2.994710057321758323e-01
1.225000000000000000e+01,3.963374490173975917e-01,-3.461634884399300560e-02,1.000271693964348563e-01,3.446403481293774940e-02,1.135103658767525753e-01,8.736583787092800166e-06,1.885623553885481434e-03,4.837572931889327910e-03,3.122703689522691395e+00,-2.458949874160501134e-03,-3.285020386074374854e-02,2.994878776628081551e-01
1.250000000000000000e+01,4.001603546292270552e-01,-2.031275808016462167e-02,1.000358923495823088e-01,2.617275399514321435e-02,1.152592361474017862e-01,8.103517124251994621e-05,1.985302700731710057e-03,8.712381739062247110e-03,-3.122371606951706458e+00,7.019634291181298114e-04,-2.819944267935193399e-02,2.922160931591490929e-01
1.275000000000000000e+01,4.026563543132476441e-01,-5.815559189162867321e-03,1.000388275981202446e-01,1.357519788051020186e-02,1.165243650604519121e-01,-3.791502496792764167e-06,1.824864410042862121e-03,1.162536965098083866e-02,-3.085431696670815072e+00,3.269959279675324799e-03,-1.780210926291527287e-02,2.975342712615356433e-01
1.300000000000000000e+01,4.033818873447556630e-01,8.779535085840822067e-03,1.000372127957955132e-01,-1.740112971187077629e-03,1.167927267508020589e-01,-1.914902937353824168e-05,1.427269637717822883e-03,1.299973707351453726e-02,-3.048135288112421737e+00,4.286479531218031526e-03,-3.710152932432512693e-03,2.989361188721612606e-01
1.325000000000000000e+01,4.021330274108502745e-01,2.332984740275711316e-02,1.000341950947387926e-01,-1.760958637374638105e-02,1.158422831386864277e-01,-2.825323628574472257e-05,8.707511597160916012e-04,1.254110283402681998e-02,-3.010747187154160454e+00,3.346856734227126630e-03,1.143077169656442002e-02,2.992967674093230945e-01
1.350000000000000000e+01,3.989913101581463728e-01,3.768916176862515538e-02,1.000303740234843447e-01,-3.170699591891102537e-02,1.138301305218300113e-01,-3.133976983340569440e-05,2.642775589321616123e-04,1.027540351556022191e-02,-2.973334785722966611e+00,5.911961032816560099e-04,2.491270969483131564e-02,2.993914085511063528e-01
1.375000000000000000e+01,3.943164115554717575e-01,5.175466378231471931e-02,1.000267867521399678e-01,-4.196641687999231457e-02,1.112702120652653559e-01,-2.459237181871025857e-05,-2.721318059583429250e-04,6.525962963035421976e-03,-2.935913030393907608e+00,-3.367610669825321559e-03,3.449112740159493429e-02,2.994251949747895325e-01
1.400000000000000000e+01,3.886897825491001934e-01,6.550534712320933706e-02,1.000246161618494889e-01,-4.693393732030624182e-02,1.089254885772115294e-01,-9.744569435994732658e-06,-6.276780462114259652e-04,1.839727453339908350e-03,-2.898485115894574360e+00,-7.621965657810080355e-03,3.876222716632135579e-02,2.994447687863228680e-01
1.425000000000000000e+01,3.828223621014232303e-01,7.902295783595866818e-02,1.000244729896793139e-01,-4.598758561330041489e-02,1.076443653624747226e-01,6.459459701563829155e-06,-7.179099313133805544e-04,-3.117895675383082661e-03,-2.861053869361208424e+00,-1.119918534403622525e-02,3.733090350693016313e-02,2.994538616452735447e-01
1.450000000000000000e+01,3.774449737983846531e-01,9.249103664632284116e-02,1.000260210942805622e-01,-3.939822378376940659e-02,1.081812520761357838e-01,1.644503053315646710e-05,-4.961851396297008209e-04,-7.676317300756406101e-03,-2.823623586466122770e+00,-1.328051323205914173e-02,3.076171653915640500e-02,2.994499893988975536e-01
1.475000000000000000e+01,3.732011409348089948e-01,1.061726579384247443e-01,1.000281655108185425e-01,-2.823886729971131215e-02,1.110402801592604294e-01,1.609591486694038768e-05,4.161974972358851836e-05,-1.125966050804416869e-02,-2.786198383577138671e+00,-1.335945884245893535e-02,2.035699653546751975e-02,2.994366315705303538e-01
1.500000000000000000e+01,3.705592373550557483e-01,1.203717877436374789e-01,1.000296387150334809e-01,-1.417737209256530323e-02,1.163714927809842703e-01,6.636591375071745242e-06,8.589121255656265597e-04,-1.345800801630272527e-02,-2.748779929844766823e+00,-1.131328758316803122e-02,7.837924838716611373e-03,2.994243096605576637e-01
1.525000000000000000e+01,3.697554063281212056e-01,1.353859386251412000e-01,1.000296211995965884e-01,7.974392001358596464e-04,1.239343378978536858e-01,-6.535711070116279499e-06,1.885468610956853204e-03,-1.406312458400520334e-02,-2.711366272639478492e+00,-7.388165514998356817e-03,-4.989014827525689415e-03,2.994257512404753241e-01
1.550000000000000000e+01,3.707721554210384185e-01,1.514586687519009489e-01,1.000280748683657350e-01,1.466394393568924356e-02,1.331282744612799496e-01,-1.692218704288095467e-05,3.028070960198802307e-03,-1.306989761876270299e-02,-2.673952413303949616e+00,-2.120092993452226370e-03,-1.651294798064642522e-02,2.994494842195431494e-01
1.575000000000000000e+01,3.733514166590767847e-01,1.687396250653687702e-01,1.000256722259017517e-01,2.562558401028048813e-02,1.430782666891334820e-01,-2.001040058597678377e-05,4.182947693114692604e-03,-1.065082773623105168e-02,-2.636532285154653099e+00,3.776079080810723024e-03,-2.550705832146444446e-02,2.994955139874223571e-01
1.600000000000000000e+01,3.770361161839343445e-01,1.872578064577310741e-01,1.000234219224369336e-01,3.230731560066853192e-02,1.527561931627742509e-01,-1.493180127902777675e-05,5.248417963663204802e-03,-7.113935653255745555e-03,-2.599101164969313427e+00,9.521388592101172332e-03,-3.121537502916943083e-02,2.995549342101972434e-01
1.625000000000000000e+01,3.812314178100072448e-01,2.069112071904146422e-01,1.000222070759908960e-01,3.387520942340915137e-02,1.611176694285409439e-01,-4.282033134621971167e-06,6.136184133921217254e-03,-2.854060818403722673e-03,-2.561657480763582573e+00,1.437606542549080095e-02,-3.335564838636644741e-02,2.996131703288522630e-01
1.650000000000000000e+01,3.852758162378536189e-01,2.274735207644414114e-01,1.000224407439243429e-01,3.007775739766437029e-02,1.672353708750396184e-01,7.397299683155401012e-06,6.779913938343170784e-03,1.695549343342712522e-03,-2.524203367447003910e+00,1.772756383297298052e-02,-3.206992469925874778e-02,2.996550953876913059e-01
1.675000000000000000e+01,3.885127380420076437e-01,2.486163897065180040e-01,1.000239503955096393e-01,2.121689383925975947e-02,1.704126517145024000e-01,1.559999886395359005e-05,7.140313347350923760e-03,6.108003235769073405e-03,-2.486743899618310660e+00,1.916207777856666905e-02,-2.784913142755963272e-02,2.996699169175177091e-01
1.700000000000000000e+01,3.903546721903801142e-01,2.699438607459280770e-01,1.000260956815989394e-01,8.061793211705723522e-03,1.702644355909010698e-01,1.750676495333581729e-05,7.206626390939806399e-03,1.000236797916743969e-02,-2.449285421416826036e+00,1.851382129487996048e-02,-2.144280780714867204e-02,2.996542251957658998e-01
1.725000000000000000e+01,3.903336745708065880e-01,2.910343269978564185e-01,1.000280422850439721e-01,-8.278746982115276279e-03,1.667564292694196093e-01,1.280262526866976908e-05,6.995065584541081301e-03,1.307633332987503429e-02,-2.411833640619393204e+00,1.588176033973470042e-02,-1.375448314748006079e-02,2.996124367858363780e-01
1.750000000000000000e+01,3.881342070671141564e-01,3.114844615581838783e-01,1.000290734287868910e-01,-2.650741067819557123e-02,1.601992439500594667e-01,3.497518257730288961e-06,6.544911451308153653e-03,1.512908230526092274e-02,-2.374392134815998645e+00,1.160545542429156779e-02,-5.724601524483499335e-03,2.995547688480934556e-01
1.775000000000000000e+01,3.836066203251949913e-01,3.309496465076665617e-01,1.000288229126387318e-01,-4.529354674875878117e-02,1.512007170881532747e-01,-7.064558803951829389e-06,5.912997027605421986e-03,1.607138412863503771e-02,-2.336961690335055852e+00,6.201426415116030426e-03,1.787401917085135791e-03,2.994936676561221200e-01
1.800000000000000000e+01,3.767620161775230292e-01,3.491762435066910197e-01,1.000273562701238517e-01,-6.341342670809568816e-02,1.405862060689585802e-01,-1.554034105804661197e-05,5.167202624427545340e-03,1.592155773089555873e-02,-2.299540560408137591e+00,2.737346671017543490e-04,8.102169677357754299e-03,2.994400672705795907e-01
1.825000000000000000e+01,3.677514175082833847e-01,3.660225881209546173e-01,1.000250934408302567e-01,-7.985992251396391295e-02,1.293010292725294552e-01,-1.970897046504010405e-05,4.379570311495090303e-03,1.478880401724581503e-02,-2.262125410368711176e+00,-5.579439850005833354e-03,1.278134955475250176e-02,2.994007656711317189e-01
1.850000000000000000e+01,3.568337564808469753e-01,3.814674680493795322e-01,1.000226278311222572e-01,-9.391210802909727429e-02,1.183102849988401373e-01,-1.898777530169041465e-05,3.619712260707431961e-03,1.284822623943982292e-02,-2.224712527296956122e+00,-1.084065602658537512e-02,1.563986717142399480e-02,2.993776025945982799e-01
1.875000000000000000e+01,3.443378913846146805e-01,3.956066230304528530e-01,1.000205254698447455e-01,-1.051629370157219495e-01,1.085087905317069640e-01,-1.427478181006300907e-05,2.949214771260504596e-03,1.031362467798954338e-02,-2.187298865877051579e+00,-1.511219016386771558e-02,1.671151547213947305e-02,2.993683229259318512e-01
1.900000000000000000e+01,3.306236082202727578e-01,4.086390776353430176e-01,1.000191758505129674e-01,-1.135104521016702672e-01,1.006485785079021950e-01,-7.349406123495361566e-06,2.417589102060902200e-03,7.414409293176379284e-03,-2.149882652473809497e+00,-1.811140077849337018e-02,1.618185734154775623e-02,2.993684203015037903e-01
1.925000000000000000e+01,3.160455188618419564e-01,4.208456192296712861e-01,1.000187268944621455e-01,-1.191231067245527020e-01,9.528467592505708572e-02,-1.867400987456879182e-07,2.059953424469616792e-03,4.381533601824357665e-03,-2.112463479829473911e+00,-1.962892491521842087e-02,1.431169661623704799e-02,2.993731138001504144e-01
1.950000000000000000e+01,3.009223055414895764e-01,4.325614185370051379e-01,1.000190953732229271e-01,-1.223912708751690309e-01,9.273395385115128231e-02,5.539841452681504823e-06,1.896170834763997266e-03,1.444087452239544572e-03,-2.075041991001741248e+00,-1.947396835462826548e-02,1.137812747683060455e-02,2.993788677688952182e-01
1.975000000000000000e+01,2.855123857575208035e-01,4.441439343342486468e-01,1.000200224227306700e-01,-1.238742789764976787e-01,9.303947169605916723e-02,8.698509691555148278e-06,1.930829912857191539e-03,-1.166552650365213243e-03,-2.037619319979465882e+00,-1.744531968871197367e-02,7.654374594642902006e-03,2.993842636020223047e-01
2.000000000000000000e+01,2.699962609961759630e-01,4.559364549574314585e-01,1.000211484460662298e-01,-1.242464854555449943e-01,9.593621461844430154e-02,8.804078791722755375e-06,2.153406334313679241e-03,-3.212807814808583701e-03,-2.000196447961378965e+00,-1.336486318434895217e-02,3.432058094130304229e-03,2.993902814288673664e-01
2.025000000000000000e+01,2.544657984357018288e-01,4.682276591177572667e-01,1.000221019051186488e-01,-1.242395472920862637e-01,1.008232225626731760e-01,6.154023643246536746e-06,2.538225243132690920e-03,-4.457021017200473063e-03,-1.962773614282332879e+00,-7.183840261758511932e-03,-9.346742972523893996e-04,2.994000121061756725e-01
2.050000000000000000e+01,2.389212823126718732e-01,4.812089142211807280e-01,1.000226086754250621e-01,-1.245752472615433426e-01,1.067579000406660011e-01,1.998905953373073472e-06,3.044355170215663070e-03,-4.684555837536584326e-03,-1.925349940160851814e+00,8.707869770137155029e-04,-5.000993734838904588e-03,2.994176334832122643e-01
2.075000000000000000e+01,2.232776579929299787e-01,4.949334771942622835e-01,1.000226121714845595e-01,-1.258860939978496130e-01,1.124943315625135248e-01,-1.508156746969978749e-06,3.616106722139406874e-03,-3.743345149603625847e-03,-1.887923462274864850e+00,1.017673513359685158e-02,-8.254075698504819564e-03,2.994464993120438678e-01
2.100000000000000000e+01,2.073812529150659278e-01,5.092843515079421568e-01,1.000223534295233141e-01,-1.286290278378193763e-01,1.165834473384812636e-01,-1.928342575087378851e-06,4.185142142052836710e-03,-1.590730717791853134e-03,-1.850491738721343538e+00,1.969119176123117557e-02,-1.019676936281871567e-02,2.994866618865885677e-01
2.125000000000000000e+01,1.910369755134483372e-01,5.239589489911490316e-01,1.000223321441918028e-01,-1.330068940777390796e-01,1.175385657389459160e-01,2.232610114782646236e-06,4.675121620912170602e-03,1.666792948884445683e-03,-1.813052991285759585e+00,2.805203819972301726e-02,-1.046997598755176895e-02,2.995328964420044815e-01
2.150000000000000000e+01,1.740437414254473736e-01,5.384779052653153597e-01,1.000231000057353048e-01,-1.389178721341282341e-01,1.140504155838440309e-01,1.020891203459037013e-05,5.009256595502594410e-03,5.754617662029803439e-03,-1.775607410389333118e+00,3.378847920157446866e-02,-8.970661797899709411e-03,2.995746879257971118e-01
2.175000000000000000e+01,1.562333697596701709e-01,5.522222504192504378e-01,1.000249338005269745e-01,-1.459515692873734616e-01,1.052187107746105077e-01,1.849612967093539721e-05,5.120259702311595433e-03,1.024004230698306699e-02,-1.738157960927417145e+00,3.559034926539927229e-02,-5.922941343719958888e-03,2.995990950108512463e-01
2.200000000000000000e+01,1.375063308077685842e-01,5.644983269608785381e-01,1.000275444975789046e-01,-1.534421712306570929e-01,9.075808034936783120e-02,2.191747214635322732e-05,4.961290333351508867e-03,1.457256715480435838e-02,-1.700710041010237150e+00,3.257860026117948699e-02,-1.876437347317404768e-03,2.995959551342393112e-01
2.225000000000000000e+01,1.178572029783699765e-01,5.746244674959146703e-01,1.000300187866076662e-01,-1.605766690602874192e-01,7.113589735012178228e-02,1.612507606784512680e-05,4.515905828680860656e-03,1.815026409583535630e-02,-1.663269785217453611e+00,2.453077913964338622e-02,2.372791754591644774e-03,2.995632823188829064e-01
2.250000000000000000e+01,9.738379123781508440e-02,5.820285306924294355e-01,1.000311113002618213e-01,-1.665432261371332101e-01,4.760663863577347527e-02,4.497806785703058202e-07,3.804893079080362214e-03,2.040461572384811781e-02,-1.625841529324900891e+00,1.202697170881093444e-02,5.926812197337009633e-03,2.995099392741731315e-01
2.275000000000000000e+01,7.627645803776611499e-02,5.863417337474530200e-01,1.000298266808583997e-01,-1.706939275700956604e-01,2.212000115889357910e-02,-2.054901203452869375e-05,2.888152274816581117e-03,2.089356794452350632e-02,-1.588425591674015092e+00,-3.517277132516207286e-03,7.972493702342469540e-03,2.994534136271447267e-01
2.300000000000000000e+01,5.478793066037520448e-02,5.874724682107038687e-01,1.000260324468977696e-01,-1.726892782377487945e-01,-2.902133140554418247e-03,-3.820371563113551371e-05,1.860462369138221302e-03,1.938922841257766788e-02,-1.551017652016679627e+00,-1.996708013774949747e-02,7.976358609471722455e-03,2.994127737654828092e-01
2.325000000000000000e+01,3.318807738012240216e-02,5.856446391229784831e-01,1.000207432927324308e-01,-1.725905705375923027e-01,-2.490119646510077431e-02,-4.365784208779315120e-05,8.409560701496248411e-04,1.594315099925973020e-02,-1.513610388932302042e+00,-3.475621351264446268e-02,5.842626770030672975e-03,2.993997359911715894e-01
2.350000000000000000e+01,1.171205572492306848e-02,5.813891548600054193e-01,1.000158166194298759e-01,-1.708726401249473503e-01,-4.158389606839453523e-02,-3.290486373039946770e-05,-4.259866508818139515e-05,1.091116583288745390e-02,-1.476196847585495631e+00,-4.532883051283934789e-02,1.985019233883129636e-03,2.994126189768872015e-01
2.375000000000000000e+01,-9.487217330093642570e-03,5.754845901024142618e-01,1.000131058465437012e-01,-1.683446400762257100e-01,-5.132044068261371744e-02,-9.958718544002794759e-06,-6.723817074258300452e-04,4.924178369524610105e-03,-1.438773873081815147e+00,-4.965860863545228793e-02,-2.724754581458654901e-03,2.994372189137171625e-01
2.400000000000000000e+01,-3.037113364158392642e-02,5.688527338945059686e-01,1.000134854799957090e-01,-1.659881452241328548e-01,-5.345746674951172561e-02,1.438404124348218584e-05,-9.588795851736996905e-04,-1.198045771091873091e-03,-1.401343634026273488e+00,-4.672171546919112739e-02,-7.137390095986495195e-03,2.994550456352741974e-01
2.425000000000000000e+01,-5.102350649273722921e-02,5.624246003671040661e-01,1.000163344925756037e-01,-1.647443908352769493e-01,-4.847269493332113932e-02,2.821601806842644682e-05,-8.558466553142325163e-04,-6.578756157784776404e-03,-1.363912162514394399e+00,-3.678843212436305743e-02,-1.009947430755515387e-02,2.994546750682134939e-01
2.450000000000000000e+01,-7.163135446330645695e-02,5.569999072254331329e-01,1.000198574867818407e-01,-1.652986316880227513e-01,-3.792759153984028714e-02,2.547888105909722003e-05,-3.691864128759043354e-04,-1.043667666355450711e-02,-1.326485565048460158e+00,-2.143197320201094269e-02,-1.074836016915589436e-02,2.994392819194715005e-01
2.475000000000000000e+01,-9.243850775801470965e-02,5.531266131566069388e-01,1.000226660707310422e-01,-1.676607306783056972e-01,-2.414349112212395981e-02,3.320192002322871924e-05,-2.444516165674539502e-03,-1.226116701177274240e-02,-1.293551485703664294e+00,-3.857662332356016910e-02,1.090463874916655085e-01,1.013999870062338299e-01
2.500000000000000000e+01,-1.129191591873960759e-01,5.512545529346527529e-01,1.000404015547499553e-01,-1.550870723487443870e-01,-4.920401066332755723e-03,3.373026772114973734e-04,-3.003055654365345550e-02,-1.249150781866567583e-02,-1.303378375468997374e+00,-6.838877857669323213e-02,2.587792975075904334e-01,-1.918696283109389278e-01
2.525000000000000000e+01,-1.294944860814525311e-01,5.523758700332441762e-01,1.001086942385605305e-01,-1.057259362515913653e-01,2.304961717016034209e-02,6.150838250161070730e-04,-5.897929623166828922e-02,-1.165757330147458755e-02,-1.333167547927072816e+00,-2.955095893398566528e-02,1.681968879067527178e-01,-2.711817797539519126e-01
2.550000000000000000e+01,-1.379846781221921448e-01,5.572363656380977526e-01,1.001501380572041716e-01,-3.029937893483508615e-02,5.331116825991451258e-02,-5.269499396999323415e-05,-6.852800336013989413e-02,-9.474228465646173866e-03,-1.368676261180307385e+00,2.658925168666879946e-02,-7.377897645604029886e-03,-2.933839361124229161e-01
2.575000000000000000e+01,-1.367243830871038290e-01,5.655371107618888393e-01,1.000921242553631241e-01,4.603442236472089777e-02,7.700612788895448702e-02,-7.460627660939698645e-04,-5.731596525942948828e-02,-5.289464113470586024e-03,-1.405906308129812654e+00,6.551070967015273916e-02,-1.382409990321755988e-01,-2.994798062461885846e-01
2.600000000000000000e+01,-1.270179001344697856e-01,5.760455723845823162e-01,9.999816277997189418e-02,1.032055132659330243e-01,8.849542120287062774e-02,-6.351864739509471055e-04,-3.573257185891088455e-02,8.598406782647516084e-04,-1.443498182673618180e+00,7.719295149163619973e-02,-1.717211127289330619e-01,-3.007799332305433615e-01
2.625000000000000000e+01,-1.118145925370980370e-01,5.871227805920963272e-01,9.995052983453533990e-02,1.349650879843685702e-01,8.670167968677228165e-02,-1.434335858000160735e-04,-1.574480662312167586e-02,7.913939664306725991e-03,-1.481019128309889243e+00,6.760988662362572843e-02,-1.261805805080561116e-01,-3.008077839225856698e-01
2.650000000000000000e+01,-9.401335120270663814e-02,5.972265162886775114e-01,9.995427649878982357e-02,1.470183959792579764e-01,7.382303014892925563e-02,1.400326682969316866e-04,-4.235995694077991473e-03,1.428674832891115541e-02,-1.518481242410846033e+00,4.737484821234193288e-02,-5.221526941013818202e-02,-3.005546574569487595e-01
2.675000000000000000e+01,-7.541068068235541599e-02,6.051958165735267237e-01,9.997510515857484237e-02,1.498356669048490353e-01,5.342361864199494242e-02,1.647227988273906147e-04,-1.594574264093630940e-03,1.865086163572841210e-02,-1.555986632144958248e+00,2.510019416780227483e-02,5.322013394783986322e-03,-3.001904227510547307e-01
2.700000000000000000e+01,-5.656615700488125398e-02,6.103249918620247128e-01,9.999223449619545900e-02,1.519426350733973918e-01,2.906440789686114134e-02,1.087126669436081682e-04,-4.050659961937936281e-03,2.045896323903724154e-02,-1.593533056050571162e+00,5.390911084348449199e-03,2.717566121127598655e-02,-2.997843884691947514e-01
2.725000000000000000e+01,-3.728776187947947102e-02,6.123182281740369159e-01,1.000022657859054170e-01,1.568375396777449693e-01,3.720400375708808691e-03,5.529626434623492493e-05,-7.124722399791599131e-03,1.994972857321737278e-02,-1.631045891310356044e+00,-1.034561486126923426e-02,1.902192243369530203e-02,-2.994502917852996937e-01
2.750000000000000000e+01,-1.725187699055715992e-02,6.112092159880196940e-01,1.000063265638678617e-01,1.636044162322782547e-01,-2.027571804674412059e-02,1.354970860083248591e-05,-8.050315425763151025e-03,1.778233318059782922e-02,-1.668481900549738217e+00,-2.217000541004119502e-02,-1.196071968977537470e-03,-2.992713837188176185e-01
2.775000000000000000e+01,3.600421600777677957e-03,6.072878443060401032e-01,1.000064113120047865e-01,1.694563315011033688e-01,-4.112147504448180474e-02,-7.164589180486873808e-06,-6.401401583649650451e-03,1.461978120910412474e-02,-1.705861775209641662e+00,-3.039747249582367555e-02,-1.683113534577044060e-02,-2.992493841410596711e-01
2.800000000000000000e+01,2.499792598029762850e-02,6.010391046131139392e-01,1.000055278190563335e-01,1.722034333168982190e-01,-5.747946327504171310e-02,-3.918481849001564850e-06,-3.343188127107949142e-03,1.090153332297585410e-02,-1.743233127132320481e+00,-3.517697284001747998e-02,-2.009754338766301524e-02,-2.993219494617373466e-01
2.825000000000000000e+01,4.650778453570358906e-02,5.930841841000298320e-01,1.000058848247497856e-01,1.714663633926748199e-01,-6.850104086390935987e-02,9.443061592035407531e-06,-4.213736784256374513e-04,6.861935675729740822e-03,-1.780628109593047181e+00,-3.648626165930163312e-02,-1.241133602034649036e-02,-2.994129732894867391e-01
2.850000000000000000e+01,6.776378865383117511e-02,5.841152218368007576e-01,1.000077838299939514e-01,1.685209341840396835e-01,-7.389249010965072417e-02,1.955908707318290625e-05,1.341178089862429292e-03,2.695665279670601214e-03,-1.818050213842874463e+00,-3.423190895086222069e-02,-2.371200897288085370e-04,-2.994745123264849207e-01
2.875000000000000000e+01,8.861656450208740821e-02,5.748221248315502629e-01,1.000105490746221321e-01,1.653545401579720187e-01,-7.396875292142864045e-02,2.366288599061674021e-05,1.731907704815768443e-03,-1.283038038745643213e-03,-1.855485676695864727e+00,-2.837452486436149723e-02,9.783634483943049950e-03,-2.994973507463069007e-01
2.900000000000000000e+01,1.091548087491908403e-01,5.658154158013396495e-01,1.000135038252787517e-01,1.636554317712771711e-01,-6.966075365480993431e-02,2.281630176941451034e-05,1.134874995360323153e-03,-4.595600238017714077e-03,-1.892920885431592648e+00,-1.910793651639416946e-02,1.386009422008360401e-02,-2.994954300469586106e-01
2.925000000000000000e+01,1.296231649436398736e-01,5.575522341002424609e-01,1.000160138690733697e-01,1.642033707308474810e-01,-6.245708842303984709e-02,1.664034591556279194e-05,1.257072403802964727e-04,-6.687728588691919419e-03,-1.930351382351925160e+00,-7.089020993091147207e-03,1.160839688655865808e-02,-2.994863852174183272e-01
2.950000000000000000e+01,1.502972823708857986e-01,5.502747288364623346e-01,1.000174518013452474e-01,1.667681775883342044e-01,-5.426432599941480306e-02,6.373770133592236798e-06,-8.500355601902226214e-04,-7.096521625195543505e-03,-1.967779981115955978e+00,6.383297662437380574e-03,4.937997174054917573e-03,-2.994829118177058658e-01
2.975000000000000000e+01,1.713716850199521469e-01,5.439717568300974637e-01,1.000176274276871058e-01,1.703678732569505749e-01,-4.717659345774648932e-02,-2.415976134250366280e-06,-1.595022781709355859e-03,-5.613594813605193162e-03,-2.005210917667222592e+00,1.939070696646868000e-02,-3.496177621283490852e-03,-2.994923818549600214e-01
3.000000000000000000e+01,1.928908663242778487e-01,5.383747188519469873e-01,1.000171676381517993e-01,1.736623834783380949e-01,-4.316719490895678385e-02,-3.238106937901539976e-06,-2.104836885712684305e-03,-2.378018138946176585e-03,-2.042646712490021610e+00,2.970295156288482730e-02,-1.139385678484262920e-02,-2.995161543032942575e-01
3.025000000000000000e+01,2.147287905504100258e-01,5.329946120883017890e-01,1.000172392433707480e-01,1.753159414761642776e-01,-4.374928329873016553e-02,5.387701139484420788e-06,-2.443021342917660495e-03,2.128392622986922250e-03,-2.080088099778058197e+00,3.530953510490955627e-02,-1.720864169628672294e-02,-2.995471080474029213e-01
3.050000000000000000e+01,2.366075560569136371e-01,5.271994698117741240e-01,1.000187161001506869e-01,1.742607951728894766e-01,-4.968149522270125934e-02,1.766736131016149284e-05,-2.642629791429473244e-03,7.173248553853196936e-03,-2.117534042553899543e+00,3.499351531185510011e-02,-2.006621792791518644e-02,-2.995707571883232667e-01
3.075000000000000000e+01,2.581426473244055053e-01,5.203212146089051249e-01,1.000214482868068688e-01,1.698657794206527294e-01,-6.079984646168236362e-02,2.413350527519866906e-05,-2.677638196679960059e-03,1.192043857733025326e-02,-2.154981061418469679e+00,2.873179592903196342e-02,-1.956513115605508155e-02,-2.995729735805770511e-01
3.100000000000000000e+01,2.789043821599686002e-01,5.117720951023285725e-01,1.000242258162487435e-01,1.620322779645781419e-01,-7.603231004301944096e-02,1.828654104392613659e-05,-2.493722652734480481e-03,1.559263221680303249e-02,-2.192423796494687327e+00,1.776815081997273546e-02,-1.569856942803926972e-02,-2.995497833652014386e-01
3.125000000000000000e+01,2.984871279690901047e-01,5.011467399772895348e-01,1.000254970096302043e-01,1.512238207105875698e-01,-9.360488556414439665e-02,1.294998046419733831e-06,-2.060069807146536116e-03,1.761467864414424656e-02,-2.229857790602145950e+00,4.327587652005780890e-03,-8.917995286844296321e-03,-2.995112144925011766e-01
3.150000000000000000e+01,3.165772503078528310e-01,4.882882395428230771e-01,1.000243501978032995e-01,1.384158104101909370e-01,-1.113948288762120209e-01,-1.857199068977589723e-05,-1.405727917531469700e-03,1.771205157468528149e-02,-2.267282596704253805e+00,-8.931430425559444206e-03,-2.104502742795013931e-04,-2.994755354298175853e-01
3.175000000000000000e+01,3.330087778401201182e-01,4.733050016836993223e-01,1.000210941863377279e-01,1.249512878370064861e-01,-1.273468677215587874e-01,-3.121309579004033610e-05,-6.233194198022470010e-04,1.594919212537226211e-02,-2.304702400782458582e+00,-1.954920804864990549e-02,8.953673456463986935e-03,-2.994579781861218537e-01
3.200000000000000000e+01,3.477952106926465725e-01,4.565368469567260834e-01,1.000170726597927190e-01,1.123101261991605315e-01,-1.398544313555256657e-01,-3.089535011618828076e-05,1.560735210174264763e-04,1.270423286065563810e-02,-2.342123449711584371e+00,-2.579580644882218873e-02,1.685946311359477756e-02,-2.994620745802805128e-01
3.225000000000000000e+01,3.611288038173589565e-01,4.384803758074113378e-01,1.000138741100642797e-01,1.018297663067877779e-01,-1.480226792631799126e-01,-1.929135509898256926e-05,8.008528570528502481e-04,8.588142321509452740e-03,-2.379550290023741521e+00,-2.697205203352210506e-02,2.192061883182657225e-02,-2.994791479734552064e-01
3.250000000000000000e+01,3.733450483239384443e-01,4.196918825079989368e-01,1.000124728916054889e-01,9.443831432553781435e-02,-1.517659729071392516e-01,-3.716597987308365016e-06,1.212715893487882049e-03,4.325976505850734170e-03,-2.416983555959354213e+00,-2.343964157320713171e-02,2.306618841851396443e-02,-2.994952764918942245e-01
3.275000000000000000e+01,3.848581197081954453e-01,4.006892032311905050e-01,1.000128267356227424e-01,9.046417819917469683e-02,-1.517359558388088336e-01,7.814233539937791978e-06,1.345962586191996879e-03,6.237718724451438677e-04,-2.454420522623955936e+00,-1.641918320028198583e-02,2.001563395681889637e-02,-2.995002995261346612e-01
3.300000000000000000e+01,3.960801687964305429e-01,3.818718081388574603e-01,1.000141125502180678e-01,8.956936469417936530e-02,-1.491142138324992872e-01,1.126719704537073157e-05,1.210316875758978483e-03,-1.954256575284169829e-03,-2.491857536071765633e+00,-7.641608260388448037e-03,1.336173941367069413e-02,-2.994930420293583917e-01
3.325000000000000000e+01,4.073413469853210400e-01,3.634724973739947851e-01,1.000153650017734236e-01,9.082318790255951291e-02,-1.453272756800440269e-01,8.144473937581051386e-06,8.611525874179860093e-04,-3.076798748437761365e-03,-2.529292407925053165e+00,1.051405480629405247e-03,4.444185065588798084e-03,-2.994802195204763207e-01
3.350000000000000000e+01,4.188273613089116276e-01,3.455461785250679707e-01,1.000160646233567707e-01,9.289948437760899014e-02,-1.417494919937717091e-01,3.379615431827920046e-06,3.830052976593971946e-04,-2.689883774393790096e-03,-2.566725316595582562e+00,8.076145223184259120e-03,-4.948381106913734770e-03,-2.994707405108785192e-01
3.375000000000000000e+01,4.305473265187980680e-01,3.279932708060918078e-01,1.000163187311451790e-01,9.435220174956117367e-02,-1.394533932254456710e-01,1.435656459168817689e-06,-1.286164583567785743e-04,-1.008150051182897956e-03,-2.604158001431635228e+00,1.238452932361247885e-02,-1.297500966643893618e-02,-2.994696551397889039e-01
3.400000000000000000e+01,4.423378014808513892e-01,3.106087719150371074e-01,1.000165919546757848e-01,9.390716948147281862e-02,-1.390512648919153549e-01,3.403469665876252273e-06,-5.839579673635663867e-04,1.544184291985863100e-03,-2.641592122146809274e+00,1.361063024676911586e-02,-1.814839036589502991e-02,-2.994755799340221847e-01
3.425000000000000000e+01,4.539007832605052584e-01,2.931439405587388247e-01,1.000172459296103517e-01,9.070501186251203607e-02,-1.406495003534646571e-01,6.889973197940349896e-06,-9.125439707251325810e-04,4.430305560217147678e-03,-2.679027994111558453e+00,1.206585880808825999e-02,-1.965824296765166998e-02,-2.994826921435619904e-01
3.450000000000000000e+01,4.648659299261882483e-01,2.753664557863491624e-01,1.000182382485706734e-01,8.444220350675578357e-02,-1.439123367224443284e-01,8.363293785348927434e-06,-1.072359859188178445e-03,7.115274143899673852e-03,-2.716464452438971833e+00,8.588439150175325096e-03,-1.753368232805825946e-02,-2.994852853601204234e-01
3.475000000000000000e+01,4.748621505385291486e-01,2.571068915560423829e-01,1.000191681742619715e-01,7.538210796873916208e-02,-1.482081913349940494e-01,5.944282925875482869e-06,-1.053726825275890433e-03,9.172892356442008052e-03,-2.753899744638697022e+00,4.285007609431470965e-03,-1.259861431376676881e-02,-2.994814675892122913e-01
3.500000000000000000e+01,4.835822312462517703e-01,2.382838653383806682e-01,1.000195827671382098e-01,6.424022630472993323e-02,-1.527951596716733418e-01,5.835161768420987937e-07,-8.773120244709051120e-04,1.036080370241196195e-02,-2.791332693676772170e+00,2.318936480036357193e-04,-6.224739268776176629e-03,-2.994736768458641785e-01
3.525000000000000000e+01,4.908268113359610663e-01,2.189061311552840672e-01,1.000192843406397525e-01,5.197985704538352070e-02,-1.569968509584714067e-01,-4.957326518619879684e-06,-5.866515961020009762e-04,1.064698542426426378e-02,-2.828763323660905105e+00,-2.782323660488015150e-03,5.470337057080710739e-05,-2.994662630964394778e-01
3.550000000000000000e+01,4.965201453385367225e-01,1.990556225696921422e-01,1.000184242090873254e-01,3.957688357222367143e-02,-1.603275066480886468e-01,-8.186234497051794116e-06,-2.368407137135423838e-04,1.018338905649738765e-02,-2.866192650948651277e+00,-4.402959950175055516e-03,4.960256963386254145e-03,-2.994623772932993311e-01
3.575000000000000000e+01,5.006979959594589635e-01,1.788594606338619886e-01,1.000173621303769161e-01,2.781812862448094018e-02,-1.625441055050051153e-01,-8.324404225624644290e-06,1.178727340970274685e-04,9.236973759923298652e-03,-2.903621960542315694e+00,-4.710701930957514501e-03,7.785774789625887760e-03,-2.994624139424200693e-01
3.600000000000000000e+01,5.034753722858931191e-01,1.584602080474283858e-01,1.000164392929818319e-01,1.718411192987824576e-02,-1.636268828228878147e-01,-6.271706930436405737e-06,4.345051281387882235e-04,8.100192165888042001e-03,-2.941052143276657205e+00,-4.094214360364127961e-03,8.524990088438308411e-03,-2.994646260492274115e-01
3.625000000000000000e+01,5.050064277745397456e-01,1.379920599427902350e-01,1.000158308295236720e-01,7.838036915640387778e-03,-1.637104553990144096e-01,-3.562916885283201191e-06,6.873055688953604329e-04,7.008124869206621733e-03,-2.978483460955029027e+00,-3.052266688584215782e-03,7.771032182290499302e-03,-2.994668602700477078e-01
3.650000000000000000e+01,5.054493070364810547e-01,1.175670516809033950e-01,1.000155365526869677e-01,-2.920626793025109399e-04,-1.629987310117487209e-01,-1.361263846009832494e-06,8.682371995621678993e-04,6.086078567568021201e-03,-3.015915714076284004e+00,-2.003009071645415334e-03,6.431521660473390328e-03,-2.994679243233216992e-01
3.675000000000000000e+01,5.049451076477566858e-01,9.727119993406639631e-02,1.000154574797482987e-01,-7.380007806263385976e-03,-1.616949957916535840e-01,-1.063221913640819936e-07,9.826411410965422456e-04,5.340635033821748180e-03,-3.053348553022022571e+00,-1.167008610752063918e-03,5.364259649184608542e-03,-2.994678602562798608e-01
3.700000000000000000e+01,5.036138269006829038e-01,7.716729612632984570e-02,1.000154780534940058e-01,-1.357211852549810097e-02,-1.599659629552044049e-01,3.074248920489988909e-07,1.042154769428618472e-03,4.692498506006425804e-03,-3.090781703826391613e+00,-5.551790537771825141e-04,5.063547955145315978e-03,-2.994673794946531853e-01
3.725000000000000000e+01,5.015635053687838019e-01,5.729984234775444690e-02,1.000155147644575665e-01,-1.891015898178033394e-02,-1.579410415769136600e-01,2.357670650466963907e-07,1.057600883439978844e-03,4.035889004046834018e-03,-3.128215035694006829e+00,-4.822613088002447839e-05,5.506454382674690583e-03,-2.994671187034420590e-01
3.750000000000000000e+01,4.989041159347176735e-01,3.769856869054938331e-02,1.000237874315527686e-01,-2.333094731977199479e-02,-1.557314440291618085e-01,3.860636540267214592e-05,1.033206974715590630e-03,3.301504204781766875e-03,3.116996857448013802e+00,4.981597831429627771e-04,6.205506917097573620e-03,-2.936256959878498218e-01
3.775000000000000000e+01,4.957568579540917453e-01,1.837893747203679998e-02,1.000237832243880270e-01,-2.673657100522214974e-02,-1.534582735668662268e-01,-1.630891036905665598e-05,9.694007159625114270e-04,2.496623149477839726e-03,3.079959731911757537e+00,1.066904811858814146e-03,6.472361151605723027e-03,-2.979075707081274560e-01
3.800000000000000000e+01,4.922517869891987474e-01,-6.592323384469764378e-04,1.000215760712637181e-01,-2.909646638190415899e-02,-1.512467900745420868e-01,-1.672050229754207696e-05,8.619843441366520018e-04,1.713456646498645770e-03,3.042631995986593285e+00,1.610224125277919275e-03,5.698341232974743660e-03,-2.990501065730106767e-01
3.825000000000000000e+01,4.885135011922072112e-01,-1.943142141330989406e-02,1.000197842229414713e-01,-3.053522545203720892e-02,-1.492140070394271656e-01,-1.210336658513617097e-05,7.062670739899808148e-04,1.096317386199277934e-03,3.005226822986817314e+00,1.950230102854382625e-03,3.684902269827879107e-03,-2.993537689699738436e-01
3.850000000000000000e+01,4.846389053680554837e-01,-3.796563702880273450e-02,1.000185257546852974e-01,-3.136365397640150654e-02,-1.474388227366919824e-01,-8.372644218400657797e-06,5.040673873410949322e-04,7.841757115139511838e-04,2.967801197888295661e+00,1.932892222826020296e-03,7.452256763260840799e-04,-2.994332289445652551e-01
3.875000000000000000e+01,4.806762169690204090e-01,-5.629562721444242301e-02,1.000176555452884225e-01,-3.203132635958434032e-02,-1.459329174736547219e-01,-5.794226115221001391e-06,2.664175054941306784e-04,8.521729442908776951e-04,2.930370276768705651e+00,1.526573430847757464e-03,-2.393814621064627429e-03,-2.994533320456076453e-01
3.900000000000000000e+01,4.766142212729979621e-01,-7.445167441368989725e-02,1.000170566663346611e-01,-3.301713967355736357e-02,-1.446326747486098852e-01,-3.937158672025689006e-06,1.273732845520265898e-05,1.276065308360645884e-03,2.892937946441154207e+00,8.619301593689247505e-04,-4.873973931695256730e-03,-2.994585132459045562e-01
3.925000000000000000e+01,4.723870295050672796e-01,-9.245220731617079246e-02,1.000166598982556443e-01,-3.469993904573541454e-02,-1.434194683762097799e-01,-2.527296307503739999e-06,-2.333879917812414903e-04,1.935690737184919989e-03,2.855505105829685419e+00,1.830668578438276962e-04,-6.056348513121086012e-03,-2.994603999515758619e-01
3.950000000000000000e+01,4.678934228020957264e-01,-1.102994636216969859e-01,1.000164102746605999e-01,-3.726185166907168556e-02,-1.421610693650987023e-01,-1.586634189239224566e-06,-4.502571004312532345e-04,2.657720717648698414e-03,2.818071986927871198e+00,-2.711897498769419218e-04,-5.787237765504825958e-03,-2.994614119608483560e-01
