time_total,x,y,z,vx,vy,vz,roll,pitch,yaw,roll_rate,pitch_rate,yaw_rate
6e-01,9.990471171593066912e-02,-1.572843397026274237e-01,8.374670116955380134e-03,3.829499146855713126e-04,-2.896750538567480129e-03,2.838164987644262172e-03,1.117840463998259315e+00,-2.534870025102209032e-02,-7.432763478767652476e-03,-2.995263604721725703e-01
2.500000000000000000e-01,-1.973245647958930260e-01,-4.848446934975969014e-01,9.994507409936752296e-02,-1.585834919809034349e-01,1.463105054715796091e-02,2.718390495431302969e-04,-5.216836294195399681e-03,4.717123344123687161e-03,1.080391810687728160e+00,-1.733911365498981907e-02,-9.958112559393671875e-03,-2.995046786952537121e-01
5.000000000000000000e-01,-2.172955213700015764e-01,-4.824559691862124189e-01,9.997329608426273884e-02,-1.610120432039456040e-01,2.359728093899603890e-02,1.860337025631605609e-04,-6.702626425607201115e-03,5.452193903999560248e-03,1.042948629074645472e+00,-4.587776813845327074e-03,-4.742473827435875547e-03,-2.994643951276069749e-01
7.500000000000000000e-01,-2.376040818238166208e-01,-4.788705613240810677e-01,9.999213302896958755e-02,-1.638173175906739443e-01,3.342094712191367306e-02,1.211684888205381540e-04,-6.768865473081592775e-03,5.133595984183072190e-03,1.005517806604510733e+00,7.521186055312724036e-03,4.382029703872936891e-04,-2.994254030922768317e-01
1.000000000000000000e+00,-2.582441417881132240e-01,-4.741028197584026826e-01,1.000043027822486164e-01,-1.662481980626509814e-01,4.228364329611615513e-02,7.857442065153627845e-05,-5.807466340935076021e-03,3.985859907046238916e-03,9.680958141821289775e-01,1.507282776999565449e-02,1.394605673720006583e-03,-2.993999793222266725e-01
1.250000000000000000e+00,-2.791540279309249750e-01,-4.683574873120563420e-01,1.000124141536166550e-01,-1.681915701415237774e-01,4.901189849907878343e-02,5.445046976120362562e-05,-4.607165968538514886e-03,2.334268283198335028e-03,9.306755005302874695e-01,1.650003694519430394e-02,-1.494208989005969910e-03,-2.993890052199858487e-01
1.500000000000000000e+00,-3.002994520471934936e-01,-4.619275546222225692e-01,1.000182698692275302e-01,-1.701226270395590767e-01,5.335276495726529872e-02,4.078775335978796521e-05,-3.816071470223968577e-03,6.137410104176918872e-04,8.932532179840688702e-01,1.232715968521831337e-02,-4.987132010146490442e-03,-2.993890990693097720e-01
1.750000000000000000e+00,-3.217179198517036709e-01,-4.550796358988843937e-01,1.000227204855653196e-01,-1.726139875888190178e-01,5.592114726466659164e-02,3.105261742928649727e-05,-3.683823653145369952e-03,-6.500137935735274871e-04,8.558290208740906291e-01,4.360520227109467191e-03,-5.586804116521275169e-03,-2.994009024541461894e-01
2.000000000000000000e+00,-3.434945761493145011e-01,-4.479615099022327129e-01,1.000260381806376969e-01,-1.757945194871991801e-01,5.792691420094112781e-02,2.247397802226545546e-05,-4.090574881282196991e-03,-9.286566759922533108e-04,8.184026497352495655e-01,-5.128209382162565375e-03,-1.508295235826461649e-03,-2.994291805785999627e-01
2.250000000000000000e+00,-3.656845423529987982e-01,-4.405509773964593756e-01,1.000283807449324769e-01,-1.790613131816940207e-01,6.080951394317481856e-02,1.573640894260571013e-05,-4.731115563770098460e-03,1.662934381407287507e-04,7.809714612588593008e-01,-1.396046441026637351e-02,6.674621403990308594e-03,-2.994762921099686226e-01
2.500000000000000000e+00,-3.882224702431243402e-01,-4.326507780531545500e-01,1.000301417540803428e-01,-1.811520100453019866e-01,6.587937702359028536e-02,1.347276483282234734e-05,-5.304279882485963063e-03,2.744037375192789115e-03,7.435323992990698905e-01,-2.035379714996361777e-02,1.656417252018883152e-02,-2.995361967427913052e-01
2.750000000000000000e+00,-4.108611267788395138e-01,-4.239244035496087526e-01,1.000320013905220268e-01,-1.805042212469904206e-01,7.402744172963161839e-02,1.703355580281387609e-05,-5.619235856753769694e-03,6.560902239793153616e-03,7.060851966175601957e-01,-2.309051027074934814e-02,2.506941212950748385e-02,-2.995936919028647782e-01
3.000000000000000000e+00,-4.331644844391762117e-01,-4.139618461266039162e-01,1.000345389260841739e-01,-1.757334267525768878e-01,8.553755600394587211e-02,2.327874155226807360e-05,-5.608385232035249975e-03,1.104726060304189739e-02,6.686335735143201786e-01,-2.164435375542531417e-02,2.952657971493788738e-02,-2.996294490992041926e-01
3.250000000000000000e+00,-4.545586473777901704e-01,-4.023610077295772802e-01,1.000376505266372812e-01,-1.660569933185204738e-01,1.000218047293084112e-01,2.505957401554403236e-05,-5.286155215741198191e-03,1.542858655779678380e-02,6.311839022296498181e-01,-1.626808232714971325e-02,2.843535674495211232e-02,-2.996287881977118261e-01
3.500000000000000000e+00,-4.744255533026798255e-01,-3.888087593180952761e-01,1.000403333395490785e-01,-1.515467125233386225e-01,1.164864426864390956e-01,1.614425350500226831e-05,-4.701444242445179320e-03,1.890179017988630888e-02,5.937426225534334634e-01,-7.981337624176182768e-03,2.171639492693093823e-02,-2.995900154123493087e-01
3.750000000000000000e+00,-4.922143267084652662e-01,-3.731457588730067720e-01,1.000411768365517262e-01,-1.331638788465865086e-01,1.335182570521452894e-01,-3.304653768044993859e-06,-3.911862517346669302e-03,2.081540926214574608e-02,5.563136234421002246e-01,1.600295241901232611e-03,1.058106949743107747e-02,-2.995270935974636006e-01
4.000000000000000000e+00,-5.075434843603130464e-01,-3.554018955812945357e-01,1.000392973022413701e-01,-1.125908070718630860e-01,1.495576358099481307e-01,-2.559103416161698558e-05,-2.981914448310638184e-03,2.080855543436955710e-02,5.188964592714851998e-01,1.059867598498418807e-02,-2.837590846197017482e-03,-2.994637401499159468e-01
4.250000000000000000e+00,-5.202716417416712869e-01,-3.357949523621990284e-01,1.000350370449843707e-01,-9.191125381679531026e-02,1.632021952196396342e-01,-3.999652967227186444e-05,-1.991086923525095791e-03,1.888057775871470473e-02,4.814863211888357752e-01,1.729994081927843999e-02,-1.596885829626183001e-02,-2.994215564810804864e-01
4.500000000000000000e+00,-5.305224018349957715e-01,-3.146930157651427473e-01,1.000298955340148538e-01,-7.321265050340018676e-02,1.734730191222271234e-01,-3.966444527131107251e-05,-1.036214573417033836e-03,1.538264306691699591e-02,4.440762035410391606e-01,2.055648286461883231e-02,-2.632228481743978735e-02,-2.994093873891935931e-01
4.750000000000000000e+00,-5.386588587042148157e-01,-2.925494773825383366e-01,1.000257227508184049e-01,-5.819127491865833113e-02,1.799814653924611263e-01,-2.585149257393147600e-05,-2.208959888408173122e-04,1.093865976637336222e-02,4.066603132221437988e-01,2.004343412818516273e-02,-3.197800990117456027e-02,-2.994206178242826422e-01
5.000000000000000000e+00,-5.452132692445008644e-01,-2.698258208010268500e-01,1.000237260459983651e-01,-4.783942026307334144e-02,1.829589109963804805e-01,-6.694635210397274400e-06,3.649991415288250294e-04,6.314811768677678835e-03,3.692366500300693355e-01,1.629339758910541835e-02,-3.197954409571206885e-02,-2.994396176930430586e-01
5.250000000000000000e+00,-5.507865428252541884e-01,-2.469198201829913841e-01,1.000239404100895929e-01,-4.227926641341553382e-02,1.831480147468664277e-01,8.310080292562027897e-06,6.667336585757465371e-04,2.264789428806157807e-03,3.318071355520514909e-01,1.050441323854072601e-02,-2.654813287537446942e-02,-2.994523543758743078e-01
5.500000000000000000e+00,-5.559386118597077209e-01,-2.241145421148736938e-01,1.000254501391538847e-01,-4.078009151223963707e-02,1.815904535366509587e-01,1.403620282513872446e-05,6.780764919932318578e-04,-6.182953503712442130e-04,2.943754573057613122e-01,4.185689693266984000e-03,-1.705070111870846117e-02,-2.994539325884365555e-01
5.750000000000000000e+00,-5.610928909251470253e-01,-2.015573816847730515e-01,1.000271190932651433e-01,-4.195648329860530990e-02,1.793712999041023604e-01,1.180434255941372277e-05,4.418750058736946448e-04,-2.013090624927103053e-03,2.569443861913779381e-01,-1.250231869555293524e-03,-5.700247271425261907e-03,-2.994487794623221788e-01
6.000000000000000000e+00,-5.664749920856547716e-01,-1.792701762302539026e-01,1.000282760327331627e-01,-4.410296343631014970e-02,1.773873677514457570e-01,6.897692738672888650e-06,3.823549548210495967e-05,-1.920541664144920268e-03,2.195144348852377525e-01,-4.832176993701713455e-03,4.961399077152655809e-03,-2.994447540319439827e-01
6.250000000000000000e+00,-5.720979137726355246e-01,-1.571836048223941851e-01,1.000289151979658064e-01,-4.558578279472380590e-02,1.761950318552991390e-01,3.963994329430832875e-06,-4.354291195657453064e-04,-6.423320123298472285e-04,1.820844393697688968e-01,-6.221519071817326399e-03,1.267931089056033127e-02,-2.994463930827760412e-01
6.500000000000000000e+00,-5.777947201508553121e-01,-1.351837266526634274e-01,1.000293888516503166e-01,-4.519621961791874670e-02,1.759667751794548318e-01,3.981584046950852996e-06,-8.865866375722661124e-04,1.308101975037728824e-03,1.446531596250630325e-01,-5.709051951757582177e-03,1.604156521527827506e-02,-2.994521775666841856e-01
6.750000000000000000e+00,-5.832880283902492913e-01,-1.131569357910565815e-01,1.000299439092555837e-01,-4.237785351818332963e-02,1.765532536388475793e-01,4.752597487604834805e-06,-1.246409497560558481e-03,3.341158965446339949e-03,1.072204699847053300e-01,-4.033910949988529608e-03,1.482431913008671817e-02,-2.994569073048357066e-01
7.000000000000000000e+00,-5.882765299298624573e-01,-9.102198316701190506e-02,1.000305018060947682e-01,-3.727234073063696168e-02,1.776183630477407849e-01,3.811881132787359094e-06,-1.481147079147262678e-03,4.940520974632991828e-03,6.978736154740373954e-02,-2.090447198022264436e-03,1.002528371042725810e-02,-2.994563263646659035e-01
7.250000000000000000e+00,-5.925148415577590200e-01,-6.874309745122929305e-02,1.000308012787424067e-01,-3.057641331986118635e-02,1.787967301243173490e-01,8.517728960423803207e-07,-1.594041299282467549e-03,5.789305593559787924e-03,3.235507114259287414e-02,-6.188011653023240072e-04,3.564772504816074265e-03,-2.994500818022774458e-01
7.500000000000000000e+00,-5.958654528849947063e-01,-4.632486503182042109e-02,1.000306924929454666e-01,-2.325460962234677381e-02,1.798210713271828631e-01,-2.333012917346822826e-06,-1.618032006163722461e-03,5.840274341487739461e-03,-5.075765885239236393e-03,2.237775308760313493e-05,-2.277670699730302215e-03,-2.994412757030971983e-01
7.750000000000000000e+00,-5.983099509158494866e-01,-2.379532138271897232e-02,1.000302811538097830e-01,-1.619363528049047249e-02,1.805813303544972215e-01,-3.830129874030168480e-06,-1.601611598283369641e-03,5.310351385874205465e-03,-4.250532601078883810e-02,-7.132038355056506218e-05,-5.546272780600970675e-03,-2.994339246730891579e-01
8.000000000000000000e+00,-5.999189471640875571e-01,-1.186843715585116478e-03,1.000298206729064443e-01,-9.903220341011039624e-03,1.811040049441243749e-01,-3.274813978428950254e-06,-1.591809241003332110e-03,4.598648593395062573e-03,-7.993426320299309995e-02,-4.547386484229001130e-04,-5.220646121350669758e-03,-2.994308150193244478e-01
8.250000000000000000e+00,-6.007928761011132046e-01,2.147608113785075268e-02,1.000295112779511775e-01,-4.357666986087340745e-03,1.814702839792960432e-01,-1.651970807513224996e-06,-1.619020516443104955e-03,4.148397648602334016e-03,-1.173633134448985593e-01,-5.770345969503906268e-04,-1.564106529587711361e-03,-2.994329214441893705e-01
8.500000000000000000e+00,-6.009952825892245221e-01,4.417711704156079833e-02,1.000294186785628120e-01,9.680740701785642147e-04,1.817152816251693670e-01,9.790614807605991663e-08,-1.687963369957829135e-03,4.291568962230634526e-03,-1.547931096318303501e-01,-7.149672536519242536e-05,3.927694133143829966e-03,-2.994396291321853032e-01
8.750000000000000000e+00,-6.005031307401668128e-01,6.689726731900956513e-02,1.000295394304826224e-01,6.875223609908238248e-03,1.817585668630325446e-01,1.764313788245108284e-06,-1.777421894804077137e-03,5.124535882671496165e-03,-1.922240579562139451e-01,1.029674918389825514e-03,9.002359374031381964e-03,-2.994486863684939770e-01
9.000000000000000000e+00,-5.991934782725661934e-01,8.959957606142054942e-02,1.000298534238831805e-01,1.410311544711024927e-02,1.814037406870452340e-01,3.091429423161566307e-06,-1.848954099844040463e-03,6.458696080673231865e-03,-2.296560766178117607e-01,2.259478412777550516e-03,1.143111542682392207e-02,-2.994561986192544323e-01
9.250000000000000000e+00,-5.968735368233276661e-01,1.122188499793298350e-01,1.000302533232203389e-01,2.299477335984398060e-02,1.804148416660531495e-01,2.937084006302109136e-06,-1.861988852942412197e-03,7.870004619782010324e-03,-2.670883747010864839e-01,2.898876987660475857e-03,9.848529240924245795e-03,-2.994579188890108545e-01
9.500000000000000000e+00,-5.933453036158320426e-01,1.346644931153734848e-01,1.000304663233882729e-01,3.329330760647652987e-02,1.786404163751879048e-01,9.076480190044160246e-08,-1.790492776674160831e-03,8.840136770901374161e-03,-3.045196937840142781e-01,2.325789144543795317e-03,4.352444248442348743e-03,-2.994518881591752280e-01
9.750000000000000000e+00,-5.884819713501280303e-01,1.568388774642056616e-01,1.000301718950828839e-01,4.415940966243252219e-02,1.761273343005978764e-01,-4.775410719468721429e-06,-1.635419458815076362e-03,8.948958680255515025e-03,-3.419490725368948270e-01,3.933335435500758220e-04,-3.381970170961709401e-03,-2.994403114721434500e-01
1.000000000000000000e+01,-5.822865397262031451e-01,1.786657244182916493e-01,1.000292955671652079e-01,5.442605376451624399e-02,1.731598695726403181e-01,-8.650690731841830867e-06,-1.427982421440511778e-03,8.055058063640601826e-03,-3.793765401273934135e-01,-2.336783913824674180e-03,-1.056480069782836893e-02,-2.994284337059490153e-01
1.025000000000000000e+01,-5.749067175306730171e-01,2.001160470686143000e-01,1.000281685075541799e-01,6.301890604851052846e-02,1.701817247798703414e-01,-8.632235932516963290e-06,-1.221438307471725201e-03,6.398185469303028540e-03,-4.168030489282382733e-01,-4.644506981446581625e-03,-1.421303998854953586e-02,-2.994210484968678476e-01
1.050000000000000000e+01,-5.665939683026575135e-01,2.212166879665309338e-01,1.000273030633306720e-01,6.940170748391019662e-02,1.676044086270514488e-01,-4.939764443393459079e-06,-1.072882604438045234e-03,4.577913326121838163e-03,-4.542297231971434979e-01,-5.021720696189926371e-03,-1.223269982957205827e-02,-2.994200507167072978e-01
1.075000000000000000e+01,-5.576142257824482362e-01,2.420303781891438299e-01,1.000269762125551715e-01,7.388262056335270778e-02,1.655585257847302094e-01,-5.797231962271401487e-07,-1.020321182547568673e-03,3.401181671912884789e-03,-4.916572906953167177e-01,-2.266687746963791470e-03,-4.283535934096594118e-03,-2.994253251556669437e-01
1.100000000000000000e+01,-5.481366681457394696e-01,2.626060897447134446e-01,1.000271235065677000e-01,7.765212646027593035e-02,1.636835358383160743e-01,2.738024778656557443e-06,-1.062610203968555878e-03,3.635344070101971959e-03,-5.290862824802345932e-01,3.903366777134928151e-03,7.896165388196881019e-03,-2.994369341330792578e-01
1.125000000000000000e+01,-5.381381149173005696e-01,2.829112123502232623e-01,1.000277394033436407e-01,8.250667323927543539e-02,1.610578481174959609e-01,7.597050206112607600e-06,-1.149816159008614338e-03,5.738348861616668524e-03,-5.665173752768508653e-01,1.246861771173993390e-02,2.085571437999103606e-02,-2.994544078537371146e-01
1.150000000000000000e+01,-5.273595503149494101e-01,3.027680306753364747e-01,1.000292856066672398e-01,9.031813131695809460e-02,1.563370680582150951e-01,1.778429683319026814e-05,-1.188987741937920029e-03,9.651746521302876844e-03,-6.039506629143269745e-01,2.114670666902751864e-02,3.040859803661532385e-02,-2.994727606029666256e-01
1.175000000000000000e+01,-5.153374808529712636e-01,3.218213910912535725e-01,1.000323706574025168e-01,1.024013828380500174e-01,1.481014073127918385e-01,3.088979331391962372e-05,-1.065881107302252880e-03,1.472934042352753818e-02,-6.413838772570317204e-01,2.691573799409373649e-02,3.292539237467915353e-02,-2.994810766039094907e-01
1.200000000000000000e+01,-5.015102098712650447e-01,3.395595046613542056e-01,1.000366830039117472e-01,1.189784274537302039e-01,1.353351570121152647e-01,3.524867428840777528e-05,-6.780719137023973053e-04,1.983714997199437918e-02,-6.788116481401335056e-01,2.690656483075524324e-02,2.652993612622489214e-02,-2.994697945192150712e-01
1.225000000000000000e+01,-4.853747671703900757e-01,3.553958951542399713e-01,1.000402300140092182e-01,1.389197850478018637e-01,1.178993327699220106e-01,1.787002787698696693e-05,2.933430898881120904e-05,2.360990135684743960e-02,-7.162281672393907561e-01,1.940223290026985709e-02,1.180508787268385630e-02,-2.994439032587432603e-01
1.250000000000000000e+01,-4.666520933180716701e-01,3.688012292948689708e-01,1.000400983586201276e-01,1.598667195620767645e-01,9.683687951151564999e-02,-2.118315639026295999e-05,1.036135527122794293e-03,2.480077589405194419e-02,-7.536327460635191544e-01,4.611232466893475102e-03,-8.235780689683971229e-03,-2.994290753817015482e-01
1.275000000000000000e+01,-4.454122729429709771e-01,3.794551016601384608e-01,1.000346804997366973e-01,1.787240148250023031e-01,7.438030198583416019e-02,-6.197801450119730295e-05,2.237189462132316026e-03,2.262928914082636828e-02,-7.910338963004407420e-01,-1.508027919928461510e-02,-2.892319902198421666e-02,-2.994590541255541249e-01
1.300000000000000000e+01,-4.221205421417459913e-01,3.873762527230563135e-01,1.000256415890662248e-01,1.923974362493687251e-01,5.361055485938292370e-02,-7.565320456561458560e-05,3.455403303788686601e-03,1.702771283936300312e-02,-8.284469601558769325e-01,-3.551982268812136495e-02,-4.521863098110664309e-02,-2.995484363921601112e-01
1.325000000000000000e+01,-3.975862175083355043e-01,3.929900357972884173e-01,1.000175970457138908e-01,1.985705930918751361e-01,3.782203545181395121e-02,-4.725553382319752692e-05,4.475838479204345688e-03,8.712791293540526200e-03,-8.658848741409468364e-01,-5.178528001500495165e-02,-5.311025770213756436e-02,-2.996719206774973721e-01
1.350000000000000000e+01,-3.728240390871727650e-01,3.971053859280277432e-01,1.000151882971211520e-01,1.963015737449432807e-01,2.974590359648189575e-02,8.735976863530379329e-06,5.092518342881098385e-03,-9.414383070418544603e-04,-9.033480432212288580e-01,-5.949159329630566290e-02,-5.069094901973353329e-02,-2.997711017349821150e-01
1.375000000000000000e+01,-3.488619552266055690e-01,4.007966337253708877e-01,1.000196136155405979e-01,1.862749565722773282e-01,3.083777746231684824e-02,5.572219773157961726e-05,5.155764703509723747e-03,-1.019932918891993529e-02,-9.408215472480513375e-01,-5.603323131049865735e-02,-3.861668055087549151e-02,-2.997896910789963343e-01
1.400000000000000000e+01,-3.265436270097058502e-01,4.052114659120955031e-01,1.000274702154087120e-01,1.706472414319431252e-01,4.082895703952289096e-02,6.160044997815400120e-05,4.608168907569219590e-03,-1.735354194475614495e-02,-9.782831706975965158e-01,-4.139797352595703944e-02,-1.984623343483964131e-02,-2.997135449565375143e-01
1.425000000000000000e+01,-3.063742145320855759e-01,4.113475967667498123e-01,1.000330695159383082e-01,1.525383353090856431e-01,5.767587200834740913e-02,2.361385246484465418e-05,3.500718512214379304e-03,-2.111101982080039116e-02,-1.015717406144422963e+00,-1.829304902317403433e-02,1.228386599600423713e-03,-2.995844175608980975e-01
1.450000000000000000e+01,-2.884450272549018979e-01,4.198510847543693858e-01,1.000325462357202488e-01,1.353151050551966439e-01,7.793785603718847432e-02,-2.933984329959501218e-05,1.985541461728733328e-03,-2.087778413198274410e-02,-1.053125482654070577e+00,8.481686231520011929e-03,1.998426624255195128e-02,-2.994744852941995661e-01
1.475000000000000000e+01,-2.724507412101291326e-01,4.308854324740744590e-01,1.000265593621254834e-01,1.218603729561399951e-01,9.749717226173235107e-02,-5.909663417112388334e-05,2.870501483519494971e-04,-1.687253433009404391e-02,-1.090524078567286947e+00,3.324198366848220981e-02,3.274405672109915316e-02,-2.994391278291722025e-01
1.500000000000000000e+01,-2.578548975761697504e-01,4.440716237174084924e-01,1.000220896749978300e-01,1.113041160421493203e-01,1.111473954319509433e-01,1.871773765531193880e-05,9.816478968930779370e-03,-1.023219532747633373e-02,-1.108787327031876435e+00,1.389461924036677343e-01,-1.497105771566151211e-01,6.377374774821620296e-02
1.525000000000000000e+01,-2.455394953619831344e-01,4.578575119177029640e-01,1.000502784001627288e-01,8.201440987576556763e-02,1.054686793265889738e-01,4.511792173512971823e-04,3.927133829125310088e-02,-3.127321899910895982e-03,-1.087470100875366219e+00,1.556068483770377819e-01,-1.806988569713851300e-01,2.375951145465225733e-01
1.550000000000000000e+01,-2.386118749463309319e-01,4.693457955651605951e-01,1.001144306001658518e-01,2.748328850592879694e-02,7.581738138181258468e-02,4.157237556936887275e-04,6.032331978042691084e-02,2.893284926763582850e-03,-1.054136571628537578e+00,8.279499567970134699e-02,-6.002963657156368954e-02,2.843931405800882439e-01
1.575000000000000000e+01,-2.392516604640001210e-01,4.760358016471591402e-01,1.001220625593145092e-01,-3.510554130535951251e-02,3.139613281567465303e-02,-2.993078661895694648e-04,6.091308319990157427e-02,7.454880390118280228e-03,-1.017621526000068499e+00,-1.106665415283181880e-02,7.760692644864404521e-02,2.967605768908986863e-01
1.600000000000000000e+01,-2.470896590863469466e-01,4.769699509356692402e-01,1.000539718169980025e-01,-8.526376920318982922e-02,-1.406470302434186838e-02,-6.549287233209834464e-04,4.497565517578097638e-02,1.072596825105837787e-02,-9.804471917924557633e-01,-7.349375042351860565e-02,1.480498549674410524e-01,2.995845816610000489e-01
1.625000000000000000e+01,-2.597410741598816797e-01,4.727428417478389266e-01,9.998592314091983568e-02,-1.121860526641831474e-01,-5.033297538435149709e-02,-3.768595805820743375e-04,2.374073311396141320e-02,1.261406446034136000e-02,-9.432132846834364592e-01,-8.799861764944379161e-02,1.362920115208815230e-01,2.999957286836616999e-01
1.650000000000000000e+01,-2.742885720552318274e-01,4.647966367903001439e-01,9.996389906829271366e-02,-1.174359560178400291e-01,-7.396576878675405198e-02,-1.797437061287044825e-05,7.119286616290113404e-03,1.266480631537952005e-02,-9.059279416506617055e-01,-6.801994911707312519e-02,7.408799525028979260e-02,2.999524878596781519e-01
1.675000000000000000e+01,-2.885817418449022620e-01,4.546191458568212829e-01,9.997176574963902163e-02,-1.103733907359528699e-01,-8.701227389782502375e-02,1.018497410105813935e-04,-6.596578028578354604e-04,1.052755494713708724e-02,-8.685360608216053935e-01,-3.787669267596525252e-02,5.427337825959580205e-03,2.997997968706554439e-01
1.700000000000000000e+01,-3.017801515093149201e-01,4.432685892273180439e-01,9.998408295381959465e-02,-1.015322310075903595e-01,-9.364561869290236040e-02,8.890841272859913722e-05,-8.708306695458351791e-04,6.451690730735266943e-03,-8.310782693603010474e-01,-1.604658718438158049e-02,-3.888819539798618607e-02,2.995898162570775347e-01
1.725000000000000000e+01,-3.141634585028013071e-01,4.313073301855986919e-01,9.999422013575198775e-02,-9.790334429311264852e-02,-9.730805646030651901e-02,7.722961133276327666e-05,2.485222955329233728e-03,1.396597169939098456e-03,-7.936287781316319068e-01,-8.042323551607343662e-03,-5.011683419723275690e-02,2.994200325111269767e-01
1.750000000000000000e+01,-3.265629160880642590e-01,4.189837761850800368e-01,1.000036686909266392e-01,-1.015068572456214735e-01,-9.961279079043401652e-02,7.247870291448243150e-05,5.663057199317338662e-03,-3.283040944474276655e-03,-7.562092084743533560e-01,-8.826318795539323317e-03,-3.644846296343332709e-02,2.993565129393657709e-01
1.775000000000000000e+01,-3.397948925329324354e-01,4.064420168130204458e-01,1.000115355834818170e-01,-1.105344988346014107e-01,-1.008268629414675599e-01,5.122550041447131988e-05,6.814386118779599405e-03,-6.334783969243350590e-03,-7.187939517384248633e-01,-9.922386094095741668e-03,-1.230605357879398232e-02,2.993790968699745481e-01
1.800000000000000000e+01,-3.543178986092593852e-01,3.938190611904009986e-01,1.000160523155930736e-01,-1.214821792064860739e-01,-1.009875926244069022e-01,2.257811127954547378e-05,6.038043706250904863e-03,-7.007953545480434185e-03,-6.813627118989212805e-01,-5.737882264858025841e-03,1.043736066272180942e-02,2.994337180210243643e-01
1.825000000000000000e+01,-3.701444643132806855e-01,3.812142114010521055e-01,1.000175835939554891e-01,-1.309428841021562928e-01,-1.007209341450991252e-01,5.347825074366133348e-06,4.463247563040061670e-03,-5.197755170568044147e-03,-6.439199595602060899e-01,3.947535392346202682e-03,2.610948567087158917e-02,2.994894632646863397e-01
1.850000000000000000e+01,-3.869201906907167587e-01,3.686016036478831914e-01,1.000180888443997912e-01,-1.364900879448164850e-01,-1.013364380399187220e-01,5.379956081186884670e-06,3.207311561322991143e-03,-1.344152846269236912e-03,-6.064758504987864951e-01,1.526504245955138603e-02,3.435251046768280497e-02,2.995417921172386366e-01
1.875000000000000000e+01,-4.040583310822852270e-01,3.557729094479792908e-01,1.000194522859877005e-01,-1.367675473912816353e-01,-1.043254912062569484e-01,1.723822940546502217e-05,2.770355282939644323e-03,3.795037372371005361e-03,-5.690301838805335022e-01,2.334466464140665456e-02,3.720049868670233240e-02,2.995877621708382677e-01
1.900000000000000000e+01,-4.208573603714338418e-01,3.423588737656594883e-01,1.000225242671329423e-01,-1.312160233062040771e-01,-1.106845805577558878e-01,3.083554978865612822e-05,2.989090720240152477e-03,9.367865374521514021e-03,-5.315780811288944863e-01,2.504435197711024977e-02,3.650971686578734915e-02,2.996141687406189136e-01
1.925000000000000000e+01,-4.365827959918371914e-01,3.279240782845204150e-01,1.000268434081978131e-01,-1.198212667541820459e-01,-1.204650149980136808e-01,3.603694890833887294e-05,3.349642452706016668e-03,1.457841535806071905e-02,-4.941220829021743532e-01,2.009284136714035648e-02,3.290150166424282013e-02,2.996075373722901780e-01
1.950000000000000000e+01,-4.505287702000551064e-01,3.120919541001062614e-01,1.000309393927373558e-01,-1.030421058430104481e-01,-1.327348426800738224e-01,2.742659738769170750e-05,3.364331535979642965e-03,1.876190248148549428e-02,-4.566733097983104450e-01,1.061336564353902896e-02,2.611202776600875242e-02,2.995687948868552275e-01
1.975000000000000000e+01,-4.620800956620905175e-01,2.946498051251462136e-01,1.000331399782051212e-01,-8.186505824042573931e-02,-1.459003440041341526e-01,7.034986629178463991e-06,2.803710054822880667e-03,2.142120330106635565e-02,-4.192420835692625691e-01,-2.275645484282517376e-04,1.596155203541023068e-02,2.995158757968880425e-01
2.000000000000000000e+01,-4.707813766431790392e-01,2.756005608817390651e-01,1.000324388470322373e-01,-5.783784974679725271e-02,-1.581947060649049608e-01,-1.728955597311849555e-05,1.727579911659273167e-03,2.225927974832355230e-02,-3.818292786413214901e-01,-9.568850216055408212e-03,3.139997183190406261e-03,2.994731573071882647e-01
2.025000000000000000e+01,-4.764020406011135744e-01,2.551539971957599295e-01,1.000289618608832393e-01,-3.296223976116589849e-02,-1.681296590096370280e-01,-3.608868480127649356e-05,3.766667503881421957e-04,2.121616972996206302e-02,-3.444260081896107217e-01,-1.565240655261298033e-02,-1.061113837732145966e-02,2.994578869408346389e-01
2.050000000000000000e+01,-4.789768977391775095e-01,2.336714400070029340e-01,1.000238900726990038e-01,-9.419225155730667765e-03,-1.747803369966290377e-01,-4.246463407321106982e-05,-9.726559157369572958e-04,1.849385934182674537e-02,-3.070200724515899093e-01,-1.797226024540965819e-02,-2.290565179195690193e-02,2.994728251807427521e-01
2.075000000000000000e+01,-4.788046494999376179e-01,2.115878861072469641e-01,1.000189353624096888e-01,1.080921437850171363e-02,-1.778699720050181399e-01,-3.496783606934627500e-05,-2.112571887822905191e-03,1.454366054962884583e-02,-2.696028743280949325e-01,-1.698640276155684650e-02,-3.142636611093153204e-02,2.995072046129826360e-01
2.100000000000000000e+01,-4.763984348722368756e-01,1.893346703506648687e-01,1.000155900633051126e-01,2.630977221453170353e-02,-1.776917782569107374e-01,-1.821160713914637069e-05,-2.939992676475644811e-03,1.000103169055602606e-02,-2.321723672405606176e-01,-1.368316553033335596e-02,-3.461079062730013783e-02,2.995431750835418350e-01
2.125000000000000000e+01,-4.723967335960511105e-01,1.672788327480388693e-01,1.000144967207083346e-01,3.649104424877393921e-02,-1.749346015670180388e-01,-4.061173957540343542e-07,-3.440070410937082039e-03,5.573412737230166482e-03,-1.947318921086937105e-01,-9.208606541649353230e-03,-3.207143997759469289e-02,2.995640326995532843e-01
2.150000000000000000e+01,-4.674540168542797303e-01,1.456869900209612212e-01,1.000152845216563252e-01,4.165387547920655631e-02,-1.704755135428565327e-01,1.120831384594290357e-05,-3.649358738847201852e-03,1.905391295920424435e-03,-1.572871679817084978e-01,-4.625277360795827797e-03,-2.466534278369680519e-02,2.995610604413244116e-01
2.175000000000000000e+01,-4.621353292497393794e-01,1.247146942615870585e-01,1.000169587440293134e-01,4.286707834281975465e-02,-1.651850509679808898e-01,1.412567244797380225e-05,-3.624858756478082332e-03,-5.460867071582322426e-04,-1.198434768333461742e-01,-7.752010795372995915e-04,-1.425394948246274003e-02,2.995363408953100604e-01
2.200000000000000000e+01,-4.568371972128186242e-01,1.044176836048688328e-01,1.000185593433280812e-01,4.168506132852479312e-02,-1.597740690453610390e-01,1.097616086972703239e-05,-3.428825255974114663e-03,-1.597139827308550249e-03,-8.240395438648852322e-02,1.806288270400916362e-03,-3.259561258886216947e-03,2.995003709456701690e-01
2.225000000000000000e+01,-4.517504422073542747e-01,8.477856216483967144e-02,1.000196377691699307e-01,3.977578784288987590e-02,-1.547004114149681531e-01,6.582129355819407730e-06,-3.125203040070193700e-03,-1.364837321921640641e-03,-4.496917960391473568e-02,2.951254029202100317e-03,5.865922560867012532e-03,2.994660189300610842e-01
2.250000000000000000e+01,-4.468708429035399554e-01,6.574066639396661249e-02,1.000202792350121245e-01,3.854150587744548800e-02,-1.501460003227650386e-01,4.187452489482054981e-06,-2.778242971532008700e-03,-2.328325914966507411e-04,-7.537879161941831406e-03,2.878294923919803936e-03,1.115969733996130531e-02,2.994425359112428686e-01
2.275000000000000000e+01,-4.420532377390514189e-01,4.724013113107894402e-02,1.000207627758183532e-01,3.881310932134286046e-02,-1.460652787276312814e-01,3.736265073766629568e-06,-2.446568102524537564e-03,1.237679880799956184e-03,2.989183838073916286e-02,2.134497117513825017e-03,1.156684475418841805e-02,2.994329541515916571e-01
2.300000000000000000e+01,-4.370954034005284927e-01,2.922792314082322748e-02,1.000212052657152018e-01,4.068366002330675579e-02,-1.422917973751148535e-01,3.174521771160703901e-06,-2.172178216168052945e-03,2.433870254828647637e-03,6.732151944926334508e-02,1.441440111115958010e-03,7.177316347203470392e-03,2.994354138010914546e-01
2.325000000000000000e+01,-4.318315487055815471e-01,1.167629778972672887e-02,1.000214898419791582e-01,4.351838029884844139e-02,-1.386738645347362908e-01,1.233366350411575036e-06,-1.968928172396532377e-03,2.828333412628798900e-03,1.047521217517874137e-01,1.469655899422026056e-03,-7.852648734817181978e-04,2.994461119418039274e-01
2.350000000000000000e+01,-4.262130087634343756e-01,-5.431426409756788878e-03,1.000214925716749886e-01,4.613987119814013521e-02,-1.351990940648677975e-01,-9.522980608340439363e-07,-1.816430181078420442e-03,2.097559422854152009e-03,1.421842210040764609e-01,2.609090663358138058e-03,-1.024445500815975019e-02,2.994610680441230910e-01
2.375000000000000000e+01,-4.203566014718874699e-01,-2.212373324530144889e-02,1.000213442818290860e-01,4.714546474560590839e-02,-1.320679058951050311e-01,-8.611949852819910606e-07,-1.663232691498560834e-03,1.943849313041993954e-04,1.796180261201286155e-01,4.819137157703191898e-03,-1.876973495069236483e-02,2.994759524566302233e-01
2.400000000000000000e+01,-4.145488289441616181e-01,-3.846814182904455953e-02,1.000214358930807956e-01,4.527976883676718828e-02,-1.296899306525445827e-01,2.735089801902060054e-06,-1.439278940515472142e-03,-2.642977565264411147e-03,2.170529422055920699e-01,7.618620296624257701e-03,-2.416725992822091676e-02,2.994856608665125153e-01
2.425000000000000000e+01,-4.092049031376766011e-01,-5.459275278609226900e-02,1.000221182077122295e-01,3.977106206500238134e-02,-1.286011004423354143e-01,7.968996682306877380e-06,-1.074131282504813900e-03,-5.946715542690975478e-03,2.544871563207061760e-01,1.022333345499868915e-02,-2.499783604136535109e-02,2.994856849073090910e-01
2.450000000000000000e+01,-4.047925444162228659e-01,-7.069344236604960252e-02,1.000233415196358638e-01,3.055129875329071210e-02,-1.293244330674090392e-01,1.075134671427056067e-05,-5.156762092486956960e-04,-9.124069683627873337e-03,2.919180032879414299e-01,1.178114837116879879e-02,-2.087577104034290046e-02,2.994752756285238848e-01
2.475000000000000000e+01,-4.017385432609860696e-01,-8.702214990339650347e-02,1.000245595514681618e-01,1.831321317591997830e-02,-1.322146994817662569e-01,7.757908054585958412e-06,2.556546321370469876e-04,-1.158218907179591611e-02,3.293433340421177413e-01,1.161893530520146343e-02,-1.247451850578318484e-02,2.994599952617367222e-01
2.500000000000000000e+01,-4.003390187492801844e-01,-1.038570873057061417e-01,1.000250161676172339e-01,4.403080963765180697e-03,-1.373302667651975228e-01,-8.703897205419978977e-07,1.220257337531476492e-03,-1.284095466389350952e-02,3.667632090196359385e-01,9.417678096920499911e-03,-1.264703338572609453e-03,2.994509430053357568e-01
2.525000000000000000e+01,-4.006917129698759905e-01,-1.214605248096318479e-01,1.000242283207358751e-01,-9.411180495256531858e-03,-1.443643766304130438e-01,-1.122071351758248571e-05,2.321036285434679644e-03,-1.260854807036272673e-02,4.041807822547126006e-01,5.270306389533378419e-03,1.090288257619460334e-02,2.994601608363840484e-01
2.550000000000000000e+01,-4.026619119905619493e-01,-1.400326284622939454e-01,1.000223342093002898e-01,-2.123262412209488831e-02,-1.526486854123088599e-01,-1.782337454440133807e-05,3.472086976161956919e-03,-1.080931892429271013e-02,4.416016299910450749e-01,-3.692518117329702480e-04,2.221830365639069008e-02,2.994945581458743344e-01
2.575000000000000000e+01,-4.058852380785937797e-01,-1.596701455942795833e-01,1.000200876788372023e-01,-2.932279639719984066e-02,-1.612227844232555218e-01,-1.671599431528862515e-05,4.571878565243134122e-03,-7.569952344158751428e-03,4.790316972600208167e-01,-6.796664537866672212e-03,3.121182694392852369e-02,2.995517697208696095e-01
2.600000000000000000e+01,-4.098032944098505825e-01,-1.803371003341314727e-01,1.000185221102270067e-01,-3.233566029095383265e-02,-1.689518081240884706e-01,-7.454361217687952929e-06,5.518011082908395176e-03,-3.180984104594128479e-03,5.164748114198116635e-01,-1.317230665788897068e-02,3.688193442916170434e-02,2.996200264936842994e-01
2.625000000000000000e+01,-4.137237305746930272e-01,-2.018521848478014025e-01,1.000184816682235800e-01,-2.947528069940219889e-02,-1.746718265862758912e-01,6.733578543897645691e-06,6.220850674713968714e-03,1.948149629393840579e-03,5.539308848856406842e-01,-1.861217882265856285e-02,3.868801831731318724e-02,2.996817777365295421e-01
2.650000000000000000e+01,-4.168949657414128263e-01,-2.238951641147646499e-01,1.000202371647723604e-01,-2.057627345235000724e-02,-1.773457678964557027e-01,2.028519885384675613e-05,6.614169721905423932e-03,7.330108400130262367e-03,5.913955365449168333e-01,-2.226209910142971232e-02,3.649183069105615268e-02,2.997192935097483524e-01
2.675000000000000000e+01,-4.185864339924906807e-01,-2.460326679641962888e-01,1.000233233350359130e-01,-6.115535160466189016e-03,-1.762154886762038741e-01,2.736231227115321036e-05,6.662064888724807815e-03,1.243697254842972451e-02,6.288612544070345534e-01,-2.338234675397315998e-02,3.052024107355658794e-02,2.997203257273807764e-01
2.700000000000000000e+01,-4.181662626655977544e-01,-2.677619384242439504e-01,1.000266459663317897e-01,1.283779577946495866e-02,-1.709348338410288104e-01,2.402190996093536075e-05,6.362383453903711593e-03,1.674086328834338555e-02,6.663197034210504022e-01,-2.146078875106105857e-02,2.136826689226819717e-02,2.996823233117355545e-01
2.725000000000000000e+01,-4.151688285254547806e-01,-2.885689841129192024e-01,1.000288403524365322e-01,3.473219696922576205e-02,-1.616649169256521579e-01,9.985802274309796113e-06,5.747248521419943620e-03,1.976392351118390345e-02,7.037644380133233346e-01,-1.634307675885102867e-02,1.000680821855748359e-02,2.996139368142445303e-01
2.750000000000000000e+01,-4.093447815856144922e-01,-3.079950599963601210e-01,1.000287897270949050e-01,5.770180846925315049e-02,-1.491105592790916423e-01,-1.065827908288048674e-05,4.881010467092544193e-03,2.113677042695787101e-02,7.411930982700298820e-01,-8.340659850642135123e-03,-2.261267050117598404e-03,2.995328341145762074e-01
2.775000000000000000e+01,-4.006867463339646163e-01,-3.257028994800416077e-01,1.000261246716966507e-01,7.978336933334408132e-02,-1.344801511151734741e-01,-3.048469673045702796e-05,3.855425943109740041e-03,2.065640607883769200e-02,7.786082178747922855e-01,1.730251798094073826e-03,-1.393257438789936159e-02,2.994598792022891698e-01
2.800000000000000000e+01,-3.894258824819036291e-01,-3.415325138909629521e-01,1.000214743805261236e-01,9.915980642592632510e-02,-1.193616470176453170e-01,-4.153777448127309176e-05,2.781610466345443497e-03,1.833006137253537920e-02,8.160161774250843658e-01,1.260932862137196554e-02,-2.351450076709860407e-02,2.994115148032859830e-01
2.825000000000000000e+01,-3.759980868254119701e-01,-3.555364353108986242e-01,1.000163011932842794e-01,1.143962403034558400e-01,-1.055229801540142481e-01,-3.891242184380575963e-05,1.778711932478375425e-03,1.439264059459197456e-02,8.534245867313381417e-01,2.275270765631315362e-02,-2.976879469626318719e-02,2.993936505697825101e-01
2.850000000000000000e+01,-3.609833131046724652e-01,-3.679863931098347196e-01,1.000123322754915833e-01,1.246292560943614985e-01,-9.466163000025114294e-02,-2.334215693744765423e-05,9.602304747663951024e-04,9.291294538141817855e-03,8.908391720962804960e-01,3.056399485841116911e-02,-3.192334635161180739e-02,2.994001691821694400e-01
2.875000000000000000e+01,-3.450261404572189661e-01,-3.793473763704628965e-01,1.000108196755582213e-01,1.296757107064996084e-01,-8.814054227685527709e-02,-1.266677371776262342e-06,4.198746349317688219e-04,3.638258586175524036e-03,9.282616057463237702e-01,3.464839724621104899e-02,-2.979972617880951094e-02,2.994170537697656842e-01
2.900000000000000000e+01,-3.287490781093492243e-01,-3.902200839139021160e-01,1.000119790201105113e-01,1.300417483164321153e-01,-8.675239987660651741e-02,1.791832624005625435e-05,2.191842090378807084e-04,-1.860658458337813509e-03,9.656893478268187003e-01,3.404267852955525364e-02,-2.383387478596376771e-02,2.994302505664770409e-01
2.925000000000000000e+01,-3.126713412713383877e-01,-4.012578696840491954e-01,1.000148954496932197e-01,1.268309218442094100e-01,-9.055082941115619177e-02,2.623024849265913919e-05,3.787814241364514554e-04,-6.491423780851577480e-03,1.003117611583474789e+00,2.838716298479074251e-02,-1.499748164077653600e-02,2.994333723473998621e-01
2.950000000000000000e+01,-2.971448605557701073e-01,-4.130685620696643578e-01,1.000179684097854682e-01,1.215669179337272449e-01,-9.877790080515085058e-02,2.100012015051038261e-05,8.743920349358143187e-04,-9.620268391851569817e-03,1.040542496201462219e+00,1.802209006536863514e-02,-4.645314185568440168e-03,2.994312893343225035e-01
2.975000000000000000e+01,-2.823165240335346327e-01,-4.261144421871854160e-01,1.000197047002417405e-01,1.159583251513037622e-01,-1.099051705210252611e-01,6.368116935568257658e-06,1.638079643719092104e-03,-1.077585866884020298e-02,1.077963696398514193e+00,4.000358782703694258e-03,5.682726344359283199e-03,2.994375469102189546e-01
3.000000000000000000e+01,-2.681217293826776427e-01,-4.406249624645596774e-01,1.000194878416120342e-01,1.116397345413083081e-01,-1.217920011355339976e-01,-8.509378014046879333e-06,2.564644393337302004e-03,-9.716846878517617497e-03,1.115385310844425382e+00,-1.198829194870999933e-02,1.448014636384475050e-02,2.994665100734560381e-01
3.025000000000000000e+01,-2.543098273879184079e-01,-4.565363071277949158e-01,1.000179357236292144e-01,1.099261224346863297e-01,-1.319500088185601716e-01,-1.393945485840818142e-05,3.522840243463089271e-03,-6.477119287439346562e-03,1.152814116246994924e+00,-2.778366960395382487e-02,2.049109751042038977e-02,2.995238714314380490e-01
3.050000000000000000e+01,-2.404974375609217063e-01,-4.734694828337313588e-01,1.000166249172006333e-01,1.116166097825420644e-01,-1.378866679629806580e-01,-4.916411211964314150e-06,4.370742005164698907e-03,-1.381831406722307774e-03,1.190255922420153212e+00,-4.100683472548100755e-02,2.290194398622680955e-02,2.996004313345641545e-01
3.075000000000000000e+01,-2.262413740919480276e-01,-4.907542792323026926e-01,1.000172531783789370e-01,1.168787751129380104e-01,-1.374863641735384889e-01,1.547510013448345520e-05,4.973969902602972358e-03,4.971104313620701952e-03,1.227711733841972741e+00,-4.938200932686737099e-02,2.147892691659221767e-02,2.996730702669907487e-01
3.100000000000000000e+01,-2.111196119035895213e-01,-5.075004581083252253e-01,1.000206125838612736e-01,1.252347395888977200e-01,-1.293760502821442171e-01,3.654219346882552440e-05,5.224644990727968924e-03,1.176692028019519880e-02,1.265175829882510872e+00,-5.110107714536239742e-02,1.662434822093157571e-02,2.997136794336161536e-01
3.125000000000000000e+01,-1.948069784992718934e-01,-5.227104922869126868e-01,1.000259089546853969e-01,1.356555270242854883e-01,-1.132169877366173555e-01,4.479114680899693747e-05,5.058375839880922126e-03,1.806647546003066138e-02,1.302637188746857300e+00,-4.518522200290452095e-02,9.331055636045849228e-03,2.997026830297035982e-01
3.150000000000000000e+01,-1.771325649081559039e-01,-5.354208780917302235e-01,1.000308755443823638e-01,1.467525868802153355e-01,-8.986566957417214951e-02,3.125883118848468294e-05,4.466574491955334174e-03,2.292922484743213293e-02,1.340084074999533081e+00,-3.177882156919885348e-02,1.028716884052863082e-03,2.996405949604642460e-01
3.175000000000000000e+01,-1.581084033016236512e-01,-5.448525372048516058e-01,1.000327730985451219e-01,1.570375223610703252e-01,-6.135806858666687652e-02,-2.297501683532573120e-06,3.501832833787489867e-03,2.555386036323987684e-02,1.377509792489427953e+00,-1.230033394233897431e-02,-6.665819744612820966e-03,2.995507576525471838e-01
3.200000000000000000e+01,-1.379235991976361375e-01,-5.505463920481470375e-01,1.000298705086627299e-01,1.652059412205316435e-01,-3.069326139303304307e-02,-4.228630110299049692e-05,2.274701807952001376e-03,2.541698692012257788e-02,1.414916567676296033e+00,1.061698621609135501e-02,-1.226013461282287470e-02,2.994700520762940688e-01
3.225000000000000000e+01,-1.169043023732041081e-01,-5.524591870630196633e-01,1.000226189617876849e-01,1.703918651690103370e-01,-1.424646380250723819e-03,-6.908025058296801343e-05,9.410824144839951806e-04,2.238534046533575961e-02,1.452315074297074071e+00,3.343270964034703724e-02,-1.470426012950734780e-02,2.994309213567403760e-01
3.250000000000000000e+01,-9.544675683887487994e-02,-5.509981430914751011e-01,1.000137463847661917e-01,1.723383206091350928e-01,2.289378891611205252e-02,-6.762532570826735407e-05,-3.190359727471396849e-04,1.677622342359975580e-02,1.489719293659624411e+00,5.224540826527214465e-02,-1.364276316131267895e-02,2.994440305243499800e-01
3.275000000000000000e+01,-7.393687465156016658e-02,-5.469815547030646430e-01,1.000070168680789046e-01,1.714411360972417919e-01,3.931940773481908125e-02,-3.707562657286013805e-05,-1.328607356791953065e-03,9.345588465935847355e-03,1.527139200514917583e+00,6.350749442164214942e-02,-9.527497633120850240e-03,2.994920422037427588e-01
3.300000000000000000e+01,-5.267366257867452106e-02,-5.415252589029139196e-01,1.000052108345073909e-01,1.686480205758644213e-01,4.607663907273704118e-02,7.027871656518357664e-06,-1.941698477047190761e-03,1.193789828493265750e-03,1.564575430864084238e+00,6.478263911799939101e-02,-3.541796872573679811e-03,2.995395540538049461e-01
3.325000000000000000e+01,-3.181392901522275829e-02,-5.358698073646125382e-01,1.000084968063559149e-01,1.652289107599216877e-01,4.293696383753385637e-02,4.080828627464320486e-05,-2.067765037834662107e-03,-6.405790521391095844e-03,1.602019306721663261e+00,5.538159311638796156e-02,2.668834923400431342e-03,2.995546836435512561e-01
3.350000000000000000e+01,-1.135147257896969644e-02,-5.311769786805248250e-01,1.000142967073140571e-01,1.624672661032909304e-01,3.132558719384654494e-02,4.648341046975380353e-05,-1.687783021421688850e-03,-1.223212693180702332e-02,1.639458522874798208e+00,3.670046448045513610e-02,7.411568812462151698e-03,2.995295709474587453e-01
3.375000000000000000e+01,8.863973497487890110e-03,-5.283336363559039128e-01,1.000188815237186696e-01,1.613464262052660414e-01,1.410485395748926202e-02,2.400053030802402974e-05,-8.592495304806439761e-04,-1.535523555924644609e-02,1.676885169574329426e+00,1.211667909934445106e-02,9.408027121822501102e-03,2.994859913818646580e-01
3.400000000000000000e+01,2.907272286154147581e-02,-5.278029736561578034e-01,1.000197438899450841e-01,1.623125758143822150e-01,-4.947958633130715086e-03,-8.783672818346437047e-06,2.914759714436130755e-04,-1.533558512334220504e-02,1.714300958578990342e+00,-1.361159420495470715e-02,8.172825249797153330e-03,2.994608282522209786e-01
3.425000000000000000e+01,4.953020475065320755e-02,-5.295561275280478153e-01,1.000171348505922986e-01,1.651810513779756739e-01,-2.187586876827785076e-02,-2.857311184550304922e-05,1.589274856618160849e-03,-1.233193655211754954e-02,1.751716065753378349e+00,-3.535777009600116205e-02,4.185414209687396934e-03,2.994800767270494046e-01
3.450000000000000000e+01,7.043146674248029759e-02,-5.331012504175811628e-01,1.000136485673135261e-01,1.692163550523874127e-01,-3.333462505000674841e-02,-2.321338432761296721e-05,2.840520739056967992e-03,-7.081535650423434643e-03,1.789142234037463197e+00,-4.882219609832770535e-02,-1.217442658250300191e-03,2.995393760867999244e-01
3.475000000000000000e+01,9.185616293813919642e-02,-5.376052795128346551e-01,1.000121619351076602e-01,1.733674939077726740e-01,-3.725686852758028356e-02,1.690069610412337128e-07,3.868791012239652331e-03,-7.467940688278410562e-04,1.826584860970609681e+00,-5.159148792964412394e-02,-6.221471412444116306e-03,2.996055049416882499e-01
3.500000000000000000e+01,1.137496687622290698e-01,-5.420812222445514639e-01,1.000137096613253201e-01,1.765935995992015117e-01,-3.322309712963780748e-02,2.188189127885675815e-05,4.548932049954968436e-03,5.341587089839804937e-03,1.864039587918367546e+00,-4.375225960621164506e-02,-9.093263701936700472e-03,2.996381297477093142e-01
3.525000000000000000e+01,1.359456271228667301e-01,-5.455972723269429947e-01,1.000169135802116555e-01,1.781842403938430353e-01,-2.244510110577390208e-02,2.565592861481163386e-05,4.831227685486386841e-03,9.985068775161387924e-03,1.901495550601584261e+00,-2.786209194654282184e-02,-8.750817248261488768e-03,2.996158381683761696e-01
3.550000000000000000e+01,1.582227476409755196e-01,-5.474586240700508588e-01,1.000192983767054095e-01,1.779756194479880094e-01,-7.368392404187273578e-03,1.071402523087687103e-05,4.748971177402186959e-03,1.238638417046320286e-02,1.938942470540898855e+00,-8.261317576620921810e-03,-5.152086468272049774e-03,2.995477171893733970e-01
3.575000000000000000e+01,1.803778649734967543e-01,-5.473203779019381043e-01,1.000192938060115999e-01,1.763925995718946260e-01,8.998362870664362856e-03,-9.567716387850068015e-06,4.406841027419828444e-03,1.231779379393758631e-02,1.976376212785949882e+00,1.009148254564051252e-02,6.471066726240670610e-04,2.994638652816729585e-01
3.600000000000000000e+01,2.022918002556886585e-01,-5.452085398719637155e-01,1.000172659124058949e-01,1.743004015450380362e-01,2.384665017768626549e-02,-2.007756238149087133e-05,3.952690111550085164e-03,1.014494019601034323e-02,2.013799301384160412e+00,2.292399516837693302e-02,6.802850448899412476e-03,2.993947544599812605e-01
3.625000000000000000e+01,2.239665564855181090e-01,-5.414505992165007386e-01,1.000148899422149684e-01,1.727113403402951164e-01,3.522309078366944735e-02,-1.594551237910497550e-05,3.540006225783043359e-03,6.702462987015637801e-03,2.051217273350125936e+00,2.771452418338252524e-02,1.126656178880445017e-02,2.993560772489493038e-01
3.650000000000000000e+01,2.455213860843244444e-01,-5.365404695506119648e-01,1.000136358609806514e-01,1.724398656736355340e-01,4.241229476629863882e-02,-4.179666982528818612e-06,3.290922166450268010e-03,3.058260762619203176e-03,2.088634699859181598e+00,2.422125226077996574e-02,1.245160190574415467e-02,2.993479583727670645e-01
3.675000000000000000e+01,2.671484458806351325e-01,-5.309780528911463016e-01,1.000137600159070328e-01,1.738169877075119441e-01,4.596673869311011795e-02,4.748107556575465925e-06,3.269303725845483424e-03,2.322172882102691027e-04,2.126053918781118046e+00,1.435617525231340681e-02,9.762416528569226037e-03,2.993639117622947654e-01
3.700000000000000000e+01,2.890418130449297629e-01,-5.251272412638062770e-01,1.000145275384073246e-01,1.765566145509883389e-01,4.740475085658889948e-02,6.367974303943471371e-06,3.470249532951452838e-03,-1.055195032766795228e-03,2.163476328336336518e+00,1.480559015511976684e-03,3.807678718145450763e-03,2.993983447784623331e-01
3.725000000000000000e+01,3.113222750970580099e-01,-5.191274640177844235e-01,1.000151919402224449e-01,1.798171313296135498e-01,4.868737737999085519e-02,4.252814691423664069e-06,3.827537867030540459e-03,-5.401522131022097216e-04,2.200903777633816283e+00,-1.063988788999099128e-02,-3.778053303853489212e-03,2.994462529849543642e-01
3.750000000000000000e+01,3.339816543222357548e-01,-5.128761936905372743e-01,1.000156825606879907e-01,1.824378975576373130e-01,5.163697188624447737e-02,4.271546135113035547e-06,4.235778387602592322e-03,1.557511643336595723e-03,2.238338115999408462e+00,-1.889797080409327118e-02,-1.084737941671910788e-02,2.994984681320997377e-01
3.775000000000000000e+01,3.568640459143083143e-01,-5.060788148371211381e-01,1.000164264911896778e-01,1.832737446523062252e-01,5.746211841289043665e-02,7.896805318997152125e-06,4.580530510354231290e-03,4.636271489245859939e-03,2.275779342131183380e+00,-2.161936441811165843e-02,-1.541689436008769273e-02,2.995403725792909477e-01
3.800000000000000000e+01,3.796894273768356420e-01,-4.983442102369450843e-01,1.000176555169940973e-01,1.815202005071012981e-01,6.650772666994969606e-02,1.112211861030401045e-05,4.768116827740280159e-03,7.907116957842904442e-03,2.313224440708213869e+00,-1.884999273516694759e-02,-1.628363540646032837e-02,2.995576587429304438e-01
3.825000000000000000e+01,4.021116648532019333e-01,-4.892943012207270348e-01,1.000189856058330135e-01,1.769277432923751225e-01,7.827277623375560045e-02,9.137723135841909614e-06,4.747492071661005113e-03,1.062002352705200027e-02,2.350668378331286501e+00,-1.212010037900828480e-02,-1.338076399179592875e-02,2.995448578531515471e-01
3.850000000000000000e+01,4.237924345159330142e-01,-4.786558222938719354e-01,1.000196719366140824e-01,1.698420053931679052e-01,9.165663173508362127e-02,1.390915481522493791e-06,4.519086473778023173e-03,1.225784340207130424e-02,2.388106682384640411e+00,-3.808437631598148802e-03,-7.760743726266687049e-03,2.995091457413692759e-01
3.875000000000000000e+01,4.444683350477813821e-01,-4.663117932813368727e-01,1.000192334472038147e-01,1.610649168214371985e-01,1.053331764000747378e-01,-7.869595622762557934e-06,4.129338076405874441e-03,1.264632704775705760e-02,2.425537635965580474e+00,3.663258640714985807e-03,-1.215914974174807893e-03,2.994660816850144291e-01
3.900000000000000000e+01,4.639917104448968432e-01,-4.523048016649238168e-01,1.000178328610054207e-01,1.515901359374744461e-01,1.181267570508687664e-01,-1.343027697711131601e-05,3.653641681479824401e-03,1.195577593289074564e-02,2.462962593913291975e+00,8.548159639355496983e-03,4.337583347943515036e-03,2.994308082747723088e-01
3.925000000000000000e+01,4.823352278617306088e-01,-4.367993841374256947e-01,1.000161134183312067e-01,1.423061232529748976e-01,1.292789779963393892e-01,-1.316999238656794345e-05,3.173555989980196557e-03,1.060182772616604166e-02,2.500384571615108520e+00,1.019692443689267092e-02,7.508547810861830769e-03,2.994112500166420943e-01
3.950000000000000000e+01,4.995628478888829438e-01,-4.200218765466773307e-01,1.000147231988942481e-01,1.337687978270208911e-01,1.385426398837510675e-01,-8.805775828859085824e-06,2.755393752247022997e-03,9.082134367582249748e-03,2.537806443670746592e+00,9.078761098127661675e-03,7.884610934396060755e-03,2.994070163432602794e-01
