time_total,x,y,z,vx,vy,vz,roll,pitch,yaw,roll_rate,pitch_rate,yaw_rate
e-01,9.991575819243189716e-02,-1.438556521994938941e-01,-9.561039514452421978e-03,3.699044323496347188e-04,-1.588829921088461298e-03,2.270823764292326935e-02,1.588493183556764388e+00,-3.957204803527787466e-03,-5.591863573281893179e-03,-2.860634889884235421e-01
2.500000000000000000e-01,4.365040215522034833e-02,-5.248342887351167274e-01,9.995244463012652181e-02,-1.454564638174233038e-01,1.813731244586231847e-02,2.306260702455354599e-04,-2.353739501737210898e-03,2.219189913890165511e-02,1.552731328711146830e+00,1.094429878204063178e-02,-4.893202526759136452e-03,-2.858692262593462985e-01
5.000000000000000000e-01,2.537683360160521498e-02,-5.208569563996664487e-01,9.997494799215277117e-02,-1.467589358942875399e-01,4.419731229039616099e-02,1.395017447129221530e-04,-2.415061650641107862e-03,2.005601130228146581e-02,1.517003868594049232e+00,2.248196411515419185e-02,2.804465420807404890e-03,-2.857659040795776928e-01
7.500000000000000000e-01,7.011007256684583834e-03,-5.138279352474455219e-01,9.998855691131097734e-02,-1.467942367039974105e-01,6.680115018705475027e-02,8.541235620494827009e-05,-1.340985400533535425e-03,1.665659207297437785e-02,1.481304156765370195e+00,3.251094576877571612e-02,9.448834730611621255e-03,-2.857562879520400001e-01
1.000000000000000000e+00,-1.122928213269340156e-02,-5.042832503889083107e-01,9.999729789268793634e-02,-1.447446772211253840e-01,8.436882552944316438e-02,5.922073906311781241e-05,4.566698503585802510e-04,1.219331376255007766e-02,1.445607401815850901e+00,4.091723193483658150e-02,1.031359066610195580e-02,-2.858123595367819125e-01
1.250000000000000000e+00,-2.907628539365841175e-02,-4.929414808241153745e-01,1.000040690607583438e-01,-1.406620787933871297e-01,9.558066599741639469e-02,5.165181292440068443e-05,2.244208555785161523e-03,6.905724190057481275e-03,1.409893183707825237e+00,4.595771918999856653e-02,5.287331621964530375e-03,-2.858895536960117667e-01
1.500000000000000000e+00,-4.633011469200535443e-02,-4.806551144397348541e-01,1.000105627440624895e-01,-1.355048711869767109e-01,9.965280635337647741e-02,5.285500973832984734e-05,3.434655496984492622e-03,1.240602788104214422e-03,1.374158080184989528e+00,4.555336092486644839e-02,-2.526017797345893497e-03,-2.859482474997170343e-01
1.750000000000000000e+00,-6.294560600782173054e-02,-4.683220300912241396e-01,1.000172558113111843e-01,-1.306750893451470164e-01,9.666018345765781117e-02,5.337929949794900896e-05,3.803205684100887090e-03,-4.118668636819022670e-03,1.338412673861539837e+00,3.857696560800728813e-02,-9.233912120951561636e-03,-2.859674775303955307e-01
2.000000000000000000e+00,-7.904818194750197480e-02,-4.567648673524680181e-01,1.000235470854489300e-01,-1.274105294322592508e-01,8.770530609597247673e-02,4.579930012290080155e-05,3.453415154957636176e-03,-8.373743241549293920e-03,1.302670128212993772e+00,2.554437407253094469e-02,-1.211431408400288207e-02,-2.859474136177225789e-01
2.250000000000000000e+00,-9.488158682362636542e-02,-4.466055861405022753e-01,1.000282274889232326e-01,-1.263354597192231366e-01,7.482754093756013858e-02,2.829665193848418647e-05,2.655075353138086278e-03,-1.082087058109339715e-02,1.266937231763080929e+00,8.584006464144538703e-03,-1.041937362649720741e-02,-2.859041643145125988e-01
2.500000000000000000e+00,-1.107181361820386289e-01,-4.381681447612726932e-01,1.000303757422639495e-01,-1.273084986861645618e-01,6.066206701016598618e-02,7.012514008004824043e-06,1.683953164889938044e-03,-1.105698131347915454e-02,1.231212948843608546e+00,-9.124750741915427579e-03,-5.135069996402984345e-03,-2.858605458262238885e-01
2.750000000000000000e+00,-1.267686797965260626e-01,-4.314352880274902602e-01,1.000301939497530296e-01,-1.295477975767996837e-01,4.794003103965782664e-02,-7.499220090823194849e-06,7.355673998970909322e-04,-9.107282489901523392e-03,1.195491999419129092e+00,-2.415308748567266198e-02,1.783100522894573046e-03,-2.858353050627696068e-01
3.000000000000000000e+00,-1.431205159555092032e-01,-4.260712428080920544e-01,1.000290518897320041e-01,-1.319266820692151787e-01,3.895670191891953404e-02,-8.375493962143515774e-06,-8.328294679462573907e-05,-5.439161212869280011e-03,1.159768973983509310e+00,-3.361462044919424907e-02,8.192879846074384298e-03,-2.858344262857744345e-01
3.250000000000000000e+00,-1.597166967844274588e-01,-4.215061835944585722e-01,1.000285921410592610e-01,-1.333205120406493471e-01,3.513061242343262780e-02,1.805071393872899613e-06,-7.221860634031438330e-04,-8.675744039310717215e-04,1.124040907365579267e+00,-3.578335628525493306e-02,1.230451201671037970e-02,-2.858492456562270467e-01
3.500000000000000000e+00,-1.763769528848326551e-01,-4.170646173278726998e-01,1.000295827402935961e-01,-1.329153924103854412e-01,3.674798036083053165e-02,1.284725718478193541e-05,-1.155063848906106878e-03,3.615895950094380387e-03,1.088308215313815719e+00,-3.044562667395894068e-02,1.296162420996973229e-02,-2.858633156542780274e-01
3.750000000000000000e+00,-1.928517266332993862e-01,-4.121107002246024442e-01,1.000314441810893629e-01,-1.304259246159866770e-01,4.294410709279211646e-02,1.489850777359958740e-05,-1.369970197002378688e-03,7.047377627063121548e-03,1.052573984508238913e+00,-1.894213841183886235e-02,9.767862501075322279e-03,-2.858638468186265325e-01
4.000000000000000000e+00,-2.088959188014613555e-01,-4.061801593826905310e-01,1.000328248427595768e-01,-1.261933383038180145e-01,5.192464849834098339e-02,6.053701675727688962e-06,-1.378813195434934946e-03,8.686406200154952323e-03,1.016841761804118338e+00,-3.895968501073566841e-03,3.144570590739131401e-03,-2.858495297098490595e-01
4.250000000000000000e+00,-2.243462585735655768e-01,-3.990712930442860684e-01,1.000327578954378765e-01,-1.211480817263433096e-01,6.138128354744411957e-02,-6.401044716693006144e-06,-1.231576881794893248e-03,8.167463352152001810e-03,9.811131481954237232e-01,1.133012988744717085e-02,-5.678538764967865429e-03,-2.858291148060211340e-01
4.500000000000000000e+00,-2.391849870318087101e-01,-3.908759691785981816e-01,1.000314793217905729e-01,-1.166338721764713510e-01,6.901536493388472915e-02,-1.204310200901766903e-05,-1.019593638156617238e-03,5.580543931028739656e-03,9.453871343202105981e-01,2.334758857767446627e-02,-1.479896576935456863e-02,-2.858126902208612541e-01
4.750000000000000000e+00,-2.535734885850685072e-01,-3.819441944995491389e-01,1.000302523515116393e-01,-1.141123781160516409e-01,7.305763878803307743e-02,-5.954184225592110279e-06,-8.612459528509722358e-04,1.464688377920924604e-03,9.096618120357725656e-01,2.947933954389191785e-02,-2.195655104981750552e-02,-2.858036256306270007e-01
5.000000000000000000e+00,-2.678438215216517593e-01,-3.727902471091730230e-01,1.000303212592213442e-01,-1.147981443417642605e-01,7.266958272627997706e-02,6.881686948390253690e-06,-8.738389702958623655e-04,-3.287952264355027254e-03,8.739368149062990421e-01,2.835464440228963739e-02,-2.501658958740793706e-02,-2.857982940476466172e-01
5.250000000000000000e+00,-2.824442285426608246e-01,-3.639614073095318036e-01,1.000318241085503407e-01,-1.193018096377813086e-01,6.813564932551023634e-02,1.519875134836288096e-05,-1.141748985032517731e-03,-7.603757281032619102e-03,8.382139273452409167e-01,2.021878637029094275e-02,-2.252503060701663978e-02,-2.857936112556924702e-01
5.500000000000000000e+00,-2.978455320683378593e-01,-3.558988684103847056e-01,1.000335767986983843e-01,-1.273727678416702314e-01,6.080184983247276936e-02,1.066170890173735904e-05,-1.691572564874250367e-03,-1.044464762658646462e-02,8.024948717125086617e-01,6.875841620372837894e-03,-1.417933931428428176e-02,-2.857951239050770531e-01
5.750000000000000000e+00,-3.144262397171226908e-01,-3.488222853628343834e-01,1.000339888294005664e-01,-1.378207142372760707e-01,5.277416845188338118e-02,-4.528413805974922767e-06,-2.481418141670619238e-03,-1.102701818606416188e-02,7.667780149036199644e-01,-8.732146694891185917e-03,-1.052988757425279542e-03,-2.858170711306065592e-01
6.000000000000000000e+00,-3.323619182635933478e-01,-3.426640104694625988e-01,1.000324474031648453e-01,-1.486576662339916255e-01,4.644649369179843640e-02,-1.817246517628354509e-05,-3.406524110302431869e-03,-8.994274429980499141e-03,7.310571501168185993e-01,-2.321474434638938836e-02,1.452894805792045822e-02,-2.858720990075194757e-01
6.250000000000000000e+00,-3.515461092134748444e-01,-3.370674981669665171e-01,1.000300470557255322e-01,-1.574463915107342515e-01,4.396849316438079802e-02,-1.712379319626672363e-05,-4.319184852063613460e-03,-4.501931197216076617e-03,6.953242143278570708e-01,-3.352169229207983825e-02,2.945945609993890629e-02,-2.859575097444270741e-01
6.500000000000000000e+00,-3.715645409886318418e-01,-3.314493203293892298e-01,1.000289764740282805e-01,-1.617843426170216814e-01,4.677807187799930960e-02,1.844529920563090974e-06,-5.058132124424727372e-03,1.806370039855606079e-03,6.595746870622173352e-01,-3.762963363051891746e-02,4.055241919949623131e-02,-2.860494488155999049e-01
6.750000000000000000e+00,-3.917327165123355437e-01,-3.251094673275811142e-01,1.000309160745723180e-01,-1.598126646990085109e-01,5.530533017131628037e-02,2.806767123737071706e-05,-5.480865009693303147e-03,8.927528519647759397e-03,6.238119485547845011e-01,-3.495593130590123054e-02,4.529873024380220298e-02,-2.861118180109563092e-01
7.000000000000000000e+00,-4.111921494991054860e-01,-3.173639429461783124e-01,1.000356248719180413e-01,-1.506294772789081582e-01,6.890962256273459874e-02,4.355518532699528540e-05,-5.492032817353144358e-03,1.570333750272418644e-02,5.880471330936176688e-01,-2.640818095232323748e-02,4.248194475549912918e-02,-2.861159148086324655e-01
7.250000000000000000e+00,-4.290464620927507133e-01,-3.076697320908970412e-01,1.000408181306456923e-01,-1.345074761894391457e-01,8.605204399567079054e-02,3.552635699874122257e-05,-5.062070440513085322e-03,2.105449484440385585e-02,5.522939774441861793e-01,-1.407645080331901798e-02,3.249191112775024620e-02,-2.860581176085822408e-01
7.500000000000000000e+00,-4.445088389458374256e-01,-2.957156864227848403e-01,1.000434946991727581e-01,-1.128622400192368785e-01,1.046492318297293639e-01,5.615717591664883004e-06,-4.232561759605076024e-03,2.419184567027078334e-02,5.165616793613124758e-01,-6.646138749503154204e-04,1.724629799877739830e-02,-2.859633010972866263e-01
7.750000000000000000e+00,-4.570294661770906153e-01,-2.814624156118817333e-01,1.000417983444287368e-01,-8.797813268410294152e-02,1.225149860817433961e-01,-3.101041654540260471e-05,-3.107572835019243706e-03,2.475810415757506017e-02,4.808502318640971440e-01,1.118121598923094151e-02,-2.667427280588708293e-04,-2.858712283910368468e-01
8.000000000000000000e+00,-4.663763656044261907e-01,-2.651271339799434745e-01,1.000361253197265404e-01,-6.255781180129149632e-02,1.377824909524655306e-01,-5.567950685432898161e-05,-1.832942053445023962e-03,2.287057808837980252e-02,4.451510229973735244e-01,1.946987982188849373e-02,-1.670358957525895985e-02,-2.858149054211806539e-01
8.250000000000000000e+00,-4.726542332682074354e-01,-2.471222144706675117e-01,1.000287828935511464e-01,-3.920310415417089384e-02,1.492133408607039802e-01,-5.779481188495707320e-05,-5.680559101034601864e-04,1.906030118572953416e-02,4.094519674697963407e-01,2.323966432003972404e-02,-2.914397776618370822e-02,-2.858048800744131257e-01
8.500000000000000000e+00,-4.762605612409152589e-01,-2.279658131919119202e-01,1.000225553689251812e-01,-1.994854200700484775e-02,1.563352506153093679e-01,-3.995031097282111771e-05,5.434169407415600801e-04,1.412847953756491727e-02,3.737436689169311155e-01,2.263174572335657428e-02,-3.572675955514808405e-02,-2.858282565582200285e-01
8.750000000000000000e+00,-4.777926312872882719e-01,-2.081871309216088706e-01,1.000192202586224349e-01,-5.950643742022238177e-03,1.593987897699363498e-01,-1.411073763228253587e-05,1.397046448035899708e-03,8.959995932775469824e-03,3.380229826698029627e-01,1.867695441129137851e-02,-3.598316931392304963e-02,-2.858605733979738273e-01
9.000000000000000000e+00,-4.779291552272803556e-01,-1.882469453537231052e-01,1.000189206012158799e-01,2.609248046910186882e-03,1.591905812349682092e-01,7.044091943373216403e-06,1.940594684435955090e-03,4.340878938169728807e-03,3.022925944003360677e-01,1.289331644877751357e-02,-3.080028750633287751e-02,-2.858810453349031611e-01
9.250000000000000000e+00,-4.773138396653852089e-01,-1.684871444208707048e-01,1.000205699515976376e-01,6.409034752194812598e-03,1.567713161100479369e-01,1.704690446453600446e-05,2.174933340979919201e-03,8.211412965757444900e-04,2.665578854588931401e-01,6.833309518564563770e-03,-2.205326371592143675e-02,-2.858817075875034752e-01
9.500000000000000000e+00,-4.764645238229058277e-01,-1.491137302857827029e-01,1.000227768246413490e-01,6.710407871942617765e-03,1.532141236177898269e-01,1.696778489016888611e-05,2.144625078632873914e-03,-1.350895155929452687e-03,2.308235639738172307e-01,1.711546283294738784e-03,-1.203177557063418550e-02,-2.858670230038065085e-01
9.750000000000000000e+00,-4.757224203178293531e-01,-1.302090725249929193e-01,1.000245983382904019e-01,5.010998446427202511e-03,1.494042179459755260e-01,1.199715338542701375e-05,1.921912816216627285e-03,-2.216911996130658223e-03,1.950919001345938208e-01,-1.801300328073949554e-03,-2.832949019717131978e-03,-2.858471342897453416e-01
1.000000000000000000e+01,-4.752443667718411202e-01,-1.117633154978816268e-01,1.000257580610694474e-01,2.718091284731191486e-03,1.459323779127160992e-01,6.990188577652552456e-06,1.588611235203287808e-03,-2.033575226128702274e-03,1.593628674211052254e-01,-3.594318604067795343e-03,4.110431942568396925e-03,-2.858306844614721398e-01
1.025000000000000000e+01,-4.750302552122582234e-01,-9.371284339091888460e-02,1.000264210849328150e-01,9.185264220673136290e-04,1.430830938118934359e-01,4.096734301936486306e-06,1.220046166216072394e-03,-1.162824295628930426e-03,1.236353168793200286e-01,-3.977047097446285463e-03,8.249479385740355122e-03,-2.858213186793913674e-01
1.050000000000000000e+01,-4.749707881074938243e-01,-7.597535194826356142e-02,1.000268525227689248e-01,2.815977392665372763e-04,1.408927747513697148e-01,3.059129066526115719e-06,8.740378889042302053e-04,3.825185211731892262e-05,8.790810645139199297e-02,-3.460268577805344654e-03,9.854454964679832882e-03,-2.858182583833284163e-01
1.075000000000000000e+01,-4.748989348948753353e-01,-5.847512635331379716e-02,1.000272133239280964e-01,1.088233671799803586e-03,1.392406437255725993e-01,2.762487067685597372e-06,5.863042091735397657e-04,1.298232946837643304e-03,5.218062555186649132e-02,-2.543160077902078056e-03,9.724399046219970449e-03,-2.858188113832403898e-01
1.100000000000000000e+01,-4.746317338945539865e-01,-4.115683808934282595e-02,1.000275395619421165e-01,3.344419005078664003e-03,1.379364721656378967e-01,2.433880287180619468e-06,3.719299450063023871e-04,2.466006485388529471e-03,1.645276738375406680e-02,-1.574137294798447781e-03,8.795359946621648245e-03,-2.858205342158159357e-01
1.125000000000000000e+01,-4.739956488176310656e-01,-2.398992721537747050e-02,1.000278115850101179e-01,6.920036610941432929e-03,1.367818874396849738e-01,1.912992078797881319e-06,2.310940400278882782e-04,3.498879646849294492e-03,-1.927532013694014529e-02,-7.134700253897847955e-04,7.790132867875151912e-03,-2.858220814135964405e-01
1.150000000000000000e+01,-4.728359329892191654e-01,-6.967446998467370818e-03,1.000280137660908564e-01,1.165936002227761260e-02,1.355991204561013685e-01,1.347218329657930396e-06,1.564163662490934323e-04,4.418422073565027308e-03,-5.500343964629592075e-02,1.739649914857389117e-05,7.020703004302191949e-03,-2.858230297294677147e-01
1.175000000000000000e+01,-4.710158648184812891e-01,9.896985858766837660e-03,1.000281492130227212e-01,1.743181471367146601e-02,1.342356381420644063e-01,8.478789032855309788e-07,1.392970574858996174e-04,5.256407833271801652e-03,-9.073142619349176818e-02,6.452013695747946817e-04,6.387245451357942937e-03,-2.858233865866545154e-01
1.200000000000000000e+01,-4.684137413462747257e-01,2.657209380621987360e-02,1.000282240445221488e-01,2.412123971044976070e-02,1.325601205988079234e-01,3.533522497864034173e-07,1.734336028745382869e-04,6.012773165877183419e-03,-1.264591503347452239e-01,1.165468989356956836e-03,5.541243390248700926e-03,-2.858232674442556243e-01
1.225000000000000000e+01,-4.649240098239960650e-01,4.301155472206180663e-02,1.000282278609353065e-01,3.157707458484528690e-02,1.304634738973675379e-01,-3.140110299103606950e-07,2.550009734289498237e-04,6.639537738530779977e-03,-1.621865140505703018e-01,1.510881526796883619e-03,4.123800875614350506e-03,-2.858228505978068767e-01
1.250000000000000000e+01,-4.604650491397284662e-01,5.915743137701662269e-02,1.000281291604731282e-01,3.956289646763571505e-02,1.278706093767726926e-01,-1.284933841126186961e-06,3.802845989138541050e-04,7.052755539825986825e-03,-1.979134811076885825e-01,1.574468211342278405e-03,1.973278597721332250e-03,-2.858224682366463099e-01
1.275000000000000000e+01,-4.549917857044745162e-01,7.494561578306783989e-02,1.000278923635114503e-01,4.773370944715790709e-02,1.247594131967501713e-01,-2.480701356510450080e-06,5.424028318544403537e-04,7.163505130074877651e-03,-2.336401337612914186e-01,1.266411165113495415e-03,-7.779717315740549387e-04,-2.858226186228741694e-01
1.300000000000000000e+01,-4.485083689660855355e-01,9.031360579225861107e-02,1.000275081891011109e-01,5.565701102872583350e-02,1.211773909808180061e-01,-3.577548995153438758e-06,7.288819926409072052e-04,6.912660822872853349e-03,-2.693667057928425534e-01,5.688588807050253948e-04,-3.744154142543850393e-03,-2.858237765899019900e-01
1.325000000000000000e+01,-4.410755921763389598e-01,1.052096739613128662e-01,1.000270160683973397e-01,6.287199151127968733e-02,1.172464115719488997e-01,-4.162330754060941809e-06,9.212812099198152858e-04,6.294504355167748755e-03,-3.050935394527564681e-01,-4.423099135650218595e-04,-6.431995931783019045e-03,-2.858260831406314040e-01
1.350000000000000000e+01,-4.328095766619193818e-01,1.196015872415863296e-01,1.000264989244860209e-01,6.896512061295149987e-02,1.131512080675363685e-01,-3.987160229098818424e-06,1.097094942620966372e-03,5.360301862177578071e-03,-3.408209630477837537e-01,-1.620362751371228665e-03,-8.421146152836067600e-03,-2.858291531300844457e-01
1.375000000000000000e+01,-4.238714363537309793e-01,1.334829716668101407e-01,1.000260503958752267e-01,7.363490065799811746e-02,1.091147355181110307e-01,-3.126732949371422304e-06,1.233206442968665583e-03,4.201864343671047816e-03,-3.765491508021822087e-01,-2.803010789538090599e-03,-9.501549547942187909e-03,-2.858321909590613163e-01
1.400000000000000000e+01,-4.144507472947080995e-01,1.468762099337713456e-01,1.000257361462041500e-01,7.672484065790352581e-02,1.053692156083492343e-01,-1.917739119536206160e-06,1.309598167483498133e-03,2.923115109590803014e-03,-4.122780477338879868e-01,-3.871643399599381929e-03,-9.716056755785859936e-03,-2.858343662220458881e-01
1.425000000000000000e+01,-4.047473971060454034e-01,1.598319962155623775e-01,1.000255741684355076e-01,7.821792560684749651e-02,1.021329127370873141e-01,-7.453516046322623261e-07,1.312027891167797874e-03,1.611726142819401445e-03,-4.480073975307334311e-01,-4.784949193252851368e-03,-9.301090326408341033e-03,-2.858351885961746830e-01
1.450000000000000000e+01,-3.949562078143735722e-01,1.724267333103811362e-01,1.000255422675801059e-01,7.820131071312332038e-02,9.959897753547344856e-02,1.499880413005176771e-07,1.232891920622725471e-03,3.217765225814697054e-04,-4.837368406412087540e-01,-5.570513675095760571e-03,-8.559829855127836298e-03,-2.858346305944843291e-01
1.475000000000000000e+01,-3.852568888241870160e-01,1.847593331015106033e-01,1.000256012305217879e-01,7.682030917831941808e-02,9.793600770249634435e-02,7.256030815149248201e-07,1.070270753244892360e-03,-9.266581464751019216e-04,-5.194660130174147961e-01,-6.277033075602597538e-03,-7.723147879406302638e-03,-2.858329589756623546e-01
1.500000000000000000e+01,-3.758092757221004887e-01,1.969484940377871640e-01,1.000257153342094252e-01,7.424269822258530716e-02,9.729336669061049159e-02,1.055325383391076536e-06,8.258696813950963970e-04,-2.131456741509541591e-03,-5.551945962660486122e-01,-6.905632342850226597e-03,-6.849571864587981548e-03,-2.858304580035700981e-01
1.525000000000000000e+01,-3.667514966946081034e-01,2.091303724694685007e-01,1.000258582793595308e-01,7.064842334551034442e-02,9.780046752936664978e-02,1.194376342869614525e-06,5.029661786381022306e-04,-3.281789861671221588e-03,-5.909223223452007012e-01,-7.347059323243963248e-03,-5.796048556758457738e-03,-2.858272970312406014e-01
1.550000000000000000e+01,-3.581974940888966175e-01,2.214551975213042145e-01,1.000260032953308592e-01,6.624889791121843508e-02,9.954969714875401554e-02,1.072331362193585712e-06,1.054390522693006817e-04,-4.329928134729719817e-03,-6.266489802487916760e-01,-7.352190632856065063e-03,-4.267770439202927223e-03,-2.858236954501434113e-01
1.575000000000000000e+01,-3.502305933362641621e-01,2.340803679286055927e-01,1.000261053795579586e-01,6.132794973100982178e-02,1.025576810957536250e-01,4.821776671111824988e-07,-3.614769935381068815e-04,-5.171671141517897308e-03,-6.623744833527082099e-01,-6.558312235434364014e-03,-1.935523055285950488e-03,-2.858203478967623057e-01
1.600000000000000000e+01,-3.428914986125936037e-01,2.471574433677284632e-01,1.000260918635886426e-01,5.628626304169641326e-02,1.067083939865856451e-01,-7.722630978682074665e-07,-8.887369413863228408e-04,-5.644690852635576676e-03,-6.980990256545853700e-01,-4.582404204088560279e-03,1.407427935255090327e-03,-2.858188629184423291e-01
1.625000000000000000e+01,-3.361617870689038723e-01,2.608115682264766644e-01,1.000258825308382171e-01,5.166554041868612335e-02,1.116923578929193278e-01,-2.566481228850154685e-06,-1.460061136704691965e-03,-5.551027736660139184e-03,-7.338232822755040852e-01,-1.172898211176609745e-03,5.692082268056271842e-03,-2.858217986275962685e-01
1.650000000000000000e+01,-3.299469465355968079e-01,2.751142918823982764e-01,1.000254510663932950e-01,4.812985703462194925e-02,1.169656388329295138e-01,-4.150399517686432902e-06,-2.048819818211870553e-03,-4.704190847525836425e-03,-7.695485128734380620e-01,3.615920396378174972e-03,1.047818423473521020e-02,-2.858318735851200221e-01
1.675000000000000000e+01,-3.240652873558154123e-01,2.900540448240699898e-01,1.000249051656144639e-01,4.639126317166988867e-02,1.217562106951810552e-01,-4.210685957562652612e-06,-2.616742182784106453e-03,-2.993041031550513174e-03,-8.052763689995545704e-01,9.289038197986598799e-03,1.496811899243090556e-02,-2.858502751014933563e-01
1.700000000000000000e+01,-3.182496300473374173e-01,3.055117128954170647e-01,1.000245167656595435e-01,4.708391088733250573e-02,1.251393679689798422e-01,-1.606012382580580288e-06,-3.115772604543419824e-03,-4.458600871026041179e-04,-8.410082855296920901e-01,1.488776580690364358e-02,1.815713001017964234e-02,-2.858747192746402543e-01
1.725000000000000000e+01,-3.121668005190311179e-01,3.212504616398267898e-01,1.000246244033389520e-01,5.061170313584840985e-02,1.261866436854656159e-01,3.436073189265693123e-06,-3.493723400149916034e-03,2.727591574945263404e-03,-8.767445999827655490e-01,1.913062245818470883e-02,1.909982341159497873e-02,-2.858986480852265810e-01
1.750000000000000000e+01,-3.054556655538056553e-01,3.369279293725262470e-01,1.000254036712745209e-01,5.701134662196302716e-02,1.241672727048059310e-01,8.586907934742631145e-06,-3.703303361657084725e-03,6.136800129460055937e-03,-9.124838752103484607e-01,2.071693976914168456e-02,1.721977676037263899e-02,-2.859129034621824550e-01
1.775000000000000000e+01,-2.977787207855202012e-01,3.521345876874382164e-01,1.000266369273551947e-01,6.587777737603450756e-02,1.187557351407966116e-01,1.021532536419488910e-05,-3.712887751528012783e-03,9.264803966658463619e-03,-9.482230152939249423e-01,1.872413691497895605e-02,1.255593380589118367e-02,-2.859098791315445864e-01
1.800000000000000000e+01,-2.888769280716010357e-01,3.664551205477683538e-01,1.000276934259179962e-01,7.638759962457350450e-02,1.101837411851889492e-01,5.776182724235849839e-06,-3.516411987836250835e-03,1.157058590785964639e-02,-9.839584161381879079e-01,1.297549935863719951e-02,5.846122946104064487e-03,-2.858880866346388827e-01
1.825000000000000000e+01,-2.786146113579697214e-01,3.795419769622546124e-01,1.000278332382972674e-01,8.742998733656598409e-02,9.927858872079248220e-02,-3.768263239462571620e-06,-3.139392327730092160e-03,1.261681671090237981e-02,-1.019687677915930069e+00,4.241676528942734878e-03,-1.603166086084364516e-03,-2.858539561755353842e-01
1.850000000000000000e+01,-2.670021674227351927e-01,3.911843825864750879e-01,1.000266923171689859e-01,9.782128291020257549e-02,8.735452625910739011e-02,-1.371724197486510158e-05,-2.638558527530369697e-03,1.218848209759152562e-02,-1.055410839701060643e+00,-5.822156716356468274e-03,-8.237541048983927292e-03,-2.858189969597447755e-01
1.875000000000000000e+01,-2.542255009374104202e-01,4.013355927748917806e-01,1.000258415446881183e-01,1.049235258840418711e-01,7.512213687702951059e-02,1.365404398161391702e-05,5.890013583045897519e-03,1.023733344973894524e-02,-1.075483013428015999e+00,6.054614656655571414e-02,-1.594403846237704148e-01,4.002477842919512085e-02
1.900000000000000000e+01,-2.416977024423873910e-01,4.095608452449941428e-01,1.000440313802400116e-01,9.104192147420565873e-02,5.520738787070924442e-02,3.044027523324187518e-04,3.171815138469134127e-02,6.537555644071935124e-03,-1.056270501338918422e+00,7.020667767325698694e-02,-1.966141360494854939e-01,2.192482234093657278e-01
1.925000000000000000e+01,-2.327652953835527838e-01,4.145736880552838843e-01,1.000891059290692636e-01,4.947509400607032898e-02,2.465747158864926847e-02,3.007643625960910875e-04,5.054169438249895424e-02,1.686555825290373322e-03,-1.025078601573326420e+00,9.990317487985787490e-03,-9.315365045581978920e-02,2.667835151147936457e-01
1.950000000000000000e+01,-2.300872708728536886e-01,4.154525715330681934e-01,1.000950170990908827e-01,-5.353970555709604631e-03,-9.147390584146788267e-03,-2.146992347291648692e-04,5.142721984945430175e-02,-2.789447577971980192e-03,-9.907105518518709575e-01,-5.810229688371500861e-02,3.417469360258486299e-02,2.799090657474990751e-01
1.975000000000000000e+01,-2.340857534869964784e-01,4.124346695394120466e-01,1.000453955064052047e-01,-5.481782414200445097e-02,-3.651631517496429363e-02,-4.802443064226577063e-04,3.775357948591820390e-02,-5.298839372348303732e-03,-9.553620017621207161e-01,-8.964675122471109370e-02,1.096955577508361840e-01,2.838359531261178681e-01
2.000000000000000000e+01,-2.432515442784420334e-01,4.067323241912207399e-01,9.999535695929093193e-02,-8.757807205841483533e-02,-5.216313342114538287e-02,-2.775458225266413340e-04,1.949620902641154008e-02,-5.156490637272797585e-03,-9.196842575018413513e-01,-7.518201329199937499e-02,1.168526015115746719e-01,2.851542406843277089e-01
2.025000000000000000e+01,-2.553222826544049306e-01,3.997954056156657332e-01,9.997925636463544929e-02,-1.024049129615099973e-01,-5.729175221063002171e-02,-1.062196875490871903e-05,5.474488609729579770e-03,-2.771726949336624900e-03,-8.839431824283200401e-01,-3.284826086329767358e-02,7.999710520404691716e-02,2.856662788514245377e-01
2.050000000000000000e+01,-2.683653123191018230e-01,3.926059090852960232e-01,9.998579757371753307e-02,-1.047206176718660647e-01,-5.745611313368923639e-02,8.466345003205590428e-05,-6.243615672687435154e-04,8.201324281934886965e-04,-8.482105950469491784e-01,1.037021173508210180e-02,3.447703238429105504e-02,2.858766656719386456e-01
2.075000000000000000e+01,-2.812658929635155625e-01,3.853769118582250353e-01,9.999652367568503952e-02,-1.013277045449551411e-01,-5.876453863398682642e-02,8.105386579521752703e-05,-9.685002948652878809e-05,4.575780334211737056e-03,-8.124676507104551249e-01,3.510370276560524638e-02,4.622647922885457852e-03,2.859439414443854521e-01
2.100000000000000000e+01,-2.936351746658252826e-01,3.776919721996044310e-01,1.000057863227092336e-01,-9.672913287971246499e-02,-6.492552604813715822e-02,6.812507832385082554e-05,3.305955255701725597e-03,7.820157278079331586e-03,-7.767029432574823478e-01,3.652624515481003864e-02,-3.579483727012338842e-03,2.859388266624569575e-01
2.125000000000000000e+01,-3.054346375816433534e-01,3.688874821448057117e-01,1.000133393337407778e-01,-9.218965344330809497e-02,-7.631356037870766496e-02,5.152580157517587625e-05,6.105907330814146737e-03,1.027017476877208069e-02,-7.409376754712727609e-01,2.163569307173411269e-02,2.257878154870508833e-03,2.859015100817173249e-01
2.150000000000000000e+01,-3.166293107157744924e-01,3.584285877277236798e-01,1.000181798268357236e-01,-8.685662084326406518e-02,-9.081760533961355519e-02,2.617018252825033879e-05,6.615191172572745457e-03,1.184466524409733684e-02,-7.051973219599607656e-01,1.839618506464056353e-03,1.034902971827034689e-02,2.858618379258837661e-01
2.175000000000000000e+01,-3.270380314935861787e-01,3.461173764785530627e-01,1.000199807090932091e-01,-7.953448878797322874e-02,-1.054618279708192941e-01,5.160748077433173713e-06,4.997644556502297240e-03,1.247343046292171374e-02,-6.694860159386354370e-01,-1.377210105899162075e-02,1.229767376900638143e-02,2.858423979459429054e-01
2.200000000000000000e+01,-3.363821080168951094e-01,3.321050538555558873e-01,1.000199067164078692e-01,-6.996402283563288305e-02,-1.177941430847280480e-01,-4.335979178366249564e-06,2.430561842596347215e-03,1.203559928651568023e-02,-6.337872378058589939e-01,-2.150040424259992700e-02,5.956948702871541455e-03,2.858485160975361428e-01
2.225000000000000000e+01,-3.444339100715633206e-01,3.167765902603011940e-01,1.000191482949760319e-01,-5.915923263151721956e-02,-1.265269840907653487e-01,-7.086112927917167063e-06,1.313047522721892864e-04,1.042922867312629821e-02,-5.980811165529893447e-01,-2.237810610361516336e-02,-5.808643518531947034e-03,2.858679666050878976e-01
2.250000000000000000e+01,-3.511540903764382437e-01,3.006039584578289459e-01,1.000182482005970708e-01,-4.897859928417606229e-02,-1.314645039715482133e-01,-6.797502547165423584e-06,-1.231608752251495825e-03,7.689904746957168871e-03,-5.623591318927235738e-01,-1.956606238361814284e-02,-1.817257067859855829e-02,2.858852741352170823e-01
2.275000000000000000e+01,-3.567503479665569688e-01,2.840361339083992687e-01,1.000176314658861726e-01,-4.138920210291660573e-02,-1.330674519252641186e-01,-2.434698727550278235e-06,-1.620343065396406173e-03,4.067487806733301528e-03,-5.266254004197923333e-01,-1.585226475672851451e-02,-2.704720053231566765e-02,2.858935814275054277e-01
2.300000000000000000e+01,-3.616476491311457764e-01,2.674461636313676949e-01,1.000178258410764631e-01,-3.783537276428249746e-02,-1.320255465163321096e-01,5.610478231373222435e-06,-1.374351252212368179e-03,1.636383750353886978e-05,-4.908882556127534547e-01,-1.244362505928755039e-02,-3.036646783519512949e-02,2.858937950840414466e-01
2.325000000000000000e+01,-3.663982798656111317e-01,2.511193176387144788e-01,1.000190330172736897e-01,-3.891093391711113181e-02,-1.290359386466816138e-01,1.284934182568492307e-05,-8.849043880180230363e-04,-3.889012073590436113e-03,-4.551528446370855518e-01,-9.136307265704284725e-03,-2.800834834511282609e-02,2.858879645485683518e-01
2.350000000000000000e+01,-3.715709150759688439e-01,2.352549109197827892e-01,1.000208082303337270e-01,-4.432770399495751523e-02,-1.247855397403589139e-01,1.427596766840446778e-05,-3.872807111647674750e-04,-7.069963284586449313e-03,-4.194202663082403082e-01,-5.230138891827411027e-03,-2.103176885915276559e-02,2.858770150563724188e-01
2.375000000000000000e+01,-3.776489339412522073e-01,2.199634506438947756e-01,1.000222865205203926e-01,-5.306734935669965569e-02,-1.200170245505052385e-01,8.515793067737615989e-06,7.542144235701712734e-05,-9.048834632832590541e-03,-3.836902804953165602e-01,-4.155134012986643876e-04,-1.092070657051454410e-02,2.858637703651661921e-01
2.400000000000000000e+01,-3.849531696533150527e-01,2.052572595823692059e-01,1.000227342777696427e-01,-6.360303260627396538e-02,-1.155518561715356968e-01,-1.247989629811918056e-06,5.696864191577251510e-04,-9.521817947567548859e-03,-3.479626137724566304e-01,4.846160184786924875e-03,8.109165646800352203e-04,2.858552298848169859e-01
2.425000000000000000e+01,-3.935933157072999955e-01,1.910446337144945106e-01,1.000220079090973768e-01,-7.413097138095976757e-02,-1.122115945902092543e-01,-9.348822468049431935e-06,1.160742505436947051e-03,-8.397192723703972989e-03,-3.122359491485423022e-01,9.506998791035625035e-03,1.267709105622345615e-02,2.858597719716300389e-01
2.450000000000000000e+01,-4.034482489210348133e-01,1.771394983764010278e-01,1.000206523890687371e-01,-8.280249605250565581e-02,-1.106606496050771271e-01,-1.096874541192776725e-05,1.842362847011711803e-03,-5.804664401229495986e-03,-2.765071728109157467e-01,1.244093677634605308e-02,2.316950084833382592e-02,2.858810180479753327e-01
2.475000000000000000e+01,-4.141757774768078937e-01,1.632919409889858620e-01,1.000196015330034466e-01,-8.796291019110621945e-02,-1.112434270435919553e-01,-4.912271754347733485e-06,2.529595470473941423e-03,-2.078553806625015390e-03,-2.407727763874209503e-01,1.294997927114398435e-02,3.081741988750309399e-02,2.859136748568647524e-01
2.500000000000000000e+01,-4.252522437679635003e-01,1.492352657280606454e-01,1.000196497587946681e-01,-8.838623776115341057e-02,-1.138909214997467084e-01,5.626951669427402228e-06,3.097561141527216139e-03,2.287391586078237754e-03,-2.050314729631010913e-01,1.103267123007935745e-02,3.442765307643809447e-02,2.859450896054296365e-01
2.525000000000000000e+01,-4.360392438632195167e-01,1.347377984587975752e-01,1.000209913178505550e-01,-8.346756871593415117e-02,-1.181372599709903798e-01,1.479809172026627440e-05,3.433433293004916394e-03,6.714759051045684005e-03,-1.692856356109685156e-01,7.343622420125612421e-03,3.341225853994804484e-02,2.859617476718517848e-01
2.550000000000000000e+01,-4.458688547443843131e-01,1.196456574820889962e-01,1.000230950073273811e-01,-7.332170153159950354e-02,-1.232394757926267292e-01,1.741057991661509267e-05,3.474221150891235697e-03,1.063728217958725443e-02,-1.335402689192411174e-01,2.918689738598951883e-03,2.802989627916672652e-02,2.859564559244241466e-01
2.575000000000000000e+01,-4.541329353982871408e-01,1.039061364475514920e-01,1.000249914846163685e-01,-5.875025328356588139e-02,-1.283566985604318311e-01,1.186982367238180661e-05,3.218889020715048552e-03,1.360076743904304122e-02,-9.780033491080590557e-02,-1.185302685863850363e-03,1.939521714793427526e-02,2.859317716908050255e-01
2.600000000000000000e+01,-4.603594744735375333e-01,8.756800994703418939e-02,1.000257980717007555e-01,-4.107494036968450252e-02,-1.327305894232282124e-01,8.987372905430567803e-07,2.718133490630882023e-03,1.534068277876356710e-02,-6.206834840465934311e-02,-4.191318060257024497e-03,9.218180499298138722e-03,2.858979548104475521e-01
2.625000000000000000e+01,-4.642613853954083436e-01,7.076198549474435606e-02,1.000251597974738810e-01,-2.187616427625535889e-02,-1.358176287914080460e-01,-1.034008485070952668e-05,2.052577480910811047e-03,1.581538525509884260e-02,-2.634361699869275375e-02,-5.754777911149756321e-03,-6.434618228623664726e-04,2.858672013368424025e-01
2.650000000000000000e+01,-4.657501259078029587e-01,5.366927240485088596e-02,1.000233568602133666e-01,-2.705095470651821578e-03,-1.373474364211634824e-01,-1.732207793235143029e-05,1.310097056646277380e-03,1.518582778836110106e-02,9.376826929253552143e-03,-5.951677819544175414e-03,-8.660372240738180641e-03,2.858478742856284671e-01
2.675000000000000000e+01,-4.649156542819459781e-01,3.648770106746970776e-02,1.000210654190578502e-01,1.515729216711017568e-02,-1.373083051402688159e-01,-1.834474654941645568e-05,5.688662770763097155e-04,1.374939941388929852e-02,4.509652687289441436e-02,-5.143456388706293958e-03,-1.397755919871043404e-02,2.858418355531204269e-01
2.700000000000000000e+01,-4.619824078348183094e-01,1.940322662966914927e-02,1.000189749919439958e-01,3.083980558926402091e-02,-1.358820795063942211e-01,-1.464913095951459478e-05,-1.118471105331669173e-04,1.184923642340153516e-02,8.081818231157379684e-02,-3.788922482065174794e-03,-1.653237187527238986e-02,2.858455815671926414e-01
2.725000000000000000e+01,-4.572556623752088156e-01,2.571126524675611518e-03,1.000175065499206567e-01,4.389927148911962340e-02,-1.333602754542522750e-01,-8.930235347060307119e-06,-6.940526857197773080e-04,9.785959312960289952e-03,1.165430600886473989e-01,-2.273648020557148940e-03,-1.693421318354617136e-02,2.858535704359645435e-01
2.750000000000000000e+01,-4.510727054735039210e-01,-1.389276765393534542e-02,1.000167472753583781e-01,5.423426614474800150e-02,-1.300713093489331285e-01,-3.602935289874601598e-06,-1.158602034546958939e-03,7.755375893883834255e-03,1.522711850903557540e-01,-8.066980459505272445e-04,-1.617132522682096160e-02,2.858613616475889074e-01
2.775000000000000000e+01,-4.437692444785774071e-01,-2.991356243976475010e-02,1.000165562139506553e-01,6.193844640509357097e-02,-1.263378144766718059e-01,1.233517983938442876e-07,-1.499954775687246380e-03,5.825803279694173262e-03,1.880019106062288670e-01,5.952572157477081880e-04,-1.525041961766249697e-02,2.858670338163304403e-01
2.800000000000000000e+01,-4.356650597502241817e-01,-4.545570297592134434e-02,1.000167214591255738e-01,6.714865158414165536e-02,-1.224681458470465445e-01,2.222006363467337265e-06,-1.719812757334487907e-03,3.956502405800646320e-03,2.237344530010576538e-01,2.045054579624867343e-03,-1.487625982164005392e-02,2.858707744992212141e-01
2.825000000000000000e+01,-4.270662254859790008e-01,-6.052205009006685760e-02,1.000170774414412544e-01,6.993724457376875037e-02,-1.187723226235229412e-01,3.341273301147246637e-06,-1.821062838058556173e-03,2.048002590322966446e-03,2.594681591423795841e-01,3.673156037366662185e-03,-1.525233422752457664e-02,2.858734985586650623e-01
2.850000000000000000e+01,-4.182761293111382228e-01,-7.515553823980168635e-02,1.000175526833212425e-01,7.027964147042715937e-02,-1.155836763231654352e-01,4.249344757970932437e-06,-1.803356117306726281e-03,7.956494350834920391e-06,2.952024845277255172e-01,5.507949069078128465e-03,-1.604437611510507039e-02,2.858755198352102567e-01
2.875000000000000000e+01,-4.096052432195353976e-01,-8.944277099575889678e-02,1.000181540475290620e-01,6.810284814377820517e-02,-1.132654817505207301e-01,5.374627186798114580e-06,-1.661422966447631197e-03,-2.186469200324064541e-03,3.309368018283652124e-01,7.389983385560178544e-03,-1.650474516181218293e-02,2.858759799535594004e-01
2.900000000000000000e+01,-4.013705142277117499e-01,-1.035165871443954333e-01,1.000189009368012416e-01,6.339596385436332970e-02,-1.121870577422632992e-01,6.473183622293290461e-06,-1.386691239331969399e-03,-4.446749832546515076e-03,3.666702297795376153e-01,8.951710558625411429e-03,-1.571621772233704195e-02,2.858733116762477988e-01
2.925000000000000000e+01,-3.938789050542085834e-01,-1.175533426796915859e-01,1.000197344650103071e-01,5.634522014899005088e-02,-1.126645864568765476e-01,6.592960406641665542e-06,-9.719574350302733791e-04,-6.563105147242670814e-03,4.024016826182447160e-01,9.675440834309862945e-03,-1.288652529677353047e-02,2.858665889870847243e-01
2.950000000000000000e+01,-3.873949152422448416e-01,-1.317609061354287903e-01,1.000204548294539864e-01,4.744843334204835311e-02,-1.148750907915556257e-01,4.570380717046210452e-06,-4.179764516591709714e-04,-8.229973379846922815e-03,4.381302622990384532e-01,9.019283589738032181e-03,-7.615593651213463725e-03,2.858571403908466424e-01
2.975000000000000000e+01,-3.820973910760518399e-01,-1.463552156702213891e-01,1.000207550517777239e-01,3.756817207605157860e-02,-1.187637984720809337e-01,9.553864953670177068e-09,2.598198933131944674e-04,-9.101830202199758663e-03,4.738559183936548180e-01,6.579773410568590976e-03,-6.679993729207808024e-05,2.858493932787338210e-01
3.000000000000000000e+01,-3.780351443510606146e-01,-1.615262818415089119e-01,1.000203803042051948e-01,2.789794635317200885e-02,-1.239719285284879430e-01,-5.815426225751898435e-06,1.026474810282434341e-03,-8.867193666764394341e-03,5.095800409521924479e-01,2.246809915589632542e-03,9.001238833405771425e-03,2.858499481176370871e-01
3.025000000000000000e+01,-3.750927548789162458e-01,-1.773979471350011772e-01,1.000193502268799384e-01,1.983741016135902660e-02,-1.298113914062327678e-01,-9.950329307101120438e-06,1.826239982298807516e-03,-7.324342083715010797e-03,5.453055029946362042e-01,-3.694290481186123312e-03,1.835100108361284801e-02,2.858646579619758543e-01
3.050000000000000000e+01,-3.729769265364648589e-01,-1.939885647683702308e-01,1.000180976227219160e-01,1.479565827678723522e-02,-1.353046122398402495e-01,-9.068263966164646271e-06,2.585894715194279707e-03,-4.441680231824981021e-03,5.810358174760495986e-01,-1.054708680857061216e-02,2.650311693627330559e-02,2.858948093478538843e-01
3.075000000000000000e+01,-3.712300910529122699e-01,-2.111811664452434845e-01,1.000173799668932634e-01,1.396056592299638882e-02,-1.392935400290861436e-01,-1.605781352798633118e-06,3.222648066457274411e-03,-3.889351043083563069e-04,6.167735426489452388e-01,-1.728689299225682693e-02,3.203741930147594591e-02,2.859345609982447689e-01
3.100000000000000000e+01,-3.692724646534564781e-01,-2.287111391801797400e-01,1.000179382984252713e-01,1.808189881629652940e-02,-1.406055145472536183e-01,1.056242576851487762e-05,3.655495683091302198e-03,4.468261797713074697e-03,6.525186279809896961e-01,-2.272913146594078906e-02,3.388616076064614180e-02,2.859716761256418938e-01
3.125000000000000000e+01,-3.664677944851429947e-01,-2.461769197707801005e-01,1.000200500503909129e-01,2.731404454472851143e-02,-1.382492907443541030e-01,2.220383778876721808e-05,3.817977828905117030e-03,9.609937923545862001e-03,6.882676574719878149e-01,-2.574777944290086024e-02,3.155222969237483910e-02,2.859920233083740326e-01
3.150000000000000000e+01,-3.622030195382128781e-01,-2.630752429880939269e-01,1.000232312881619706e-01,4.115160206823344907e-02,-1.316058245269679239e-01,2.691456521417636921e-05,3.669887041771051177e-03,1.443168117819201325e-02,7.240146544280577912e-01,-2.549655403422926986e-02,2.520832072700988219e-02,2.859860997243087177e-01
3.175000000000000000e+01,-3.559691223597866161e-01,-2.788579037876769973e-01,1.000263016912340402e-01,5.847174014121812174e-02,-1.205773462056788509e-01,2.044156941783188927e-05,3.205695963105567679e-03,1.833026480074635006e-02,7.597533434542328434e-01,-2.158859279565174261e-02,1.566688145788768666e-02,2.859543234992477090e-01
3.200000000000000000e+01,-3.474300493891363528e-01,-2.930027637519493910e-01,1.000278421175922888e-01,7.767673831615051760e-02,-1.056643469977238819e-01,3.349728946619105335e-06,2.458130909853875178e-03,2.079117618751945978e-02,7.954799328095965016e-01,-1.420574980474526884e-02,4.241890737882208356e-03,2.859080816785972146e-01
3.225000000000000000e+01,-3.364685432996035730e-01,-3.050886046370518967e-01,1.000268533408414928e-01,9.691330284819248131e-02,-8.795100994246310422e-02,-1.854184651809178666e-05,1.496121002441517904e-03,2.146598983595808530e-02,8.311950698987204955e-01,-4.125167453368841497e-03,-7.460700060279721983e-03,2.858654942627826823e-01
3.250000000000000000e+01,-3.232014262721965570e-01,-3.148618306251101395e-01,1.000232923239872396e-01,1.143342867715655270e-01,-6.899270658023952396e-02,-3.642690981854232977e-05,4.171557104466856389e-04,2.023020079313998104e-02,8.669039027301240763e-01,7.341869262737628528e-03,-1.778837406586529502e-02,2.858435380149034755e-01
3.275000000000000000e+01,-3.079615875341684683e-01,-3.222831293836900257e-01,1.000181933000525297e-01,1.283626855143159828e-01,-5.061341690105654323e-02,-4.257223626464455888e-05,-6.650553248756038574e-04,1.721389001332503110e-02,9.026140554792462245e-01,1.850452912654274029e-02,-2.529502252953784447e-02,2.858501712368017311e-01
3.300000000000000000e+01,-2.912490897559515957e-01,-3.275441909667493601e-01,1.000132672903035896e-01,1.379162312099789234e-01,-3.463679782211454006e-02,-3.423914555522068330e-05,-1.635805330325032893e-03,1.279848378077609594e-02,9.383323798049038045e-01,2.754161669182335695e-02,-2.897407459375562003e-02,2.858803697745676553e-01
3.325000000000000000e+01,-2.736588449178820048e-01,-3.310486241719780010e-01,1.000101373749062994e-01,1.425545921667604188e-01,-2.259109947466923785e-02,-1.535545334741272532e-05,-2.395056781144933034e-03,7.574672727953507545e-03,9.740620238415126364e-01,3.282697357600984633e-02,-2.843893707177859095e-02,2.859183047837092206e-01
3.350000000000000000e+01,-2.557964626382497331e-01,-3.333571281070752956e-01,1.000095832899911275e-01,1.425215280378487603e-01,-1.544093113426412735e-02,5.257394926552261529e-06,-2.871116579374281570e-03,2.261049532046598403e-03,1.009801270344812263e+00,3.328198914167392053e-02,-2.401270049561221934e-02,2.859449381742095175e-01
3.375000000000000000e+01,-2.381963103357461475e-01,-3.351039736983218442e-01,1.000112071544866921e-01,1.386710652716202363e-01,-1.340284805594257889e-02,1.847909673432095268e-05,-3.030337167420404498e-03,-2.409165245967294280e-03,1.045544726098124988e+00,2.867521441281912012e-02,-1.669127652448089069e-02,2.859473789874742433e-01
3.400000000000000000e+01,-2.212558461138149635e-01,-3.368985520649009913e-01,1.000137280492093828e-01,1.322881344995583686e-01,-1.589296789914759062e-02,1.982537227351239867e-05,-2.881397497449690332e-03,-5.816056707457189189e-03,1.081286208439863117e+00,1.977394911155020904e-02,-7.962501363620876765e-03,2.859250164432257102e-01
3.425000000000000000e+01,-2.051975041190368942e-01,-3.392304269371976266e-01,1.000157452923657320e-01,1.248367810437385345e-01,-2.163173546826916913e-02,1.165301354566704477e-05,-2.473270491669727570e-03,-7.569811325721501061e-03,1.117021740777722094e+00,8.270409439313917976e-03,4.991100162609792001e-04,2.858889129149264630e-01
3.450000000000000000e+01,-1.900640091007904653e-01,-3.423973128345424444e-01,1.000165027436136639e-01,1.176873980407895093e-01,-2.889619808245847896e-02,1.083518866633733024e-06,-1.886725412706136314e-03,-7.587769735788322915e-03,1.152751030886565831e+00,-3.539532770469094522e-03,7.197938778484035995e-03,2.858548543218088489e-01
3.475000000000000000e+01,-1.757459377269741940e-01,-3.464716972087242275e-01,1.000161763999894843e-01,1.118819525144511551e-01,-3.587175640466557652e-02,-4.979764011908131289e-06,-1.220274369820348315e-03,-6.108999821607749223e-03,1.188476765843389016e+00,-1.326934799945124997e-02,1.114824848561353846e-02,2.858344653016066661e-01
3.500000000000000000e+01,-1.620332987914737399e-01,-3.513137066068008352e-01,1.000155404972525724e-01,1.079885681689101429e-01,-4.102486399509722853e-02,-4.188621707080512262e-06,-5.727276458122155340e-04,-3.637752128406198607e-03,1.224202431623683696e+00,-1.902132167609990598e-02,1.207574574171573281e-02,2.858299474335477819e-01
3.525000000000000000e+01,-1.486777874423747814e-01,-3.566270034268825828e-01,1.000153110170462351e-01,1.060746194038008627e-01,-4.340638949818194370e-02,6.114152115832063217e-07,-2.560722053885991376e-05,-8.255241217570582178e-04,1.259930208829829201e+00,-1.987348499119329787e-02,1.042894561449980891e-02,2.858352394064396784e-01
3.550000000000000000e+01,-1.354506833708437052e-01,-3.620437819160103321e-01,1.000156716385739997e-01,1.057963887258040053e-01,-4.280823259800994179e-02,4.533240888922869658e-06,3.708290785846857251e-04,1.681475003898252364e-03,1.295660215730586318e+00,-1.612914258177942928e-02,7.195903893329174544e-03,2.858417778680371057e-01
3.575000000000000000e+01,-1.221836618853301554e-01,-3.672173738774039964e-01,1.000162909588087901e-01,1.065723175719940907e-01,-3.973176915579426649e-02,4.709123919645306538e-06,6.045955341858214255e-04,3.392029182282371887e-03,1.331391235445816390e+00,-9.243017078543218010e-03,3.581998385208193334e-03,2.858441648590226980e-01
3.600000000000000000e+01,-1.087854374753282061e-01,-3.718989476804075989e-01,1.000167181508779674e-01,1.077854209692229170e-01,-3.517671337654075525e-02,1.950621525008869764e-06,7.000937804927263777e-04,4.078483430838934776e-03,1.367122012545659793e+00,-1.426967730822580093e-03,6.487648835614018023e-04,2.858420356871888557e-01
3.625000000000000000e+01,-9.523447461940248715e-02,-3.759791680929055468e-01,1.000167648400337589e-01,1.089555038703647755e-01,-3.030901242229972620e-02,-8.946959336739980410e-07,7.076539411869842882e-04,3.815509920386349948e-03,1.402852044618321470e+00,4.966836723113973728e-03,-9.737665370260011836e-04,2.858380537286020484e-01
3.650000000000000000e+01,-8.155473678748451083e-02,-3.794855116424769581e-01,1.000165690557482112e-01,1.098351806091044242e-01,-2.610165154016858002e-02,-1.846692546658275360e-06,6.872205127612184645e-04,2.938422840123851992e-03,1.438581508415739840e+00,8.114577903074496681e-03,-1.213896580280517112e-03,2.858348684985870247e-01
3.675000000000000000e+01,-6.778553428049687024e-02,-3.825385685088310561e-01,1.000163733000925814e-01,1.104110248957440171e-01,-2.305139397192778467e-02,-1.145562781201935486e-06,6.906284406438875775e-04,1.932295545863574283e-03,1.474310773822760545e+00,7.243287771365553192e-03,-4.917514912862118144e-04,2.858337218726973994e-01
3.700000000000000000e+01,-5.395678132639733504e-02,-3.852824692299081089e-01,1.000162959022925097e-01,1.108233488643555614e-01,-2.105307196836690709e-02,-1.797860230416461186e-07,7.473383735173685710e-04,1.283030596825896971e-03,1.510040127657949149e+00,2.841688928989678353e-03,5.064117442083925164e-04,2.858349421199650742e-01
3.725000000000000000e+01,-4.007748533064484087e-02,-3.878119402987684206e-01,1.000163122341053284e-01,1.112441541523679633e-01,-1.946585715893241544e-02,3.716013943910889752e-07,8.574613936213742191e-04,1.333261623469091106e-03,1.545769845589969549e+00,-3.514850958381625281e-03,1.123752443862872019e-03,2.858386359691083012e-01
3.750000000000000000e+01,-2.613945482183331961e-02,-3.901190087881072355e-01,1.000163956875535637e-01,1.117637100137714307e-01,-1.734685415788921395e-02,1.027557988303502471e-06,9.937514851297002665e-04,2.185003210810465904e-03,1.581500259727383728e+00,-9.674495837856580960e-03,9.866799306046294526e-04,2.858443234096411656e-01
3.775000000000000000e+01,-1.213221562314965342e-02,-3.920757693715485881e-01,1.000166008532525352e-01,1.123284949116373221e-01,-1.377552674292996035e-02,2.299486627905327925e-06,1.111655903853688530e-03,3.676733470337071111e-03,1.617231524922061459e+00,-1.358951619120537212e-02,1.258928167346478558e-04,2.858501526428323114e-01
3.800000000000000000e+01,1.938862316129840585e-03,-3.934579943946047709e-01,1.000169727751860083e-01,1.127504507168080594e-01,-8.165460760046381120e-03,3.468033721344511498e-06,1.164245459410394009e-03,5.439382777705725758e-03,1.652963263790922843e+00,-1.394486371297400107e-02,-1.071458606274096640e-03,2.858532513555176457e-01
3.825000000000000000e+01,1.603987037043909381e-02,-3.940015168520766276e-01,1.000173982526519761e-01,1.127788343713212599e-01,-4.668878052956511033e-04,2.963858884814272300e-06,1.117529216000500390e-03,7.011428973091377546e-03,1.688694557752588477e+00,-1.053530732617308924e-02,-2.048156458164182570e-03,2.858515772234014873e-01
3.850000000000000000e+01,3.010702651390075035e-02,-3.934734147822947503e-01,1.000176028933932038e-01,1.122024132939304503e-01,8.798903260368856963e-03,4.566407651586158268e-08,9.616536067851330204e-04,7.976265538135275668e-03,1.724424471096330569e+00,-4.283446454734111258e-03,-2.320732717092765206e-03,2.858457297805604425e-01
3.875000000000000000e+01,4.405778332320717944e-02,-3.917361165653525101e-01,1.000173429192344199e-01,1.109397668071347293e-01,1.867743941118723758e-02,-4.075754415930944616e-06,7.147960290289213751e-04,8.080322410609618380e-03,1.760152731707365525e+00,3.087699801796513904e-03,-1.682878088819987454e-03,2.858388400817565289e-01
3.900000000000000000e+01,5.781043292593647520e-02,-3.887855686422471702e-01,1.000166213877725085e-01,1.090818920528019570e-01,2.804226428441173452e-02,-6.976219449318026933e-06,4.188056449245758871e-04,7.298541809543308660e-03,1.795879965777424259e+00,9.606365386236296808e-03,-2.914826856306124234e-04,2.858343789396420864e-01
3.925000000000000000e+01,7.130494907157736151e-02,-3.847532394735898587e-01,1.000157170529695216e-01,1.068708697400113511e-01,3.589556713325057352e-02,-6.973314635894483359e-06,1.281376498366511069e-04,5.831218009799118973e-03,1.831607259067462579e+00,1.364580751745365396e-02,1.393585171488112475e-03,2.858337313256005818e-01
3.950000000000000000e+01,8.451737465042197250e-02,-3.798729904127376988e-01,1.000149918188145415e-01,1.046231931458580788e-01,4.161722529701639139e-02,-4.425574331617392770e-06,-1.044168285991169706e-04,4.037081074932591905e-03,1.867335420509447674e+00,1.437741149571383423e-02,2.788583773797925769e-03,2.858355928887254538e-01
3.975000000000000000e+01,9.746256882910205033e-02,-3.744241218873405885e-01,1.000146494420479093e-01,1.026271509616730471e-01,4.509237224696144297e-02,-1.228001775833048133e-06,-2.409087527570963393e-04,2.325613357457862167e-03,1.903064557113587352e+00,1.195512262977611526e-02,3.412483739870154735e-03,2.858375008312257215e-01
4.000000000000000000e+01,1.101845416607992595e-01,-3.686681253460015739e-01,1.000146471689196126e-01,1.010528259198788664e-01,4.668875507099785882e-02,8.536489177780622966e-07,-2.665982752915174443e-04,1.042154705161323211e-03,1.938794235532984800e+00,7.390847556572151950e-03,3.072328345398073896e-03,2.858379241577608254e-01
4.025000000000000000e+01,1.227382120109896252e-01,-3.627971800805200320e-01,1.000148020265261700e-01,9.990761099999971584e-02,4.710269997434668454e-02,1.387636137285187278e-06,-1.914662799920657734e-04,3.800410319157030608e-04,1.974523974297262008e+00,2.174932414716952266e-03,1.933739792803295743e-03,2.858370969542161077e-01
4.050000000000000000e+01,1.351694583121900439e-01,-3.569073928053325684e-01,1.000149598797498152e-01,9.905184231530969607e-02,4.713169961853688056e-02,1.091015525357476178e-06,-4.498905314381557337e-05,3.448941970686900831e-04,2.010253594275813516e+00,-2.227853940120661565e-03,4.460644783324378172e-04,2.858361991917301448e-01
4.075000000000000000e+01,1.475006175339828862e-01,-3.510010448251985604e-01,1.000150740674019129e-01,9.826513028403119354e-02,4.745063349101299316e-02,7.828667254807910944e-07,1.337377327524551045e-04,7.795014772255373431e-04,2.045983194404125349e+00,-4.837069480016756642e-03,-8.499766652642563435e-04,2.858360080921972246e-01
4.100000000000000000e+01,1.597260151490840496e-01,-3.450126660902507192e-01,1.000151635124906235e-01,9.733377033147831703e-02,4.846153933901133776e-02,6.688383612137842165e-07,3.072283758401720744e-04,1.437681158393822696e-03,2.081712904234351846e+00,-5.412399049620297484e-03,-1.550949550683545456e-03,2.858363324094602143e-01
4.125000000000000000e+01,1.718177524888286622e-01,-3.388468127964526233e-01,1.000152381172711574e-01,9.612205390894867918e-02,5.025579200452504752e-02,4.979181581481127531e-07,4.487525801247870373e-04,2.078281135606415385e-03,2.117442708856275058e+00,-4.418448405685433331e-03,-1.550817609600584328e-03,2.858364892049660710e-01
4.150000000000000000e+01,1.837377554268150859e-01,-3.324133677692670541e-01,1.000152770624766485e-01,9.459956257926331602e-02,5.268334726078960362e-02,1.051647812997554991e-07,5.469011279460728181e-04,2.542936106346382636e-03,2.153172475838903921e+00,-2.723495204371116640e-03,-1.052300330217270131e-03,2.858360670047119245e-01
