time_total,x,y,z,vx,vy,vz,roll,pitch,yaw,roll_rate,pitch_rate,yaw_rate
-01,9.990130183966171307e-02,1.599510014215071718e-01,-7.722700615272549973e-02,3.568607252708240517e-04,2.289449086894855285e-03,9.662831720701967053e-03,-1.834986449702550093e+00,-3.180461007654949990e-02,2.279868986384644622e-02,-3.700471877907355878e-01
2.500000000000000000e-01,8.290669493339665463e-02,4.606386473389965097e-01,9.993849017007271074e-02,1.548726391011737702e-01,-8.496919386035829691e-02,2.523467356345750374e-04,2.370443727671383671e-04,4.409779540519647226e-03,-1.881249639693478359e+00,-3.828510002336328599e-02,2.930638092441249440e-02,-3.699449982344730770e-01
5.000000000000000000e-01,1.021603155735046481e-01,4.498356097715514035e-01,9.996595745680922351e-02,1.538887304559458380e-01,-8.681873157487757231e-02,1.936570583090222895e-04,-1.298552705625099927e-03,-1.279036965337407988e-03,-1.927492331685804139e+00,-3.865221391728813211e-02,2.262671642295429816e-02,-3.699016421755925155e-01
7.500000000000000000e-01,1.215284380427438110e-01,4.391797946323133806e-01,9.998728504420067997e-02,1.563980632833408546e-01,-8.290588633108478267e-02,1.499324659989194927e-04,-1.655460890063884883e-03,-6.266409785786491125e-03,-1.973728340303588125e+00,-3.257522544424709676e-02,1.267416678264266308e-02,-3.698921469505260795e-01
1.000000000000000000e+00,1.413693912816232079e-01,4.293326270515095966e-01,1.000033326900508085e-01,1.611833705632794156e-01,-7.428635380473411209e-02,1.082800672777378377e-04,-1.255969673283207407e-03,-9.769638431409110452e-03,-2.019967880440610042e+00,-2.071611060691081266e-02,5.488995299945018461e-03,-3.698859291440998454e-01
1.250000000000000000e+00,1.619019886701833222e-01,4.207689805153033702e-01,1.000142425018953340e-01,1.673032204255114064e-01,-6.283282546987427331e-02,6.818465911264736474e-05,-9.145286419039148516e-04,-1.138443444155618628e-02,-2.066206609955909101e+00,-4.875692392366974028e-03,1.827080337874631292e-03,-3.698767857850950302e-01
1.500000000000000000e+00,1.832555830380019346e-01,4.136897839788870601e-01,1.000204965869356116e-01,1.742214505118558909e-01,-5.098210791859419250e-02,3.464200139162268882e-05,-1.222427453026280223e-03,-1.098292076081387389e-02,-2.112437823515276758e+00,1.227559223350753285e-02,-8.907785595899709880e-04,-3.698823751429253792e-01
1.750000000000000000e+00,2.054999898406205117e-01,4.079755013610533720e-01,1.000233302525221080e-01,1.814421437053893027e-01,-4.134591583479900467e-02,1.394833063500965045e-05,-2.281151037462449734e-03,-8.611935069217013447e-03,-2.158664905276215240e+00,2.777296390954337932e-02,-5.552817785349074657e-03,-3.699229596582346291e-01
2.000000000000000000e+00,2.286221138593444169e-01,4.031934298506196779e-01,1.000246113738081782e-01,1.880948489619023445e-01,-3.625669943082209662e-02,9.376065208838579455e-06,-3.777830705128382583e-03,-4.465448179154877899e-03,-2.204900083693557278e+00,3.898295587741940071e-02,-1.316751819042867935e-02,-3.700011940745151495e-01
2.250000000000000000e+00,2.524666520478817122e-01,3.986605759816451711e-01,1.000262674864047657e-01,1.928014787078337899e-01,-3.734810113710194945e-02,1.861076078033480015e-05,-5.234083012836879614e-03,1.074585714565214588e-03,-2.251153645839634621e+00,4.407800776145998078e-02,-2.230449894584272605e-02,-3.700964899132808683e-01
2.500000000000000000e+00,2.766845372220815280e-01,3.935517770132411219e-01,1.000295690302237944e-01,1.939156652869943320e-01,-4.525885715224698541e-02,3.380875869522556018e-05,-6.244962864352246630e-03,7.389563687898384990e-03,-2.297425023484936268e+00,4.229720344034722940e-02,-2.992054756242777322e-02,-3.701739831158433192e-01
2.750000000000000000e+00,3.007295903762529088e-01,3.870336389146691314e-01,1.000345417067337594e-01,1.900141266084981462e-01,-5.951599394981200997e-02,4.350887206511415639e-05,-6.604275386675573234e-03,1.363519441320553902e-02,-2.343702595400134925e+00,3.402545092932748871e-02,-3.280653089838265341e-02,-3.702008961464913206e-01
3.000000000000000000e+00,3.239210618621967130e-01,3.784002935044097904e-01,1.000397701220858832e-01,1.804201065486382705e-01,-7.861618447811086208e-02,3.708679465611497590e-05,-6.308724263480891548e-03,1.884569488152169209e-02,-2.389970798664150298e+00,2.073124324561487208e-02,-2.889899442227028201e-02,-3.701625385953655201e-01
3.250000000000000000e+00,3.455622102148260821e-01,3.671867789409303251e-01,1.000429290723691411e-01,1.655539924459751566e-01,-1.002915185807332910e-01,1.148891734943634517e-05,-5.492400773668144887e-03,2.211597425694502086e-02,-2.436218616873771836e+00,4.764089025034836181e-03,-1.801001276729612827e-02,-3.700710558543761630e-01
3.500000000000000000e+00,3.650845171661424859e-01,3.532394477125830878e-01,1.000420770785974967e-01,1.469914215293214310e-01,-1.219171931112538604e-01,-2.427356236357341583e-05,-4.351339380421540698e-03,2.280886587031231982e-02,-2.482444475363835945e+00,-1.101058607019969257e-02,-1.881173419904323641e-03,-3.699613233647676136e-01
3.750000000000000000e+00,3.821788713674062476e-01,3.367298711406838119e-01,1.000370488590247992e-01,1.272121600592754087e-01,-1.409918624883521321e-01,-5.239793153355301272e-05,-3.092689001519649018e-03,2.072234102369245948e-02,-2.528655901493435554e+00,-2.373157646070511370e-02,1.629860418125959540e-02,-3.698737061909751489e-01
4.000000000000000000e+00,3.968787515308930258e-01,3.181088489124627716e-01,1.000299018397046158e-01,1.091080634259873755e-01,-1.555999096513224766e-01,-5.718551996840473388e-05,-1.911848362986709330e-03,1.616501898049715544e-02,-2.574864878745493968e+00,-3.113621310769866188e-02,3.268617128930188104e-02,-3.698324703329602947e-01
4.250000000000000000e+00,4.095727503965089222e-01,2.980091338321516625e-01,1.000238877554918970e-01,9.537138556443784665e-02,-1.647579079125808255e-01,-3.612550679368187374e-05,-9.829573065377951620e-04,9.917224029923185982e-03,-2.621081318986330455e+00,-3.207957366496554802e-02,4.367297374743907973e-02,-3.698339888748334858e-01
4.500000000000000000e+00,4.209405748578579076e-01,2.771168799265480431e-01,1.000215253368175877e-01,8.790502936815508539e-02,-1.685645388088355678e-01,-2.351621375110106443e-06,-4.476255056138297734e-04,3.086516432838010745e-03,-2.667308062642565591e+00,-2.681611981441917730e-02,4.669467761304842840e-02,-3.698536322585440628e-01
4.750000000000000000e+00,4.318240752781731806e-01,2.560394057405672719e-01,1.000231069609402446e-01,8.738762009697519095e-02,-1.681156605564065876e-01,2.403401131683665230e-05,-3.966663194245261632e-04,-3.108532516716089843e-03,-2.713540500867171357e+00,-1.693772959452051821e-02,4.081957433003067376e-02,-3.698667708489752903e-01
5.000000000000000000e+00,4.430595323777202776e-01,2.351980046207961805e-01,1.000267091540316816e-01,9.309266959703020594e-02,-1.652038565290630534e-01,2.959817818165920610e-05,-8.500677576390267432e-04,-7.578289816811899574e-03,-2.759771320208065593e+00,-4.964607993727753084e-03,2.699796523178123533e-02,-3.698682445751071968e-01
5.250000000000000000e+00,4.553065547836886995e-01,2.147684179276479199e-01,1.000296772271243445e-01,1.030075273705731709e-01,-1.618772362021292932e-01,1.612311415410770717e-05,-1.745242165150810059e-03,-9.573952226392798762e-03,-2.805997175356710116e+00,6.304349063333933474e-03,7.896491285659466841e-03,-3.698753850885239114e-01
5.500000000000000000e+00,4.689104633389128973e-01,1.946796372775543016e-01,1.000304766799270384e-01,1.142317815182100904e-01,-1.599682855390900660e-01,-2.047572880116643189e-06,-2.941718168895736656e-03,-8.826018515023561703e-03,-2.852222312508243096e+00,1.449628613386879164e-02,-1.267430552957748979e-02,-3.699122421089934831e-01
5.750000000000000000e+00,4.838281551821143056e-01,1.746671616184701237e-01,1.000295782231749864e-01,1.235689038565602332e-01,-1.607088592793528004e-01,-9.413279238862585753e-06,-4.244399545726185857e-03,-5.580446618869829706e-03,-2.898456212925882625e+00,1.822135488192197506e-02,-3.061657327664651235e-02,-3.699873091025179805e-01
6.000000000000000000e+00,4.996332707703328713e-01,1.543637589845606728e-01,1.000288205435779648e-01,1.281766911932825104e-01,-1.645203985731059082e-01,-6.073569171462035978e-07,-5.440816245885413821e-03,-5.275144187286992612e-04,-2.944706839886873428e+00,1.733012889411841492e-02,-4.247106170488157417e-02,-3.700820362560170440e-01
6.250000000000000000e+00,5.155983310673556419e-01,1.334027470484856204e-01,1.000298417922784178e-01,1.261274294004532392e-01,-1.710177630991414621e-01,1.663300709478392257e-05,-6.343072052801237287e-03,5.356665795794861469e-03,-2.990974429786116939e+00,1.281790786677368052e-02,-4.617620449247618331e-02,-3.701589583835863673e-01
6.500000000000000000e+00,5.308340708122715190e-01,1.115078139798914847e-01,1.000327962514499652e-01,1.167531709545696628e-01,-1.792062664333717859e-01,2.821599005788468479e-05,-6.823803102290137111e-03,1.101755502766073834e-02,-3.037250294291952812e+00,6.430821755044574366e-03,-4.147844286887437948e-02,-3.701835143802854611e-01
6.750000000000000000e+00,5.444539431792412287e-01,8.854932333272322320e-02,1.000362505926330609e-01,1.007067458159868339e-01,-1.878021332366353879e-01,2.433519499575838768e-05,-6.837549240465824393e-03,1.553231834828922020e-02,-3.083521329057648419e+00,1.111954939697862397e-04,-2.990993431603485020e-02,-3.701441753947017355e-01
7.000000000000000000e+00,5.557275223104075623e-01,6.455774836106775716e-02,1.000382180653211495e-01,7.973839099817803255e-02,-1.955804140457474138e-01,6.017080094229279492e-06,-6.423400328414748638e-03,1.827944453363387206e-02,-3.129776943499875230e+00,-4.547387632155387889e-03,-1.435897472928465354e-02,-3.700577980851029181e-01
7.250000000000000000e+00,5.641905481516857890e-01,3.969737006216082775e-02,1.000461174056530844e-01,5.624955184449342144e-02,-2.016489659736378226e-01,9.242016156656256075e-06,-5.697493307224770452e-03,1.903496777179833344e-02,3.106698297733657022e+00,-6.618354443335794195e-03,1.670911643725838443e-03,-3.648403768035398120e-01
7.500000000000000000e+00,5.696925641197748691e-01,1.421178868466679325e-02,1.000423646766096936e-01,3.275865776725279954e-02,-2.056347909479979696e-01,-4.873908617860172568e-05,-4.795721248312611977e-03,1.798584603985354385e-02,3.060823224996538361e+00,-6.340447974543596786e-03,1.476105728859817764e-02,-3.685109126326645002e-01
7.750000000000000000e+00,5.723745546935937734e-01,-1.163978684616994927e-02,1.000359727730903148e-01,1.134799742046214109e-02,-2.076186183508808292e-01,-4.946116153712495065e-05,-3.874236063802599574e-03,1.565767479984668184e-02,3.014700167486877191e+00,-4.268870174380557866e-03,2.252537859564810244e-02,-3.694676948943479422e-01
8.000000000000000000e+00,5.725885122489148271e-01,-3.763191964688323427e-02,1.000306242613008129e-01,-6.709961520829454615e-03,-2.080254269622915653e-01,-3.530933369606673380e-05,-3.071026431254896948e-03,1.277142614036750994e-02,2.968508328937155660e+00,-1.629776581603962788e-03,2.393122024521463290e-02,-3.697243695851344936e-01
8.250000000000000000e+00,5.707826578052624944e-01,-6.360327968474455140e-02,1.000273336336093416e-01,-2.112318502023332809e-02,-2.074108173469431937e-01,-1.808556542935675160e-05,-2.472614153517181321e-03,1.007753066468732722e-02,2.922293499660658878e+00,3.425599148325899289e-04,1.949396673733367821e-02,-3.698072133304435849e-01
8.500000000000000000e+00,5.673811853805743599e-01,-8.945764181023878325e-02,1.000260134682470214e-01,-3.250626890794051926e-02,-2.062294619087245984e-01,-4.385305469110460303e-06,-2.103750996161956894e-03,8.190164354551072307e-03,2.876068166540540094e+00,8.075308470524344756e-04,1.105792772004778220e-02,-3.698474586848337631e-01
8.750000000000000000e+00,5.626874162871120522e-01,-1.151396844299146377e-01,1.000260500432577498e-01,-4.209704762895826596e-02,-2.046712233866113395e-01,3.852086497955268905e-06,-1.931345017721365067e-03,7.461021161079459639e-03,2.829836690267212962e+00,-4.272742853627516059e-04,1.255036130433499460e-03,-3.698754772028369775e-01
9.000000000000000000e+00,5.568315074853704694e-01,-1.405973020862444356e-01,1.000268386531351222e-01,-5.134868533241394861e-02,-2.026101645087637626e-01,8.162950939819620883e-06,-1.880326406450424622e-03,7.921150568016852370e-03,2.783601168742847243e+00,-2.879823170004747798e-03,-7.217052999133855354e-03,-3.698973458992220187e-01
9.250000000000000000e+00,5.497710889236463450e-01,-1.657454567260937262e-01,1.000280225163586029e-01,-6.151071911766336359e-02,-1.996739402290161336e-01,1.043461494901918352e-05,-1.856702062223983350e-03,9.303018096058188885e-03,2.737363135727363783e+00,-5.595765632184734190e-03,-1.229471499811494138e-02,-3.699126738705215689e-01
9.500000000000000000e+00,5.413389046561259965e-01,-1.904449342648745214e-01,1.000293731390676094e-01,-7.330886396772352820e-02,-1.954018788128462081e-01,1.074832843676548516e-05,-1.772179209062943635e-03,1.113341039780846482e-02,2.691124405322154800e+00,-7.498768555227371298e-03,-1.302396268101528413e-02,-3.699192068318150617e-01
9.750000000000000000e+00,5.313197909555926746e-01,-2.145035009872295340e-01,1.000305716202535417e-01,-8.679823878250667035e-02,-1.894334048868233089e-01,7.911635768764651295e-06,-1.564985879899533083e-03,1.286843680838246039e-02,2.644887126016425949e+00,-7.761077828572629685e-03,-9.686421247471774590e-03,-3.699160785439884469e-01
1.000000000000000000e+01,5.195334157378017625e-01,-2.376990617489392610e-01,1.000311838494711697e-01,-1.014099273709094251e-01,-1.816628449375765342e-01,1.604526607160585703e-06,-1.212676000280043988e-03,1.403199055178261032e-02,2.598652989592907581e+00,-6.068914850030407947e-03,-3.571433109691105317e-03,-3.699061411015672207e-01
1.025000000000000000e+01,5.059003956033751859e-01,-2.598172433549765792e-01,1.000308746521324371e-01,-1.161552406525075548e-01,-1.723123115168764263e-01,-6.293474665697033439e-06,-7.346574197818841632e-04,1.432184408938350778e-02,2.552422258326700888e+00,-2.705564180299388412e-03,3.496020808107139222e-03,-3.698954173673234536e-01
1.050000000000000000e+01,4.904766003719766010e-01,-2.806916067876804033e-01,1.000296524313404739e-01,-1.299134671365768379e-01,-1.619038765659247536e-01,-1.250660933022118275e-05,-1.846384744932136172e-04,1.366101641684450488e-02,2.506193503540771861e+00,1.554164053935929747e-03,9.698951559671814895e-03,-3.698897967056730685e-01
1.075000000000000000e+01,4.734507813498098905e-01,-3.002344421024655263e-01,1.000279114345973830e-01,-1.417172437224504533e-01,-1.511441829623476618e-01,-1.447412126855411509e-05,3.644065339326578597e-04,1.219031310782776704e-02,2.459964370640854270e+00,5.681293803832070805e-03,1.367667356560079393e-02,-3.698915516546350535e-01
1.100000000000000000e+01,4.551106853937464392e-01,-3.184494038162845042e-01,1.000262272471646868e-01,-1.509643082923893542e-01,-1.407583775207681132e-01,-1.191129466588119317e-05,8.384977617286695122e-04,1.021407263506031622e-02,2.413732857975320112e+00,8.673687001472444799e-03,1.477329169228007270e-02,-3.698983396428309200e-01
1.125000000000000000e+01,4.357897973813251724e-01,-3.354226349156940179e-01,1.000250615993269060e-01,-1.575158638051799287e-01,-1.313199008286337066e-01,-6.691149217540869821e-06,1.179493040316111985e-03,8.120099739774535447e-03,2.367498246428360709e+00,9.799175495383786322e-03,1.306638397806232817e-02,-3.699052159739619206e-01
1.150000000000000000e+01,4.158095255874663110e-01,-3.512946978804374343e-01,1.000245782572721370e-01,-1.616769596248966989e-01,-1.231184561610318418e-01,-1.393055388215597844e-06,1.356797504916511460e-03,6.295265825784023168e-03,2.321261159180414424e+00,8.751748990424291358e-03,9.224889127667902297e-03,-3.699079401831061320e-01
1.175000000000000000e+01,3.954303042923241751e-01,-3.662201226022156475e-01,1.000246611979322825e-01,-1.640821361691403024e-01,-1.160951389480976981e-01,2.262304308101097497e-06,1.372003499377225013e-03,5.052676651622463322e-03,2.275022889340809318e+00,5.708734580336241766e-03,4.276203632706864453e-03,-3.699052595735154991e-01
1.200000000000000000e+01,3.748210616202701795e-01,-3.803239452694800460e-01,1.000250765241826739e-01,-1.655248055678433805e-01,-1.098572398324734190e-01,4.067450741518343881e-06,1.256440571098776070e-03,4.578866166387320601e-03,2.228784572481986359e+00,1.300352022116695472e-03,-6.447601617698044477e-04,-3.698989585107639311e-01
1.225000000000000000e+01,3.540513694744338302e-01,-3.936651602745191991e-01,1.000256411459519157e-01,-1.667722049447385169e-01,-1.037698625405340247e-01,4.855406374748063673e-06,1.063058973141044715e-03,4.903940303497715536e-03,2.182546748390404190e+00,-3.492920662153300125e-03,-4.519832187898155038e-03,-3.698921097621303278e-01
1.250000000000000000e+01,3.331055871336101037e-01,-4.062157865872207396e-01,1.000262854975831478e-01,-1.684034199307833657e-01,-9.710848735379738750e-02,5.425343236959161574e-06,8.547883564464969818e-04,5.895494689577621822e-03,2.136309475552559789e+00,-7.506366247177337185e-03,-6.626277999116071855e-03,-3.698869926898169513e-01
1.275000000000000000e+01,3.119141166642713792e-01,-4.178615275599635304e-01,1.000269880291067143e-01,-1.706999503281723118e-01,-8.924541412927877726e-02,5.693489712018945319e-06,6.916191155196773537e-04,7.277261714556074179e-03,2.090072745392453246e+00,-9.612632792300531900e-03,-6.660293755788959484e-03,-3.698840961756532097e-01
1.300000000000000000e+01,2.903938334453124437e-01,-4.284259901902994216e-01,1.000276548231077978e-01,-1.736082198826582046e-01,-7.983367746776916241e-02,4.701505555109594774e-06,6.184484926880432073e-04,8.673014581336957463e-03,2.043836761955322157e+00,-8.976139061252132872e-03,-4.790596880413279871e-03,-3.698827116712840590e-01
1.325000000000000000e+01,2.684881095503697246e-01,-4.377154784936825305e-01,1.000280621984821067e-01,-1.767808968068995679e-01,-6.894677251837701137e-02,1.533642429516815760e-06,6.554777093899541267e-04,9.673085816912466162e-03,1.997601805457004609e+00,-5.291882731064206924e-03,-1.622885883610816152e-03,-3.698824290490307365e-01
1.350000000000000000e+01,2.461969532714358977e-01,-4.455762342843684887e-01,1.000279407003936277e-01,-1.796885898564219985e-01,-5.713511591671358719e-02,-3.502178420435789740e-06,7.927110529858074532e-04,9.915050317744776576e-03,1.951367777728316044e+00,1.058573280383470067e-03,1.934269012001876668e-03,-3.698841181414661561e-01
1.375000000000000000e+01,2.235898992244499672e-01,-4.519518521012049206e-01,1.000271691882910624e-01,-1.817772572291678213e-01,-4.537337777735755279e-02,-8.429347324620077304e-06,9.897705549280122386e-04,9.164011935771189388e-03,1.905133865283630046e+00,8.996832030711478245e-03,4.885870593308526931e-03,-3.698893073219894356e-01
1.400000000000000000e+01,2.007982633828102048e-01,-4.569267732646824509e-01,1.000259389513518948e-01,-1.826337119281137567e-01,-3.489599995490170331e-02,-1.051171143801910045e-05,1.181611532950795204e-03,7.374607870987881682e-03,1.858898766161728666e+00,1.691387032557425604e-02,6.402375564092993750e-03,-3.698982126029972672e-01
1.425000000000000000e+01,1.779884960942904049e-01,-4.607432350147662170e-01,1.000247324784251934e-01,-1.821168062782017871e-01,-2.694640555951845207e-02,-8.116763248513761514e-06,1.289727875496753497e-03,4.718473895021672165e-03,1.812661524855911477e+00,2.299268849336764606e-02,6.040023464552059414e-03,-3.699080966271097726e-01
1.450000000000000000e+01,1.553233740345399683e-01,-4.637839430504456795e-01,1.000240773342409017e-01,-1.804183257628370896e-01,-2.249060960465930348e-02,-2.205525649285525141e-06,1.237225895077740008e-03,1.567721526669884138e-03,1.766422454770858685e+00,2.561640745430044525e-02,3.864564405620622180e-03,-3.699138657234058991e-01
1.475000000000000000e+01,1.329212556875834783e-01,-4.665201335212771361e-01,1.000242132241627724e-01,-1.780347688496706771e-01,-2.195999690409050978e-02,3.863619027399796415e-06,9.650773792452899602e-04,-1.564821594337378451e-03,1.720183359754573482e+00,2.375893609589191033e-02,4.389033817190108201e-04,-3.699113215457673909e-01
1.500000000000000000e+01,1.108244987061930975e-01,-4.694328211281871277e-01,1.000249100842040273e-01,-1.756545837115452147e-01,-2.508576339771784180e-02,6.390889531777816288e-06,4.463223729412349960e-04,-4.117243112230295835e-03,1.673946609441836930e+00,1.725375075744527142e-02,-3.324361633312575628e-03,-3.699011940372015639e-01
1.525000000000000000e+01,8.898605055338200398e-02,-4.729217792801715392e-01,1.000255987682922565e-01,-1.739882111272173792e-01,-3.086862430862394313e-02,3.953083214967197055e-06,-3.047949141226540329e-04,-5.582638749078365319e-03,1.627713433400838516e+00,6.865764584232467854e-03,-6.403537115807682832e-03,-3.698908304672484659e-01
1.550000000000000000e+01,6.727870852993857176e-02,-4.772203413864323229e-01,1.000257602693275794e-01,-1.735836004923802800e-01,-3.769651795620015955e-02,-1.323294333956703578e-06,-1.230837282819935256e-03,-5.603050299979041651e-03,1.581482509498058908e+00,-5.855101550160463769e-03,-7.932169130541693106e-03,-3.698914860714733743e-01
1.575000000000000000e+01,4.552585853910801061e-02,-4.823334600169012498e-01,1.000253211147748567e-01,-1.746732394602621419e-01,-4.358849191196730727e-02,-4.898909504572579422e-06,-2.236998820610151904e-03,-4.033461817760220988e-03,1.535249951708094640e+00,-1.889619093746707293e-02,-7.413536478262394182e-03,-3.699120822095814387e-01
1.600000000000000000e+01,2.354721755717285869e-02,-4.880117863733465233e-01,1.000247771746021891e-01,-1.770896150798876856e-01,-4.651454848733993508e-02,-2.725556144885355627e-06,-3.203858224977795040e-03,-9.644621930565949307e-04,1.489011029646185813e+00,-3.018609652106274757e-02,-4.832277884032210556e-03,-3.699529999923458767e-01
1.625000000000000000e+01,1.209592003903649324e-03,-4.937671653391929594e-01,1.000249408606925378e-01,-1.802679793437489131e-01,-4.472710127368911825e-02,5.979122211147554259e-06,-4.004812391203339643e-03,3.296604112633062886e-03,1.442762850358413784e+00,-3.797058567278520369e-02,-6.462261970541403281e-04,-3.700038830248054134e-01
1.650000000000000000e+01,-2.152834345415240505e-02,-4.989269307767757455e-01,1.000264508026925958e-01,-1.833344384853421161e-01,-3.704288619957469414e-02,1.785108398440129752e-05,-4.525037191039608594e-03,8.276533990784892478e-03,1.396506538360035243e+00,-4.107900261142739817e-02,4.323308072209730915e-03,-3.700471675841823793e-01
1.675000000000000000e+01,-4.458679302685101403e-02,-5.027177221067555823e-01,1.000293279782573652e-01,-1.852596597819938518e-01,-2.303095126234051826e-02,2.687505919837326370e-05,-4.678619442273530479e-03,1.340530057622782607e-02,1.350247620727673681e+00,-3.905342587680472183e-02,9.064367226299281655e-03,-3.700657531249573196e-01
1.700000000000000000e+01,-6.775740246318678883e-02,-5.043654169701510259e-01,1.000328282095408611e-01,-1.850473895639778987e-01,-3.084502122560684075e-03,2.734886047019642437e-05,-4.421089767666369283e-03,1.809058552521883301e-02,1.303994237495688324e+00,-3.215932360697914411e-02,1.256996894660070835e-02,-3.700510210270375189e-01
1.725000000000000000e+01,-9.071974841934746236e-02,-5.031963306503962619e-01,1.000356764687925365e-01,-1.819229550999118261e-01,2.162574847331482850e-02,1.676864903124206967e-05,-3.755732118055647630e-03,2.178940386358544506e-02,1.257753900029594973e+00,-2.131236681144797057e-02,1.402478960890756951e-02,-3.700073576253044005e-01
1.750000000000000000e+01,-1.130795673714066196e-01,-4.987255290875145519e-01,1.000365809039301668e-01,-1.754885434879001893e-01,4.930459288238588089e-02,-2.708260125867562547e-06,-2.733286745739519751e-03,2.407177280621290022e-02,1.211530234779045534e+00,-7.943200575162977228e-03,1.295870020019526496e-02,-3.699510578346145162e-01
1.775000000000000000e+01,-1.344227214772451551e-01,-4.907203295968667334e-01,1.000347982002402214e-01,-1.658178487804646828e-01,7.776893683702644500e-02,-2.487425808100019725e-05,-1.445608998066541875e-03,2.467177851132801303e-02,1.165321179359959602e+00,6.196245950682734323e-03,9.344362617161547716e-03,-3.699039660361382875e-01
1.800000000000000000e+01,-1.543760473273156353e-01,-4.792305287577399153e-01,1.000304956346208529e-01,-1.534721756198033360e-01,1.047356813446140150e-01,-4.194207469930041475e-05,-1.442906574771459002e-05,2.351990913364407701e-02,1.119119472671455284e+00,1.928111625855144159e-02,3.616698129694036982e-03,-3.698845021312954784e-01
1.825000000000000000e+01,-1.726648083356120411e-01,-4.645815228514476036e-01,1.000247371580702815e-01,-1.394332438425181786e-01,1.281197951470910146e-01,-4.783223215150829547e-05,1.423227220529367119e-03,2.075009915181132841e-02,1.072915277788839772e+00,2.969065108379305429e-02,-3.398855394130454941e-03,-3.698999866428405725e-01
1.850000000000000000e+01,-1.891568771970539298e-01,-4.473319877577831005e-01,1.000190875911623895e-01,-1.249636314054807379e-01,1.462968902732919574e-01,-4.076180083952328861e-05,2.731015763960225207e-03,1.667781943912089934e-02,1.026699829415561149e+00,3.626092315637050034e-02,-1.064100306312222056e-02,-3.699437349978492162e-01
1.875000000000000000e+01,-2.038861340628395358e-01,-4.282033365078063425e-01,1.000150108602653604e-01,-1.114206345296584189e-01,1.582887778683307045e-01,-2.387134068956702434e-05,3.788495298535721548e-03,1.175162971942797334e-02,9.804685539691788687e-01,3.845077643394853584e-02,-1.701504870597720168e-02,-3.699982088860885310e-01
1.900000000000000000e+01,-2.170514623510219621e-01,-4.079925173576436359e-01,1.000133376990816475e-01,-1.000584755236761936e-01,1.638451469728039733e-01,-3.621527560544787445e-06,4.503599396998468445e-03,6.487542107487588063e-03,9.342223988586576544e-01,3.637672430062457302e-02,-2.158963554947048585e-02,-3.700425998454733856e-01
1.925000000000000000e+01,-2.289921914541545311e-01,-3.874817042936283262e-01,1.000140328904074588e-01,-9.185376459207368616e-02,1.634163542076588482e-01,1.312099750211210552e-05,4.820919940755228825e-03,1.400218594890547362e-03,8.879669710554061179e-01,3.071240774717903105e-02,-2.373579820012419739e-02,-3.700611761027287061e-01
1.950000000000000000e+01,-2.401446944996020461e-01,-3.673575917475454533e-01,1.000163286172951194e-01,-8.738007906676238667e-02,1.580344505436445668e-01,2.178027785058167233e-05,4.725147781271355624e-03,-3.054871927804146247e-03,8.417100557472614319e-01,2.249248632835287171e-02,-2.317971638640506024e-02,-3.700486960844788786e-01
1.975000000000000000e+01,-2.509871906767199845e-01,-3.481497748063652198e-01,1.000191120367753816e-01,-8.674334001370258285e-02,1.491348787127637077e-01,2.136221176148955878e-05,4.239840561288330846e-03,-6.519102639619690255e-03,7.954586731945380018e-01,1.288977994590295544e-02,-1.997656493822045493e-02,-3.700110631312114595e-01
2.000000000000000000e+01,-2.619803534230742970e-01,-3.301932474634153292e-01,1.000213654580857647e-01,-8.957619582377432388e-02,1.383554769813026553e-01,1.410453844524187686e-05,3.422378907887255618e-03,-8.746975237071926909e-03,7.492168156093585996e-01,3.034072624882289213e-03,-1.444425381769005694e-02,-3.699618583998363075e-01
2.025000000000000000e+01,-2.735105306416964477e-01,-3.136157996975103002e-01,1.000224868194169309e-01,-9.508199075765513819e-02,1.273429018512562683e-01,4.086037179630304966e-06,2.356379491233978867e-03,-9.607638788399383914e-03,7.029845280002945396e-01,-6.088791824856379029e-03,-7.105964459311868257e-03,-3.699169281009970778e-01
2.050000000000000000e+01,-2.858411327976023153e-01,-2.983481078865707348e-01,1.000224146050279900e-01,-1.021189197586468284e-01,1.175841269218275142e-01,-4.383721856510837667e-06,1.142851985980607773e-03,-9.082067405621488745e-03,6.567584028545226937e-01,-1.366420633336236194e-02,1.328755623558337817e-03,-3.698892104196057073e-01
2.075000000000000000e+01,-2.990768640326926242e-01,-2.841528889815094772e-01,1.000215669173225991e-01,-1.093198624165230698e-01,1.102692772508713226e-01,-8.091501595844589591e-06,-1.089783015592552001e-04,-7.263984472696876672e-03,6.105331305060480718e-01,-1.904754746848979358e-02,9.956199560060533318e-03,-3.698850676014748817e-01
2.100000000000000000e+01,-3.131451815739131894e-01,-2.706690902789384845e-01,1.000206404971587110e-01,-1.152468192856085788e-01,1.061874789622219983e-01,-5.844338079091395551e-06,-1.290828947204336824e-03,-4.364840189541851004e-03,5.643035459730825210e-01,-2.178773744333431170e-02,1.769574107564902271e-02,-3.699026171537494467e-01
2.125000000000000000e+01,-3.277990686429968492e-01,-2.574667303396119267e-01,1.000203230961032586e-01,-1.185748214985036242e-01,1.056607049597062808e-01,1.079300788706488459e-06,-2.304564262346757864e-03,-7.142077122789650991e-04,5.180665401623232302e-01,-2.169848784557282598e-02,2.339095463527006077e-02,-3.699324001289683861e-01
2.150000000000000000e+01,-3.426438237938672637e-01,-2.441069672756112918e-01,1.000209941919653622e-01,-1.182876088636046069e-01,1.085269184491750166e-01,9.229701647223333426e-06,-3.071434623606235283e-03,3.257310570727786452e-03,4.718221984584025641e-01,-1.894957175968539284e-02,2.601513922472184492e-02,-3.699606372351664785e-01
2.175000000000000000e+01,-3.571872904938507287e-01,-2.302004793939272931e-01,1.000227109951688925e-01,-1.138437973766424360e-01,1.141673824766563095e-01,2.944717473994006157e-05,-2.780293500829861177e-03,7.054294683516779650e-03,4.270388774875614191e-01,4.204437261778222468e-02,4.968953242119244357e-02,-2.457635465078736314e-01
2.200000000000000000e+01,-3.707354899254611258e-01,-2.158675089626125865e-01,1.000328119195136728e-01,-1.009496845316116276e-01,1.112441462881148257e-01,2.057482793136861761e-04,2.065346956656489985e-02,9.571578328167608396e-03,4.317319034852230009e-01,2.279862132146653342e-01,1.179084408467666462e-01,2.058440104556747419e-01
2.225000000000000000e+01,-3.816040186255428845e-01,-2.038058493949368999e-01,1.000866110266239312e-01,-7.101645348684407222e-02,7.745312003215848451e-02,5.669507503604964867e-04,5.052546155359199237e-02,9.785611094047906230e-03,4.670792955920510248e-01,1.743263415350302936e-01,7.965810636529371824e-02,3.253138862154273947e-01
2.250000000000000000e+01,-3.877577051732518654e-01,-1.977288299366826430e-01,1.001361029678911330e-01,-2.748408656731962316e-02,1.937938365470511307e-02,9.807783293144431945e-05,6.343659416090802194e-02,8.086382982002348827e-03,5.103462160550793492e-01,2.226576412155840262e-02,-7.493348268554854072e-03,3.572328451913556191e-01
2.275000000000000000e+01,-3.882100565276351833e-01,-1.992927105854546688e-01,1.000986248583994320e-01,1.798362688537790549e-02,-4.089672013001834777e-02,-6.050009916744834848e-04,5.514424844755323046e-02,5.964711513655774310e-03,5.556266442941641959e-01,-1.030257925346030473e-01,-8.136699473912503700e-02,3.660290067062764163e-01
2.300000000000000000e+01,-3.834911855729939423e-01,-2.074664518385758438e-01,1.000144200590917520e-01,5.410007064168350505e-02,-8.475110275115360636e-02,-6.156463789110989699e-04,3.456368485539706298e-02,4.625807672542352547e-03,6.014706740032756960e-01,-1.446490629471630651e-01,-1.072483507890070187e-01,3.686107133564997529e-01
2.325000000000000000e+01,-3.751784838209020201e-01,-2.196518919743985776e-01,9.996423474999900638e-02,7.573787852533497844e-02,-1.058779478797949314e-01,-1.880988026356331013e-04,1.384858430769901096e-02,4.160475636941810343e-03,6.475246959246395706e-01,-1.118664394268477358e-01,-8.697602056484689259e-02,3.695310389327664535e-01
2.350000000000000000e+01,-3.650301471450745905e-01,-2.332388115037416221e-01,9.996158614659157726e-02,8.462401603701437403e-02,-1.092236601940590190e-01,8.728559618406368044e-05,9.961641058623040695e-04,3.818791756416036777e-03,6.936922360347355099e-01,-4.684218714510027248e-02,-4.476797574854415179e-02,3.699051366648878902e-01
2.375000000000000000e+01,-3.543004496784628587e-01,-2.466299638719446630e-01,9.997618727523734095e-02,8.630752059004130616e-02,-1.047087827522070330e-01,1.195317670213159867e-04,-2.470868236098643870e-03,2.820646576682716775e-03,7.399252023202004258e-01,9.413473983922619054e-03,-6.965413368031229784e-03,3.699826716649871061e-01
2.400000000000000000e+01,-3.435150686010404186e-01,-2.594396508087890574e-01,9.998906473158289399e-02,8.633440492718276460e-02,-1.010096680259084112e-01,8.857335409390936604e-05,2.605427180170244721e-04,9.798472717336950601e-04,7.861747814153358105e-01,3.609552853228892300e-02,1.192722155101473384e-02,3.699282449322224275e-01
2.425000000000000000e+01,-3.326472341337430305e-01,-2.720943313415307707e-01,9.999902420473764930e-02,8.785810086502779392e-02,-1.023591476804047024e-01,7.307942850510043087e-05,4.654222167762711235e-03,-1.221644564441006766e-03,8.324117791138051503e-01,3.411695521561371180e-02,1.213958056388344739e-02,3.698807068969291456e-01
2.450000000000000000e+01,-3.214562560623421272e-01,-2.852536001472429361e-01,1.000070902360243735e-01,9.134065684901589155e-02,-1.086247188667806424e-01,5.453048392500584279e-05,7.494517478641404308e-03,-3.010103597972504062e-03,8.786407396228771427e-01,1.667458067192429880e-02,2.932749756051501039e-03,3.698831773013338542e-01
2.475000000000000000e+01,-3.097594877569931904e-01,-2.993810159466993581e-01,1.000122162566335071e-01,9.569188887227651763e-02,-1.172716527916855822e-01,2.844977269318442519e-05,7.839718332839685361e-03,-3.801118563230403754e-03,9.248768884921028111e-01,-1.875678130286215824e-03,-5.544822065005655838e-03,3.699129188458852302e-01
2.500000000000000000e+01,-2.975310031857079096e-01,-3.145889423871837121e-01,1.000144981004248146e-01,9.970875617108880540e-02,-1.255324119616163803e-01,1.103375259974089361e-05,6.493859786990823467e-03,-3.478696594236549162e-03,9.711230317261329015e-01,-1.292190954529267265e-02,-7.766265406474385895e-03,3.699434140039375984e-01
2.525000000000000000e+01,-2.848504349170704608e-01,-3.307059934558605474e-01,1.000154937258240784e-01,1.029581622254939210e-01,-1.317239674410920491e-01,6.709170862359277111e-06,4.854903772114849310e-03,-2.365457490543470924e-03,1.017372332397274315e+00,-1.494416699718511925e-02,-3.877826156180638750e-03,3.699645375649331380e-01
2.550000000000000000e+01,-2.717935908137554812e-01,-3.474385996156048595e-01,1.000163951967981829e-01,1.058629168292969797e-01,-1.354962400578196280e-01,7.938773823365659604e-06,3.953253263385590570e-03,-9.759090853326162548e-04,1.063620286481160582e+00,-1.111806476110154332e-02,2.568279058845065674e-03,3.699745103351876341e-01
2.575000000000000000e+01,-2.583509720939930476e-01,-3.645123235337883738e-01,1.000174662922101859e-01,1.092568891032397044e-01,-1.373678364655534223e-01,8.942131536733138728e-06,4.071278324004035630e-03,2.664078766839409634e-04,1.109867235025534971e+00,-5.917947144113084972e-03,7.782293453824865731e-03,3.699742920125131951e-01
2.600000000000000000e+01,-2.444120557790436243e-01,-3.817372774928629031e-01,1.000185727195816304e-01,1.138507426938272366e-01,-1.380621077299082622e-01,8.550325503785571369e-06,4.891277581630921675e-03,1.200400206656410422e-03,1.156114318616337844e+00,-2.675924792815093621e-03,9.830493693742248587e-03,3.699683841338214929e-01
2.625000000000000000e+01,-2.298036053400641932e-01,-3.989989220365321998e-01,1.000195481750029564e-01,1.199276033974110561e-01,-1.380131590904015160e-01,6.930089397294084243e-06,5.881884213833294371e-03,1.936622163706095594e-03,1.202361604094079661e+00,-2.709824853722839384e-03,8.966721683729580311e-03,3.699644327006105238e-01
2.650000000000000000e+01,-2.143458694997697478e-01,-4.162063423641518267e-01,1.000202666434354404e-01,1.273440011094689184e-01,-1.371731491546324122e-01,4.612237417221986332e-06,6.633956250593797330e-03,2.743298381872503588e-03,1.248609094890399618e+00,-5.635944436984299810e-03,6.682613070200926243e-03,3.699696338270446749e-01
2.675000000000000000e+01,-1.978947039861084223e-01,-4.332338593082066258e-01,1.000207160105933690e-01,1.357192516078895295e-01,-1.350728814732878591e-01,2.853178560153905252e-06,6.999629450702771379e-03,3.890248009234565599e-03,1.294857454118262918e+00,-1.014490654053700619e-02,4.449318325526903026e-03,3.699868506679824809e-01
2.700000000000000000e+01,-1.803574558854745546e-01,-4.498802734091246758e-01,1.000210523608352359e-01,1.446386224961962175e-01,-1.310188108800876550e-01,2.872261533117781329e-06,7.045288739839967312e-03,5.523248035179166571e-03,1.341107613591514092e+00,-1.469195727681289927e-02,2.934523749202980984e-03,3.700128455813920247e-01
2.725000000000000000e+01,-1.616893704365854889e-01,-4.658557703266611449e-01,1.000215132585436928e-01,1.537543697329141756e-01,-1.243239254900057045e-01,4.645182298982127039e-06,6.917705026266403670e-03,7.605523060430672069e-03,1.387360117843097429e+00,-1.790387757517007683e-02,1.952808773828852880e-03,3.700391375848003372e-01
2.750000000000000000e+01,-1.418851742985559050e-01,-4.807964544154734177e-01,1.000222306447472315e-01,1.627714748831901037e-01,-1.145132654635392794e-01,6.613177269659535509e-06,6.726468449181298263e-03,9.927066732073365485e-03,1.433614517584037795e+00,-1.876756848123415852e-02,9.317521693367128302e-04,3.700550696013351626e-01
2.775000000000000000e+01,-1.209766823699318095e-01,-4.943013751334525696e-01,1.000230837432726644e-01,1.713810342828056832e-01,-1.014769444292476647e-01,6.526471417793136320e-06,6.496946707087117995e-03,1.216217735169640608e-02,1.479868887321617255e+00,-1.674225918922797596e-02,-5.273502764053933627e-04,3.700521743490446935e-01
2.800000000000000000e+01,-9.903770964764425921e-02,-5.059843580496894422e-01,1.000237031796100684e-01,1.792204981490372606e-01,-8.555341735509737477e-02,2.879677088516769759e-06,6.191300503290953459e-03,1.395167185221456337e-02,1.526120042800218846e+00,-1.186999651563032908e-02,-2.338503577079268942e-03,3.700281737122502190e-01
2.825000000000000000e+01,-7.618955559269344202e-02,-5.155307427546454990e-01,1.000236485724095847e-01,1.859047237327525193e-01,-6.752461393864925276e-02,-3.892254224665917774e-06,5.761505047102192904e-03,1.499030526461102644e-02,1.572364852425288451e+00,-4.850175452229836884e-03,-3.987379546029568012e-03,3.699885038586326336e-01
2.850000000000000000e+01,-5.259833196534235977e-02,-5.227470259315215584e-01,1.000226725755959806e-01,1.911175247962255130e-01,-4.850968635011979752e-02,-1.130657252575310256e-05,5.195221417087458188e-03,1.510347628948023428e-02,1.618601968426649718e+00,3.016615549180120051e-03,-4.851895980138011717e-03,3.699441556973913636e-01
2.875000000000000000e+01,-2.845955699009546092e-02,-5.275909200898611928e-01,1.000209072366703977e-01,1.947134474394248138e-01,-2.976476500620808471e-02,-1.610615186315194800e-05,4.532433762242009737e-03,1.429772144683044179e-02,1.664832664931861661e+00,1.008481106590452744e-02,-4.570102566659174810e-03,3.699067745175845245e-01
2.900000000000000000e+01,-3.972562506087601308e-03,-5.301722636951455847e-01,1.000188356340938889e-01,1.967722108463519082e-01,-1.242790113833332731e-02,-1.620105926825197095e-05,3.852153194073794883e-03,1.277015163139127822e-02,1.711060118618886294e+00,1.479730296978628255e-02,-3.253383050676151092e-03,3.698838207429568925e-01
2.925000000000000000e+01,2.068684340616903580e-02,-5.307220628152607977e-01,1.000170514468920191e-01,1.975724930362427190e-01,2.723495313536655228e-03,-1.191347099455595598e-05,3.242590731597061200e-03,1.086798577569066983e-02,1.757287743806105196e+00,1.616847999533289199e-02,-1.448093989351381108e-03,3.698765230938975135e-01
2.950000000000000000e+01,4.538538624492766821e-02,-5.295361494729207141e-01,1.000159652543414074e-01,1.974918959625312775e-01,1.542747290833077975e-02,-5.576575835713173588e-06,2.771408222692478985e-03,9.002663303651571927e-03,1.803517821712052882e+00,1.413105016152699407e-02,1.193094524736868742e-04,3.698812886709307302e-01
2.975000000000000000e+01,7.003622460742894851e-02,-5.269082872830568309e-01,1.000156551126586274e-01,1.968752888994893813e-01,2.595056010300212518e-02,1.514488001430089243e-07,2.467726784875299249e-03,7.540072642214105773e-03,1.849751166277263215e+00,9.586494196580187116e-03,8.786448885281035633e-04,3.698928473101487091e-01
3.000000000000000000e+01,9.458742134295743120e-02,-5.230715281809782402e-01,1.000159348432392292e-01,1.959279066271971126e-01,3.495097344019767321e-02,3.824944396060224157e-06,2.319715013954229237e-03,6.701336353196603486e-03,1.895987604544806748e+00,4.106816757669356187e-03,6.681505311183892366e-04,3.699066623875362225e-01
3.025000000000000000e+01,1.190011622262334839e-01,-5.181641100900129526e-01,1.000165356732981292e-01,1.946768809382790621e-01,4.323790379116683458e-02,5.437437766464095082e-06,2.285049553658375157e-03,6.509466209517597926e-03,1.942226561428860743e+00,-6.180052063451950840e-04,-2.170302971868961594e-04,3.699194977695804409e-01
3.050000000000000000e+01,1.432333768514100769e-01,-5.122276569622110642e-01,1.000172360769235602e-01,1.930120684183025404e-01,5.151186617479574376e-02,5.558875700259469687e-06,2.308173906027867917e-03,6.802937652974655469e-03,1.988467309894155655e+00,-3.373779671172999917e-03,-1.198958015939883713e-03,3.699289779240775289e-01
3.075000000000000000e+01,1.672223287356281174e-01,-5.052340223513170914e-01,1.000178779213510838e-01,1.907799968356356235e-01,6.017727957207544970e-02,4.578883451378353215e-06,2.337856776582498530e-03,7.312001239505682912e-03,2.034708990814187768e+00,-3.812938943408907076e-03,-1.722973939563606427e-03,3.699335420135596575e-01
3.100000000000000000e+01,1.908897375100320204e-01,-4.971273835206791447e-01,1.000183396881083042e-01,1.878813698146228617e-01,6.928719966211105419e-02,2.764067022690976813e-06,2.339979063565984785e-03,7.767584042790652218e-03,2.080950714062373752e+00,-2.477439779245097819e-03,-1.537251745685095381e-03,3.699330571650296662e-01
3.125000000000000000e+01,2.141516367705201818e-01,-4.878641924209788927e-01,1.000185481352986600e-01,1.843244567728158922e-01,7.862381682822450202e-02,6.560088957539062517e-07,2.302768665608140829e-03,7.997912532253742199e-03,2.127191820813681744e+00,-4.503341226058051624e-04,-7.971367751171491147e-04,3.699291345705011391e-01
3.150000000000000000e+01,2.369317155478082859e-01,-4.774369344120610870e-01,1.000185159845117661e-01,1.802131646273881227e-01,8.786180342106572616e-02,-9.803216808080169544e-07,2.234246659296286030e-03,7.972784211999775494e-03,2.173432102347478523e+00,1.192721476390044269e-03,6.326847698774986685e-05,3.699243816897182513e-01
