time_total,x,y,z,vx,vy,vz,roll,pitch,yaw,roll_rate,pitch_rate,yaw_rate
0e-02,9.989826129224145534e-02,4.448485268790437763e-02,-1.671028124388652947e-01,3.510596544573054345e-04,-7.216816822510612600e-04,1.021715518070450378e-02,1.592907681244325746e-01,1.653412741170803488e-02,-4.166497158617330637e-02,3.494739643992174627e-01
2.500000000000000000e-01,-4.964179945464682331e-01,-3.908337137247352294e-02,9.993569161346391172e-02,5.352214974993139973e-02,-1.644353241162632429e-01,2.589759868120767076e-04,8.957891233214291572e-04,4.735049214223795676e-03,2.029788720772278121e-01,2.168272861311934877e-02,-3.882095467274629397e-02,3.493623858031935092e-01
5.000000000000000000e-01,-4.894725243526070746e-01,-5.962413998577741764e-02,9.996395688549354619e-02,5.660678833249807584e-02,-1.646699453005319447e-01,1.979329051032874861e-04,2.190832094373713033e-03,-3.076869363071833374e-05,2.466490723598420143e-01,1.446815926071965200e-02,-3.058739236792494889e-02,3.493193656718756590e-01
7.500000000000000000e-01,-4.824551977010078097e-01,-8.034780194579059509e-02,9.998529281506664257e-02,5.509474316058087656e-02,-1.670798095545975859e-01,1.460846615966829212e-04,2.467971622672913458e-03,-3.341581336338349251e-03,2.903133806170942188e-01,4.263598138466631778e-03,-1.938921496433562708e-02,3.493174328902304837e-01
1.000000000000000000e+00,-4.758288613713245185e-01,-1.014404285464789168e-01,1.000005425487419664e-01,5.076277500955726774e-02,-1.703308674819150603e-01,1.007945330301755239e-04,1.999297901249840956e-03,-4.868319120469912983e-03,3.339808025451495022e-01,-3.043730835438134170e-03,-6.440344052860800562e-03,3.493287950344760584e-01
1.250000000000000000e+00,-4.698191375988357565e-01,-1.229343428947292649e-01,1.000107461073188736e-01,4.559665160116033872e-02,-1.733772101806444477e-01,6.557395873039466500e-05,1.440015771477531816e-03,-4.584740228757371895e-03,3.776504993820141154e-01,-6.357411492361798346e-03,7.064271889511698245e-03,3.493426964780187438e-01
1.500000000000000000e+00,-4.643988763623831395e-01,-1.447638907097197336e-01,1.000173368543891272e-01,4.161985733983786240e-02,-1.756654039431457814e-01,4.279052030706502648e-05,1.293315057524400784e-03,-2.678831231714018206e-03,4.213201784645140835e-01,-7.579528853589260345e-03,1.931267924837786615e-02,3.493628107230821733e-01
1.750000000000000000e+00,-4.592988160487789795e-01,-1.668136901883213452e-01,1.000218948388530704e-01,4.063993731508792201e-02,-1.768874774984064702e-01,3.236487525623600196e-05,1.668798285474160569e-03,4.982487201491846065e-04,4.649920068450105748e-01,-8.963187732105895936e-03,2.814853361907584256e-02,3.493918191450519628e-01
2.000000000000000000e+00,-4.540547504705985116e-01,-1.889281532075541559e-01,1.000257752692469276e-01,4.393432966103302112e-02,-1.766706929383254354e-01,3.075537331668949128e-05,2.337027089281696387e-03,4.464473858211737839e-03,5.086696732784129482e-01,-1.137040783788780679e-02,3.186144618337800188e-02,3.494223058380595548e-01
2.250000000000000000e+00,-4.480917824481829292e-01,-2.108936815430656198e-01,1.000296765737683780e-01,5.199111477639469653e-02,-1.744699230307385773e-01,3.142483212833694874e-05,2.938227073826917522e-03,8.648462731444985299e-03,5.523527099814607988e-01,-1.401641346191749744e-02,2.987470344273989928e-02,3.494408205530651346e-01
2.500000000000000000e+00,-4.408310882017691390e-01,-2.324240158977984305e-01,1.000334485222490050e-01,6.441629807712778710e-02,-1.697079263584984621e-01,2.797303136369464244e-05,3.185526890969861847e-03,1.245478485082362856e-02,5.960353562984503917e-01,-1.528375720739380550e-02,2.293317093467988829e-02,3.494381394403529573e-01
2.750000000000000000e+00,-4.317949468655993273e-01,-2.531730974341134810e-01,1.000363426492268670e-01,8.004643295516591928e-02,-1.620434673009894244e-01,1.753457701903220374e-05,2.968937047345528157e-03,1.534726986433240098e-02,6.397106988777458980e-01,-1.380080828316162037e-02,1.277507188714044339e-02,3.494157975503528468e-01
3.000000000000000000e+00,-4.206864724652746301e-01,-2.727805839712548197e-01,1.000375582311519990e-01,9.722264341869588100e-02,-1.516016074459439755e-01,1.942004143474937825e-06,2.349957407376797400e-03,1.693069710964455188e-02,6.833755759488633341e-01,-9.148737559784922077e-03,1.538786819027896822e-03,3.493847122447354958e-01
3.250000000000000000e+00,-4.074295285271744560e-01,-2.909371445325054650e-01,1.000367618648657086e-01,1.141348271192134944e-01,-1.390534728638097850e-01,-1.366593753898144046e-05,1.491017898868467369e-03,1.700961837087736073e-02,7.270321712100821232e-01,-1.979764920659681481e-03,-8.796469412904522542e-03,3.493584629526580443e-01
3.500000000000000000e+00,-3.921661600904263190e-01,-3.074483160577611840e-01,1.000343249772152748e-01,1.291446888549747929e-01,-1.255225237135933480e-01,-2.368217066147895839e-05,5.752379824359980407e-04,1.561125997225075793e-02,7.706859809461744648e-01,6.313191722639831770e-03,-1.675616275965092702e-02,3.493463636789936877e-01
3.750000000000000000e+00,-3.752184863860610342e-01,-3.222778201396341857e-01,1.000311925411589975e-01,1.410272729504134237e-01,-1.123656109029167322e-01,-2.485149488086288184e-05,-2.471872879137801144e-04,1.297097015095076931e-02,8.143425010552554077e-01,1.409146904607984363e-02,-2.148286832147536934e-02,3.493498972822092763e-01
4.000000000000000000e+00,-3.570270740369785867e-01,-3.355595902867759550e-01,1.000284733733515091e-01,1.491081040476596453e-01,-1.009059164609678455e-01,-1.776988314645721183e-05,-8.774482453047378590e-04,9.487711902900613017e-03,8.580048726702984574e-01,1.989526732357946998e-02,-2.269793677256072215e-02,3.493632954443211536e-01
4.250000000000000000e+00,-3.380787894854478948e-01,-3.475771697151638917e-01,1.000269687402338126e-01,1.532997754618670716e-01,-9.218683142194909752e-02,-6.409215081573932953e-06,-1.262520572000998048e-03,5.661249810551995457e-03,9.016732234601024798e-01,2.269533060443260433e-02,-2.060816789826458093e-02,3.493771828707459282e-01
4.500000000000000000e+00,-3.188357352409743051e-01,-3.587161981570098912e-01,1.000268738730328566e-01,1.540538748174642703e-01,-8.679028631628044055e-02,3.978003057358870328e-06,-1.382230188288748008e-03,2.022712610374571927e-03,9.453453449125888142e-01,2.198287967393128609e-02,-1.581010902346308492e-02,3.493834190407336115e-01
4.750000000000000000e+00,-2.996746599951528034e-01,-3.693994414940656168e-01,1.000277853993880306e-01,1.522467795020202297e-01,-8.473767928754968870e-02,9.415482739156139577e-06,-1.240643955618926262e-03,-9.319115800878529721e-04,9.890180981321339271e-01,1.775941394047812413e-02,-9.195739595494540480e-03,3.493790490245552438e-01
5.000000000000000000e+00,-2.808438957349892462e-01,-3.800149068566038846e-01,1.000289867255189508e-01,1.490182567360821830e-01,-8.547488031472812164e-02,8.935719142319165439e-06,-8.647149000290456919e-04,-2.798542147909098381e-03,1.032689003395041549e+00,1.048302088001363229e-02,-1.841507635648032513e-03,3.493676039668289768e-01
5.250000000000000000e+00,-2.624423999169824828e-01,-3.908471800274861963e-01,1.000298518648645163e-01,1.455838052425321993e-01,-8.793474252077330966e-02,4.736247714445970194e-06,-3.065909095980824325e-04,-3.307880718664964800e-03,1.076357441155157968e+00,9.991754927122227341e-04,5.129211005726831175e-03,3.493570955215984375e-01
5.500000000000000000e+00,-2.444226617500958043e-01,-4.020210460816557863e-01,1.000301662188981811e-01,1.430447827753874024e-01,-9.066695762233205336e-02,8.203515984673420479e-07,3.559337243535621123e-04,-2.352551401711595446e-03,1.120024907214189014e+00,-9.540750269289117666e-03,1.069932220472428336e-02,3.493556335971614857e-01
5.750000000000000000e+00,-2.266160968290828193e-01,-4.134649960136815849e-01,1.000302165180543823e-01,1.422218922499951244e-01,-9.202207169998552483e-02,8.453060711830685743e-07,1.024518709065391341e-03,1.594641318080696095e-06,1.163694088157946060e+00,-1.978069967286012060e-02,1.410147000893731579e-02,3.493668306811288926e-01
6.000000000000000000e+00,-2.087764543356118718e-01,-4.249003209353383048e-01,1.000306141042361791e-01,1.435354309113737459e-01,-9.037235964946042921e-02,6.163952273973022920e-06,1.591357394020231214e-03,3.519272729275429046e-03,1.207367114355846649e+00,-2.828806592176255283e-02,1.492587156118031951e-02,3.493873281811992748e-01
6.250000000000000000e+00,-1.906341940465285101e-01,-4.358590159020246380e-01,1.000319332691210206e-01,1.469495875781675065e-01,-8.434729160219403554e-02,1.490110852747040023e-05,1.954014668064132237e-03,7.814088121672869980e-03,1.251043862333878653e+00,-3.371096729957612226e-02,1.317600190202982378e-02,3.494078233176095005e-01
6.500000000000000000e+00,-1.719531824758989413e-01,-4.457306172809414879e-01,1.000343270877379481e-01,1.519892026949895281e-01,-7.305658228314394764e-02,2.249856767984491473e-05,2.030718380872450698e-03,1.238154166652088474e-02,1.294721274039130288e+00,-3.495939251667024017e-02,9.266162897113724983e-03,3.494173906575282484e-01
6.750000000000000000e+00,-1.525806492145527216e-01,-4.538344862182576711e-01,1.000373041342913077e-01,1.578273662635747143e-01,-5.627050477765307979e-02,2.363647809925653330e-05,1.773146363159933733e-03,1.664716089863221143e-02,1.338394245484332057e+00,-3.139426668988551383e-02,3.961577039106348348e-03,3.494093438078728631e-01
7.000000000000000000e+00,-1.324821984867407265e-01,-4.595101908907229804e-01,1.000398019515637699e-01,1.634322260733214738e-01,-3.452664357339937234e-02,1.488350478154574012e-05,1.174807178507733703e-03,2.002905843495349225e-02,1.382057892305412539e+00,-2.299533513995319009e-02,-1.735158135112606966e-03,3.493859249408111101e-01
7.250000000000000000e+00,-1.117557317132679834e-01,-4.622149866931993256e-01,1.000405801167313230e-01,1.677521475345427338e-01,-9.136208747981242745e-03,-3.038592461950372324e-06,2.741281223820920925e-04,2.201126947376536372e-02,1.425710255028083573e+00,-1.046756082163000784e-02,-6.743565741505596484e-03,3.493591727711733985e-01
7.500000000000000000e+00,-9.062126574654202904e-02,-4.616146090842120908e-01,1.000388026873130914e-01,1.699106043418668610e-01,1.792698871015312514e-02,-2.462479089329034935e-05,-8.480262428024335289e-04,2.222002823735757041e-02,1.469354108419361093e+00,4.757324409666597795e-03,-1.009489931264821380e-02,3.493466672273118911e-01
7.750000000000000000e+00,-6.938757196623852874e-02,-4.576524933614483093e-01,1.000345474519848954e-01,1.693771483337365158e-01,4.425506350053678289e-02,-4.135733912544348352e-05,-2.076341666955242981e-03,2.049109105058292274e-02,1.512996742416704343e+00,2.065649016526044032e-02,-1.112344661522100472e-02,3.493632757886510620e-01
8.000000000000000000e+00,-4.840084120791132011e-02,-4.505839102810019758e-01,1.000289516957650199e-01,1.660806675905267815e-01,6.733001663275339777e-02,-4.550470254257656008e-05,-3.274038305809427209e-03,1.691413711424445340e-02,1.556647425676712881e+00,3.489322290207574895e-02,-9.619289992618100180e-03,3.494125369695513794e-01
8.250000000000000000e+00,-2.798442875361679266e-02,-4.409657913177211230e-01,1.000238385335659591e-01,1.604382359722280604e-01,8.489778434650938066e-02,-3.425174387550640058e-05,-4.299622924266312263e-03,1.184174524490384274e-02,1.600313447426233049e+00,4.520110733968910055e-02,-5.900068759742433527e-03,3.494823777469583947e-01
8.500000000000000000e+00,-8.381184705155092160e-03,-4.295999060007962278e-01,1.000209330801331287e-01,1.532877068178633562e-01,9.532965932901917017e-02,-1.182455382002446149e-05,-5.025395096145500624e-03,5.855676363372184536e-03,1.643996559999408635e+00,4.980618291725032870e-02,-7.717930086233455288e-04,3.495483808334282627e-01
8.750000000000000000e+00,1.028990537130604691e-02,-4.174353841123965014e-01,1.000210381824781780e-01,1.457322212419865093e-01,9.790303556259404016e-02,1.199790310714207568e-05,-5.355148049775306819e-03,-3.090115377244597806e-04,1.687691713075026412e+00,4.779928004592143287e-02,4.626781651398560041e-03,3.495841012052337549e-01
9.000000000000000000e+00,2.805340994700483009e-02,-4.054446331424458316e-01,1.000236228938132244e-01,1.389252591760491706e-01,9.294274779461064728e-02,2.663997377816285168e-05,-5.238359403336243468e-03,-5.872777837864163498e-03,1.731388979598685429e+00,3.937060589591870330e-02,9.071730439738738550e-03,3.495737924722268630e-01
9.250000000000000000e+00,4.506878045028449298e-02,-3.944926844696347579e-01,1.000270917946415317e-01,1.338405869189502884e-01,8.178727943371784381e-02,2.630428541087775324e-05,-4.678448201504658427e-03,-1.013614829361420694e-02,1.775077935193809964e+00,2.583836693332024897e-02,1.154079462068141083e-02,3.495208160812171005e-01
9.500000000000000000e+00,6.159470879894127227e-02,-3.852224166677167827e-01,1.000296238452813985e-01,1.310779767050902489e-01,6.657704166513664368e-02,1.308373272589851032e-05,-3.733366849105017315e-03,-1.259729622978695424e-02,1.818752350844067278e+00,9.441688409578338423e-03,1.146855982635064733e-02,3.494466734878580727e-01
9.750000000000000000e+00,7.793404001508916212e-02,-3.779760807924838484e-01,1.000301177409009395e-01,1.307501012057448730e-01,4.989868932307969102e-02,-4.430806789697871247e-06,-2.507880199825502157e-03,-1.303856251450058283e-02,1.862412768083051784e+00,-7.078615837169469939e-03,8.898510974816030081e-03,3.493806094334330758e-01
1.000000000000000000e+01,9.437142365036459146e-02,-3.727671146209762809e-01,1.000286958852809882e-01,1.324784573294059131e-01,3.435199660389808701e-02,-1.632444371985174649e-05,-1.138288599065531009e-03,-1.156190034522293353e-02,1.906065636948199415e+00,-2.103027654672604690e-02,4.481803529417062622e-03,3.493452919651513500e-01
1.025000000000000000e+01,1.111177312973878617e-01,-3.693064640326894077e-01,1.000264851097704966e-01,1.354998319702607756e-01,2.212565699450230045e-02,-1.708298899717168804e-05,2.281668033839961529e-04,-8.562940065358648836e-03,1.949719621250855184e+00,-3.032520077138459863e-02,-6.868180395995026688e-04,3.493465488196746405e-01
1.050000000000000000e+01,1.282735933319178734e-01,-3.670765675891078939e-01,1.000248499653282608e-01,1.388562939958148945e-01,1.466908808572914974e-02,-8.238866411869308465e-06,1.455806685087774732e-03,-4.647130402160582797e-03,1.993381238463621363e+00,-3.390074667005513187e-02,-5.356700409139377589e-03,3.493726718678070164e-01
1.075000000000000000e+01,1.458194919360911168e-01,-3.654363960407117085e-01,1.000245910544774464e-01,1.416195726183037684e-01,1.252659715553981930e-02,3.539549005006859218e-06,2.440881014608377655e-03,-5.056694825027056904e-04,2.037052215203859706e+00,-3.189604174855027729e-02,-8.454539333452382524e-03,3.494028858500454748e-01
1.100000000000000000e+01,1.636329811429547421e-01,-3.637349915713429249e-01,1.000255990276167906e-01,1.430919813380890360e-01,1.536170177532464494e-02,1.122920439243586181e-05,3.125768448709224413e-03,3.221015384233594844e-03,2.080729706589170558e+00,-2.554075677362781238e-02,-9.370406254529513312e-03,3.494191766273303523e-01
1.125000000000000000e+01,1.815266734227537204e-01,-3.614104371187500941e-01,1.000271045943388060e-01,1.429331690772930041e-01,2.215349026898343412e-02,1.164256596253329968e-05,3.503936948133079456e-03,6.061952568866199598e-03,2.124408728709221261e+00,-1.679495939172855751e-02,-8.115505648597512792e-03,3.494144059140978364e-01
1.150000000000000000e+01,1.992955192287712285e-01,-3.580561421257994481e-01,1.000282610801237482e-01,1.411828307538597893e-01,3.150724197834653406e-02,6.424707461403613255e-06,3.614623721666422769e-03,7.791316793185096116e-03,2.168085013186033638e+00,-7.842348485966569790e-03,-5.304751575257567187e-03,3.493930123299937018e-01
1.175000000000000000e+01,2.167600021346026695e-01,-3.534452445996369430e-01,1.000286305375740759e-01,1.381785769467680780e-01,4.199858713686519668e-02,-1.552878432743220426e-07,3.528729788642216616e-03,8.446551179746252663e-03,2.211756665851538184e+00,-5.696096814377449909e-04,-1.965786645030135824e-03,3.493657214723153159e-01
1.200000000000000000e+01,2.337937127912992075e-01,-3.475143504537793193e-01,1.000282988564852454e-01,1.343975756747129435e-01,5.246886301822693138e-02,-4.447677632111599939e-06,3.329582226290873827e-03,8.287584183088465145e-03,2.255424140046892845e+00,3.840186367535618466e-03,7.738566840586930031e-04,3.493428126352965957e-01
1.225000000000000000e+01,2.503288495253259693e-01,-3.403171086910177778e-01,1.000276546429805929e-01,1.302720453141746060e-01,6.220797520919099655e-02,-5.297403298299505967e-06,3.093327422609334996e-03,7.708944125669746870e-03,2.299089151761733341e+00,5.107023208453439871e-03,2.032380116765855962e-03,3.493299548298306467e-01
1.250000000000000000e+01,2.663400862857688844e-01,-3.319640440049554386e-01,1.000270784131296886e-01,1.260358409779759603e-01,7.099433736154397989e-02,-3.709737142562982652e-06,2.873538919395205934e-03,7.126955135407240897e-03,2.342753522867518257e+00,3.809657219932874143e-03,1.450534069550511685e-03,3.493277202833315886e-01
1.275000000000000000e+01,2.818139574202113140e-01,-3.225663673080201299e-01,1.000267687549989404e-01,1.216498245898046532e-01,7.900030417401607274e-02,-1.301684109778751950e-06,2.693306951255922902e-03,6.869420899725544281e-03,2.386418532141890037e+00,1.125801257864345820e-03,-6.843202541947893298e-04,3.493332967270416645e-01
1.300000000000000000e+01,2.967154536743586424e-01,-3.121981310922583575e-01,1.000267510342542493e-01,1.168299250709824433e-01,8.660558906357018749e-02,8.528050079332780184e-07,2.546056702046117087e-03,7.093974375278576730e-03,2.430084747438995496e+00,-1.560462281549270533e-03,-3.508204353178749277e-03,3.493423929106154735e-01
1.325000000000000000e+01,3.109645236783493694e-01,-3.008842823819407042e-01,1.000269576873431543e-01,1.111704799842248292e-01,9.418173057508061330e-02,2.246375211973041983e-06,2.404171142600312287e-03,7.754035573223650238e-03,2.473752053011425645e+00,-3.071964684103636531e-03,-5.831410484771088268e-03,3.493505142055537971e-01
1.350000000000000000e+01,3.244322519953692363e-01,-2.886139304615322754e-01,1.000272643217897384e-01,1.043254821001357996e-01,1.019130853484266908e-01,2.398430586950121064e-06,2.232682864716250149e-03,8.619882836893046768e-03,2.517419747543882647e+00,-2.761310404987542527e-03,-6.505007176609221321e-03,3.493540003677439998e-01
1.375000000000000000e+01,3.369603802431964668e-01,-2.753707894297653391e-01,1.000274793028330667e-01,9.619038969760869418e-02,1.097044099094776209e-01,7.734601427706281710e-07,2.004213080177555482e-03,9.349141720600851607e-03,2.561086819788887414e+00,-6.606013805201381038e-04,-4.800446958889190152e-03,3.493512216357012590e-01
1.400000000000000000e+01,3.484002424778531726e-01,-2.611682352931785078e-01,1.000273743004224114e-01,8.702347975233869215e-02,1.171966714484488914e-01,-2.558409634521174231e-06,1.711162327007525888e-03,9.588723093291073168e-03,2.604752463133006568e+00,2.576103213645409683e-03,-6.876923220103764271e-04,3.493434138482247042e-01
1.425000000000000000e+01,3.586603266264313805e-01,-2.460758654056434680e-01,1.000268064722866918e-01,7.746050928059951268e-02,1.238793425823633415e-01,-6.301562270624996472e-06,1.371910561730618240e-03,9.081742251273380861e-03,2.648416595492276482e+00,5.913210964906712164e-03,5.081956526501943058e-03,3.493341444193068246e-01
1.450000000000000000e+01,3.677477171772833842e-01,-2.302278763550505425e-01,1.000258586432392349e-01,6.840662588639824515e-02,1.292585651552179971e-01,-8.344529702096972423e-06,1.029311668599607304e-03,7.750801373784693173e-03,2.692079968714961691e+00,8.279112887597785131e-03,1.112928259892161445e-02,3.493272212389887943e-01
1.475000000000000000e+01,3.757890608793376108e-01,-2.138098477279667675e-01,1.000248535922784038e-01,6.082682389988035287e-02,1.330247020367073540e-01,-7.217344767528893931e-06,7.417500864600329313e-04,5.734503785339544434e-03,2.735743678694050107e+00,8.907641740447089923e-03,1.580570999437437910e-02,3.493243602372712031e-01
1.500000000000000000e+01,3.830216063210990507e-01,-1.970276454760060414e-01,1.000241791449683199e-01,5.548940601422770041e-02,1.351647640333242528e-01,-3.409912664888950008e-06,5.689961949760725035e-04,3.366272180176623201e-03,2.779408398040597028e+00,7.569408427883436707e-03,1.765823229137122516e-02,3.493245184754883992e-01
1.525000000000000000e+01,3.897530456538001453e-01,-1.800678967325524127e-01,1.000240336873402108e-01,5.273499193694040216e-02,1.359842402806595574e-01,7.752256082006671248e-07,5.565232628245850776e-04,1.100170238380807639e-03,2.823073969516214810e+00,4.624989266803737446e-03,1.586346118704354269e-02,3.493255832009360407e-01
1.550000000000000000e+01,3.962979676192032175e-01,-1.630620668100304926e-01,1.000242990464334375e-01,5.234016435817200052e-02,1.360325598769660804e-01,2.937027151186854963e-06,7.224153602442501352e-04,-5.970606452813857854e-04,2.866739754218494696e+00,8.915204217041233651e-04,1.049808069868234627e-02,3.493269876929619988e-01
1.575000000000000000e+01,4.029059720352334839e-01,-1.460648754368242541e-01,1.000246584602705602e-01,5.352022588213906085e-02,1.359568924066242301e-01,2.469747752492796405e-06,1.050364704777119072e-03,-1.359342760572027596e-03,2.910405472573122321e+00,-2.625477090763848453e-03,2.560189782819563987e-03,3.493307898968119884e-01
1.600000000000000000e+01,4.096996518364293127e-01,-1.290531809909221395e-01,1.000248679353853282e-01,5.507693643425118357e-02,1.363304055650000624e-01,9.627650336967487812e-07,1.490717036825673497e-03,-1.010377026827979528e-03,2.954071785729692312e+00,-5.042667964295531255e-03,-6.267991868163218933e-03,3.493399507847715357e-01
1.625000000000000000e+01,4.166387015743625022e-01,-1.119451383783724302e-01,1.000249498323940028e-01,5.565629389173267633e-02,1.375069867270710955e-01,7.073738815134982761e-07,1.969502241241762822e-03,3.938598544738272362e-04,2.997740018677500728e+00,-5.851678095252316365e-03,-1.404489986421599869e-02,3.493550632504576203e-01
1.650000000000000000e+01,4.235199168400647363e-01,-9.463346404708948556e-02,1.000251410857818934e-01,5.405106961210229266e-02,1.395438083702672249e-01,2.595351962427580306e-06,2.403405826938861088e-03,2.578207690809369672e-03,3.041411136651471114e+00,-5.040141699451361999e-03,-1.905421114767771526e-02,3.493723543977832469e-01
1.675000000000000000e+01,4.300137643143914778e-01,-7.702284249392497839e-02,1.000256410400265916e-01,4.947209607505004964e-02,1.422105140855856598e-01,5.228275134416024672e-06,2.717184848138971473e-03,5.110667342995541852e-03,3.085084751279477455e+00,-3.055934887313206585e-03,-2.020929004355590669e-02,3.493849246590206570e-01
1.700000000000000000e+01,4.357292178724965215e-01,-5.906087677953610754e-02,1.000263755387148373e-01,4.172363879339376774e-02,1.450773529078032698e-01,5.982659535968382043e-06,2.859476438762224154e-03,7.495374452310302020e-03,3.128758972348805845e+00,-6.419148166197202439e-04,-1.727320948997412148e-02,3.493865953149408732e-01
1.725000000000000000e+01,4.402920332424534733e-01,-4.075457782386614214e-02,1.000354966241040755e-01,3.124469586740944577e-02,1.476494294369814497e-01,3.282834982601269926e-05,2.817139245154291153e-03,9.271628138369259267e-03,-3.110259666214520102e+00,1.364879926880424241e-03,-1.084618503214080862e-02,3.440270907847446380e-01
1.750000000000000000e+01,4.434200499366228176e-01,-2.216823504119364366e-02,1.000351113406789255e-01,1.902507615741939537e-02,1.495298673229845665e-01,-1.974772866649519013e-05,2.604772614522745614e-03,1.009842503120795404e-02,-3.066954033325936191e+00,2.416257785075794518e-03,-2.227427283695179033e-03,3.479276763767525371e-01
1.775000000000000000e+01,4.449794012050871106e-01,-3.403993703786595965e-03,1.000321337221820595e-01,6.397527620358909282e-03,1.505118409108947286e-01,-2.554151463882898702e-05,2.275959513429905070e-03,9.810005304918859373e-03,-3.023386216341589883e+00,2.082769418431698084e-03,6.973437475271201599e-03,3.489526472691235059e-01
1.800000000000000000e+01,4.450116181544662708e-01,1.542659263778728244e-02,1.000289811717621491e-01,-5.212074741314983925e-03,1.506519072625040201e-01,-2.426437768562865894e-05,1.910908096802291668e-03,8.431263888646753010e-03,-2.979749913085540047e+00,4.223983238559813019e-04,1.509586889704055829e-02,3.492145879890810045e-01
1.825000000000000000e+01,4.437281032908398926e-01,3.423630266410516293e-02,1.000262384255636433e-01,-1.454779050782408455e-02,1.502665401493089858e-01,-1.920123082983579027e-05,1.596524692561899095e-03,6.167076776221930116e-03,-2.936095363648508094e+00,-2.150638113342056949e-03,2.072602805353030916e-02,3.492785809965930910e-01
1.850000000000000000e+01,4.414738112083435584e-01,5.299047579225787258e-02,1.000243247870118840e-01,-2.074758341051344268e-02,1.498571032691889404e-01,-1.139128259508555982e-05,1.411605274993242608e-03,3.364760939548424364e-03,-2.892435269806174158e+00,-4.972364122604808201e-03,2.291151690185364020e-02,3.492937004566078474e-01
1.875000000000000000e+01,4.386674232194716638e-01,7.172269027336276859e-02,1.000234335358598098e-01,-2.349317614475194410e-02,1.499893577948083478e-01,-3.357587625232158336e-06,1.414362259106759223e-03,4.584969303355710822e-04,-2.848773315680789509e+00,-7.281870369804511849e-03,2.129043118809638424e-02,3.492973644569399294e-01
1.900000000000000000e+01,4.357288002175100372e-01,9.053383706666749686e-02,1.000233996216910587e-01,-2.306461091485987810e-02,1.511537710480982122e-01,1.998672009611305397e-06,1.633907007816108635e-03,-2.096849428193473756e-03,-2.805111280892426340e+00,-8.391040096303238605e-03,1.613412539269834869e-02,3.492989960347255285e-01
1.925000000000000000e+01,4.330061999451558785e-01,1.095741115116062592e-01,1.000237676267002884e-01,-2.029299453354566768e-02,1.536365330146331198e-01,3.141515001997083570e-06,2.066325855783490446e-03,-3.894917231728802724e-03,-2.761450039812022972e+00,-7.842732387148486708e-03,8.301257040190437170e-03,3.493033202279865468e-01
1.950000000000000000e+01,4.307156055259787619e-01,1.290111289473006018e-01,1.000240364796924075e-01,-1.641970158669910085e-02,1.574295152909371276e-01,8.461680960165728758e-07,2.675429394797785177e-03,-4.641549575787550473e-03,-2.717789119808558418e+00,-5.528998611349438333e-03,-8.980438159073382814e-04,3.493153718254037865e-01
1.975000000000000000e+01,4.289025300097559779e-01,1.489905150403934286e-01,1.000239337600190154e-01,-1.288487099855059430e-02,1.622006473523875669e-01,-2.259977669627106090e-06,3.397940089571685040e-03,-4.203590534751310177e-03,-2.674126564744219614e+00,-1.742751128908025596e-03,-9.919602788378480140e-03,3.493390213866950922e-01
2.000000000000000000e+01,4.274329464956210245e-01,1.695973118874627428e-01,1.000235504124692004e-01,-1.108089950054000350e-02,1.673347583548966400e-01,-3.321690179395280579e-06,4.152586280279767054e-03,-2.633667771819436180e-03,-2.630459680156784330e+00,2.856151554297674082e-03,-1.725813128390697379e-02,3.493738327986556924e-01
2.025000000000000000e+01,4.260149221500266759e-01,1.908268683444744318e-01,1.000232475445675118e-01,-1.211507080949766890e-02,1.720402006000102957e-01,-1.071618982882088328e-06,4.852121689993659469e-03,-1.644190714788310048e-04,-2.586786435843489773e+00,7.363566585048059686e-03,-2.172844655765044167e-02,3.494133883090654313e-01
2.050000000000000000e+01,4.242475323574395607e-01,2.125713508370634663e-01,1.000236870920168941e-01,-1.655532146544686986e-02,1.753996748355461377e-01,1.612336489377531223e-05,3.451550691299708293e-03,2.807330295056145123e-03,-2.546561033267503049e+00,9.576008202835184502e-02,3.653537806775727231e-02,1.604911558759375412e-01
2.075000000000000000e+01,4.220761979231636984e-01,2.340854906482759956e-01,1.000344756867577733e-01,-1.552827103279625504e-02,1.643113439912239349e-01,2.630569538303467476e-04,-2.430864644808094013e-02,5.129039202745025797e-03,-2.555782651191173205e+00,2.426528466809427520e-01,1.456834494849425787e-01,-2.134058287470272375e-01
2.100000000000000000e+01,4.212529140140358064e-01,2.520533765763983136e-01,1.001004940903800627e-01,4.882501300906940886e-03,1.189081661219583280e-01,6.691590557835542163e-04,-5.611924828612015886e-02,5.836332823749427676e-03,-2.590364290783754520e+00,1.675763650138894501e-01,1.039495873936988196e-01,-3.125294074411015810e-01
2.125000000000000000e+01,4.239702695192818505e-01,2.624674071187984015e-01,1.001554290025960803e-01,3.849752346873576425e-02,4.756293858428084498e-02,7.449488373099507547e-05,-6.871832264718225058e-02,5.268935716419727994e-03,-2.631579625695774638e+00,3.263088240639433653e-03,9.081059166246695930e-03,-3.392707669932165104e-01
2.150000000000000000e+01,4.309601500885458236e-01,2.635302545982468603e-01,1.001082524043999250e-01,7.095684020959196203e-02,-2.658494605561833105e-02,-7.122838931857842018e-04,-5.903294529953999337e-02,4.694227318349961445e-03,-2.674514252523298108e+00,-1.279095727859532461e-01,-6.264798558335998857e-02,-3.466503427584186614e-01
2.175000000000000000e+01,4.413191847210256036e-01,2.562810027710706873e-01,1.000119550035584726e-01,9.169204299951584647e-02,-8.360916955745761880e-02,-6.898938918091988793e-04,-3.717694423600127751e-02,4.971558205085534546e-03,-2.717901148638917963e+00,-1.687256928533513445e-01,-8.241296992360695739e-02,-3.487217288699848705e-01
2.200000000000000000e+01,4.533403028505310073e-01,2.434798502215479443e-01,9.995636975397169388e-02,9.826368038305630104e-02,-1.161458529654534610e-01,-2.057076238606989820e-04,-1.590771066619684621e-02,5.884731236769814508e-03,-2.761426512696498303e+00,-1.300161080498388466e-01,-6.025326572001249437e-02,-3.493833653309402210e-01
2.225000000000000000e+01,4.654633478797994273e-01,2.279866502724008093e-01,9.995349152253973912e-02,9.464215406385093066e-02,-1.288091779777808532e-01,9.535168596747894813e-05,-3.183992425993567750e-03,6.531445276010702447e-03,-2.805036884673587139e+00,-5.777733786601593757e-02,-2.220804535277390995e-02,-3.495902008428284358e-01
2.250000000000000000e+01,4.768135425425032436e-01,2.116452487706274310e-01,9.996965688290496144e-02,8.703675987911277390e-02,-1.318197124351709604e-01,1.349158796562414757e-04,-1.360934200652568025e-04,6.157960821328512663e-03,-2.848714716931514346e+00,3.189074472277538333e-03,8.847180809639119264e-03,-3.495446361390425749e-01
2.275000000000000000e+01,4.872354548202765812e-01,1.950340411967564080e-01,9.998463171877991496e-02,8.035226491888430855e-02,-1.343286986481274092e-01,1.058040965187225717e-04,-3.170273524417985961e-03,4.742697890948738108e-03,-2.892415130257092848e+00,3.070198128675427976e-02,2.216254608556062627e-02,-3.494042100435929554e-01
2.300000000000000000e+01,4.970069522145631469e-01,1.778706216334226542e-01,9.999651282032769040e-02,7.662389639538143282e-02,-1.408406614851010208e-01,8.562915525035309002e-05,-7.536305457036300386e-03,3.001066105180030200e-03,-2.936100787127211564e+00,2.712621701425005361e-02,1.855286787779214519e-02,-3.493135824173270731e-01
2.325000000000000000e+01,5.064812585777465070e-01,1.596232960475050533e-01,1.000056128370505892e-01,7.525563946659895309e-02,-1.512367260636788280e-01,5.888892896399790532e-05,-1.002153612316868114e-02,1.943325829586150079e-03,-2.979770461899335476e+00,8.395065512562209856e-03,4.958321976708178654e-03,-3.493168954762932987e-01
2.350000000000000000e+01,5.158277211667907647e-01,1.399610888482473448e-01,1.000109654292246214e-01,7.416694068999503398e-02,-1.629377809572524760e-01,2.911552231365196984e-05,-9.808409881612934270e-03,2.344342002856202815e-03,-3.023438334625924373e+00,-9.215425792261032131e-03,-1.098572833975508707e-02,-3.493810267644667511e-01
2.375000000000000000e+01,5.249261878729595265e-01,1.189013501496125891e-01,1.000135334770710926e-01,7.098801787047201439e-02,-1.732847746306028780e-01,1.603697431734276866e-05,-7.826160515882482974e-03,4.427359371564225203e-03,-3.067109513939329180e+00,-1.715831708723689411e-02,-2.398009542276874698e-02,-3.494607422943892816e-01
2.400000000000000000e+01,5.333869101053185791e-01,9.671909235826578466e-02,1.000157308374998444e-01,6.384836931655527015e-02,-1.808831612227547181e-01,2.096742278195035968e-05,-5.524106694717995786e-03,7.861202875117257599e-03,-3.110782723683946926e+00,-1.561663503436777969e-02,-3.162120754156684532e-02,-3.495258229683481654e-01
2.425000000000000000e+01,5.406381994885287590e-01,7.377234527177002621e-02,1.000240441084024323e-01,5.170200772135218753e-02,-1.856810559184794429e-01,1.487549673204935548e-04,-3.902737518182969496e-03,1.197952629693534859e-02,3.127850449590759307e+00,-9.695488771569438918e-03,-3.355902349200664408e-02,-3.407012670494182771e-01
2.450000000000000000e+01,5.460333251228486340e-01,5.037469104796505476e-02,1.000319164078547068e-01,3.435789753726528617e-02,-1.882870958204852507e-01,2.382709877741652106e-05,-3.171591665764887744e-03,1.604742609432251166e-02,3.084806979509279845e+00,-4.930029325679692251e-03,-3.046173780903496317e-02,-3.470183945480408982e-01
2.475000000000000000e+01,5.489511082710097911e-01,2.676225581945872872e-02,1.000335903780807806e-01,1.236598157784406064e-02,-1.892192568107908812e-01,7.073861547748151699e-06,-2.931830384245577917e-03,1.945779494701084175e-02,3.041291921986094771e+00,-3.793894062947450983e-03,-2.328974414413401833e-02,-3.488284418869642689e-01
2.500000000000000000e+01,5.488799392648443520e-01,3.137819207429230935e-03,1.000337328066808473e-01,-1.311178815919492036e-02,-1.884974388647451815e-01,-5.076977147417973547e-06,-2.634768164541129425e-03,2.178867188006780586e-02,2.997659951435076575e+00,-5.650498112722655321e-03,-1.305703158608875238e-02,-3.492613793547492129e-01
2.525000000000000000e+01,5.454855799749491752e-01,-2.027100265729106857e-02,1.000321143626921316e-01,-4.043970602679117926e-02,-1.857626895018491542e-01,-2.053651680054892708e-05,-1.913367250994137819e-03,2.278194460110314137e-02,2.954011906740638516e+00,-8.045152543729236841e-03,-8.793761765280103809e-04,-3.493390605610416921e-01
2.550000000000000000e+01,5.386601806795812131e-01,-4.318648372632528237e-02,1.000285990160337257e-01,-6.767189340129420305e-02,-1.806419940263775947e-01,-3.453669503943395481e-05,-7.159795021200181415e-04,2.229981794222920047e-02,2.910370942401995453e+00,-8.504285629782049744e-03,1.198348575901741868e-02,-3.493483492583090988e-01
2.575000000000000000e+01,5.285484362142106596e-01,-6.530437983917115885e-02,1.000237042984878366e-01,-9.275371086128390841e-02,-1.731231519077472691e-01,-4.215649831107210095e-05,7.571319314604915002e-04,2.030539502858568976e-02,2.866732895331320918e+00,-5.772033812307958943e-03,2.415505043909142030e-02,-3.493683862539953555e-01
2.600000000000000000e+01,5.155464686489849013e-01,-8.635396141806561676e-02,1.000184344666291136e-01,-1.137525599799723008e-01,-1.637483984591541764e-01,-4.056783207685567234e-05,2.208079369749045562e-03,1.687756355156229404e-02,2.823086406233972223e+00,-1.087554285105956980e-04,3.425063714237344681e-02,-3.494124823813966052e-01
2.625000000000000000e+01,5.002713187811693718e-01,-1.061669777100490986e-01,1.000139945374781819e-01,-1.290920192654679555e-01,-1.535736742497033902e-01,-2.934771266570298644e-05,3.379708267234540851e-03,1.224054144100847862e-02,2.779423466038083212e+00,7.132032883812450264e-03,4.102776816959626677e-02,-3.494703941988185347e-01
2.650000000000000000e+01,4.835027041567620532e-01,-1.247291700198517872e-01,1.000114637265080014e-01,-1.377571050826655596e-01,-1.439515636589952519e-01,-1.093442837695864001e-05,4.122594381878930646e-03,6.779544704050347731e-03,2.735743368460666680e+00,1.419302778658989954e-02,4.354185008148900998e-02,-3.495241146146521038e-01
2.675000000000000000e+01,4.661025939088933590e-01,-1.421988356589801994e-01,1.000114139677670128e-01,-1.394415668213649651e-01,-1.362410621771642516e-01,9.161660988116560449e-06,4.392244482702838647e-03,1.023247602410017184e-03,2.692051771062488275e+00,1.948833380474571456e-02,4.128794395975324966e-02,-3.495559586119981743e-01
2.700000000000000000e+01,4.489213532566634912e-01,-1.588894738862840494e-01,1.000135953620103352e-01,-1.346150869640665437e-01,-1.315346534495175079e-01,2.376384104552776668e-05,4.210667014777608359e-03,-4.410044921056862841e-03,2.648357504811719831e+00,2.190756811966243500e-02,3.431704178027553120e-02,-3.495545956459243930e-01
2.725000000000000000e+01,4.327014923801271173e-01,-1.752224591654312491e-01,1.000169189965989663e-01,-1.244957818560437357e-01,-1.304547180803731776e-01,2.717446117936784473e-05,3.628647114519420892e-03,-8.892512959065837150e-03,2.604669183273726318e+00,2.089243115007381746e-02,2.330691663161730057e-02,-3.495200060243464080e-01
2.750000000000000000e+01,4.179913501826320599e-01,-1.916598357361065375e-01,1.000198605873079544e-01,-1.109219540206152071e-01,-1.330372143911458249e-01,1.838645291736427101e-05,2.708098751536958029e-03,-1.187733528321189419e-02,2.560992377601742920e+00,1.641245035319525980e-02,9.553448400717770572e-03,-3.494653617195935813e-01
2.775000000000000000e+01,4.050810703281741976e-01,-2.086283249403187157e-01,1.000211496107228371e-01,-9.612906767755330373e-02,-1.387042485196489372e-01,2.203862312512319684e-06,1.523969662202572309e-03,-1.298344072045981568e-02,2.517327661232605429e+00,8.935064530611545527e-03,-5.152655061017572848e-03,-3.494133286238643166e-01
2.800000000000000000e+01,3.939714571853666913e-01,-2.264455921535467597e-01,1.000203979092147977e-01,-8.245437586915992101e-02,-1.463246484032963424e-01,-1.276624244740041554e-05,1.735017396751291482e-04,-1.206040864492354849e-02,2.473670194141758927e+00,-5.964528827371079391e-04,-1.877522096382570199e-02,-3.493868443763021858e-01
2.825000000000000000e+01,3.843823140394047599e-01,-2.452597027480240000e-01,1.000183099006477644e-01,-7.200979320692761643e-02,-1.543608529141857477e-01,-1.843822443324562424e-05,-1.220167402137322223e-03,-9.222024063680776471e-03,2.430011549106762647e+00,-1.082523244720194969e-02,-2.937758061227278145e-02,-3.493982171030379780e-01
2.850000000000000000e+01,3.758008062784414238e-01,-2.650120376259690325e-01,1.000163218843634072e-01,-6.637764949368678280e-02,-1.610919272738865482e-01,-1.161214813648796497e-05,-2.516739473986836801e-03,-4.840481714547591012e-03,2.386343491532932681e+00,-2.013693332547467074e-02,-3.549023580438266656e-02,-3.494424116882637321e-01
2.875000000000000000e+01,3.675632102393290301e-01,-2.854316477122527673e-01,1.000158328100677063e-01,-6.638720391406385812e-02,-1.648858827141448102e-01,4.125362306633361035e-06,-3.578558457159186721e-03,5.012024353329960682e-04,2.342662028899956450e+00,-2.692182674339201401e-02,-3.640622202048193062e-02,-3.494987649929245377e-01
2.900000000000000000e+01,3.589567782197652379e-01,-3.060644982111526691e-01,1.000174344231654078e-01,-7.201790650142751715e-02,-1.644768622295504079e-01,2.020787104990826285e-05,-4.294740432625504013e-03,6.093467645995771613e-03,2.298969506757498671e+00,-2.989827044334184350e-02,-3.232111368234313192e-02,-3.495407710711073701e-01
2.925000000000000000e+01,3.493242428613441142e-01,-3.263347466821513998e-01,1.000205699911603519e-01,-8.244977987451132528e-02,-1.591929749750031486e-01,2.772162006573495110e-05,-4.601543732500084499e-03,1.120823955542285186e-02,2.255273486841311126e+00,-2.841210213863596887e-02,-2.427727368233593280e-02,-3.495488562052418979e-01
2.950000000000000000e+01,3.381529874628062537e-01,-3.456285172172305353e-01,1.000238178978424403e-01,-9.624928946287841791e-02,-1.490844735668866439e-01,2.225617081110432030e-05,-4.493102743601480424e-03,1.521191597366192139e-02,2.211583015270391250e+00,-2.261999700854021300e-02,-1.392743187335191042e-02,-3.495192815792548813e-01
2.975000000000000000e+01,3.251343107115319819e-01,-3.633853952772659879e-01,1.000256389558363268e-01,-1.116501063690219786e-01,-1.349203350044477778e-01,6.177842662159193408e-06,-4.020449056398789876e-03,1.766251339700129069e-02,2.167904380666174635e+00,-1.349558508155692706e-02,-3.180419292776587564e-03,-3.494646128349948033e-01
3.000000000000000000e+01,3.101846110846925852e-01,-3.791806328048952235e-01,1.000251617737154541e-01,-1.268698312207777457e-01,-1.180495118469105237e-01,-1.292324425600769595e-05,-3.280152335106114453e-03,1.837295378833394416e-02,2.124238613858324243e+00,-2.649822601075181843e-03,6.183004755188473145e-03,-3.494061055300188845e-01
3.025000000000000000e+01,2.934280967130566964e-01,-3.927825541749855875e-01,1.000225736288138101e-01,-1.403997111954854715e-01,-1.001532031918711818e-01,-2.654727079153817123e-05,-2.395953231343590697e-03,1.742925721992509905e-02,2.080581809244463010e+00,7.992510100610509052e-03,1.283818286017334581e-02,-3.493627933934471130e-01
3.050000000000000000e+01,2.751479965316082632e-01,-4.041745994759823879e-01,1.000189343062552610e-01,-1.512141465653875638e-01,-8.293859571163450517e-02,-2.971200687542420335e-05,-1.497486278940184665e-03,1.516115171130314083e-02,2.036927697487453059e+00,1.658671997148946850e-02,1.612444331615354651e-02,-3.493433782310140234e-01
3.075000000000000000e+01,2.557186827616549363e-01,-4.135387105268565344e-01,1.000155722047506440e-01,-1.588669255508257938e-01,-6.783733832232739791e-02,-2.297503549016848844e-05,-7.000592878436593357e-04,1.207127667511488124e-02,1.993270790911104040e+00,2.174729520630913279e-02,1.609977541933289499e-02,-3.493446947104570377e-01
3.100000000000000000e+01,2.355336165313227370e-01,-4.212047604935106326e-01,1.000134408582089157e-01,-1.634668546465523342e-01,-5.577108091701001719e-02,-1.119050464931000906e-05,-8.878716610995156092e-05,8.736513022933068209e-03,1.949608415614778822e+00,2.282992182535057910e-02,1.344192046715033534e-02,-3.493563484665965779e-01
3.125000000000000000e+01,2.149432464440202417e-01,-4.275777046494234068e-01,1.000127865281779105e-01,-1.655513143998227077e-01,-4.703170177784903733e-02,-1.770819837424444837e-07,2.906899677570110377e-04,5.700232174831015505e-03,1.905940872896916716e+00,2.005074329179517070e-02,9.226734272964462122e-03,-3.493677957572829396e-01
3.150000000000000000e+01,1.942132718218882725e-01,-4.330585060600675718e-01,1.000132443973759666e-01,-1.658966793165457254e-01,-4.129799542803760937e-02,6.425970007782962648e-06,4.339801355539688629e-04,3.376518537562434898e-03,1.862270147008324273e+00,1.440887484090517395e-02,4.640439499715060673e-03,-3.493734837038117713e-01
3.175000000000000000e+01,1.735080219856096895e-01,-4.379755938132494641e-01,1.000142104867165344e-01,-1.653149440848848406e-01,-3.777897388116364247e-02,8.305590952913371661e-06,3.725979921564282057e-04,1.985770398879777281e-03,1.818598267333365381e+00,7.422556328978859204e-03,6.968857878759355607e-04,-3.493737014879367830e-01
3.200000000000000000e+01,1.528975256619286849e-01,-4.425403804971780319e-01,1.000152064722218820e-01,-1.644840315170186529e-01,-3.544384879443786968e-02,7.398362531313011601e-06,1.630545030319209554e-04,1.535098849926420624e-03,1.774926321802739793e+00,7.382163593278532601e-04,-1.970708437943217116e-03,-3.493718661004444059e-01
3.225000000000000000e+01,1.323816731645991451e-01,-4.468338965854153910e-01,1.000160304762815755e-01,-1.638457823790534507e-01,-3.327796675217228883e-02,5.858649041814914758e-06,-1.271944487388785097e-04,1.847133482043447411e-03,1.731254437832696169e+00,-4.287630105135437422e-03,-3.193764535586633181e-03,-3.493709674457368131e-01
3.250000000000000000e+01,1.119219540588651668e-01,-4.508234901780644455e-01,1.000166825776908630e-01,-1.635841782856827520e-01,-3.049883197840533300e-02,4.686998397037395853e-06,-4.340056530835340867e-04,2.628982808850514972e-03,1.687582355211733720e+00,-6.916059241045595385e-03,-3.213558241770239285e-03,-3.493716870184963574e-01
3.275000000000000000e+01,9.147121083300252531e-02,-4.544009784191124224e-01,1.000172073614480628e-01,-1.636729631980163857e-01,-2.667969144353784031e-02,3.736156051624942855e-06,-7.080855557886513293e-04,3.562153636326424039e-03,1.643909971022773586e+00,-7.162014287359764857e-03,-2.515550799251689215e-03,-3.493728504639970756e-01
3.300000000000000000e+01,7.099447244892942432e-02,-4.574288310017795012e-01,1.000176026539062041e-01,-1.639635455908938499e-01,-2.175747454002539480e-02,2.572901309132741446e-06,-9.215238278934602140e-04,4.387691047931559750e-03,1.600237489504402033e+00,-5.691300725785732560e-03,-1.617149647418961557e-03,-3.493730561404867485e-01
3.325000000000000000e+01,5.047817796830507409e-02,-4.597804369759744825e-01,1.000178346170060573e-01,-1.642767685174152947e-01,-1.593892989892117112e-02,1.170031188921214052e-06,-1.068303519714908093e-03,4.961648681282182505e-03,1.556565234482918170e+00,-3.510351336414657946e-03,-8.888103441067648613e-04,-3.493718746658461827e-01
3.350000000000000000e+01,2.992939544399995933e-02,-4.613644459085031735e-01,1.000178953093347478e-01,-1.644681996155659964e-01,-9.551165202539431756e-03,-9.730795774566733961e-08,-1.159394305422348443e-03,5.265512726020195322e-03,1.512893407831537695e+00,-1.563455369602532227e-03,-4.726317245074725115e-04,-3.493699013102644080e-01
