time_total,x,y,z,vx,vy,vz,roll,pitch,yaw,roll_rate,pitch_rate,yaw_rate
e-02,9.990931080915826934e-02,3.067385671728674670e-02,1.743628875722758320e-01,3.841743115700419950e-04,2.147533195022085801e-03,4.477171666142833878e-03,-3.092918891406842175e+00,-1.641631617245776359e-02,9.666160554190256216e-03,3.462277075169267193e-01
2.500000000000000000e-01,5.226615507849611264e-01,-1.581907157135858250e-02,9.994818629435625601e-02,2.544410048919903966e-02,1.768756135619445335e-01,2.561420264028818356e-04,4.447235565777190626e-03,3.284903276530479112e-03,-3.049454859081781599e+00,-1.873316781267595973e-02,6.777672975291556060e-03,3.484913665668786797e-01
5.000000000000000000e-01,5.255544984925017982e-01,6.593451556383915675e-03,9.997484674086259959e-02,2.108889807428519433e-02,1.819034669641625690e-01,1.774536206783707839e-04,6.163367302225982412e-03,2.411785201865258941e-03,-3.005841720482536505e+00,-9.380067007273933805e-03,4.277114904035344244e-03,3.490930665371422270e-01
7.500000000000000000e-01,5.279327786277228096e-01,2.973330399564667534e-02,9.999311161973881146e-02,1.713063948987595189e-02,1.881918276053406169e-01,1.197450956273361680e-04,6.533615676310913084e-03,1.947966493198765442e-03,-2.962191056251984200e+00,1.602504233311506220e-03,2.257452255573663864e-03,3.492658899134052919e-01
1.000000000000000000e+00,5.298228805612952286e-01,5.365148891117668684e-02,1.000053340363672855e-01,1.322146851153572708e-02,1.941343364691076323e-01,8.004019091281115337e-05,5.849514554269697082e-03,1.970851683105458510e-03,-2.918529519581711806e+00,8.017455264853314348e-03,-5.123426105859293055e-04,3.493292237659718635e-01
1.250000000000000000e+00,5.312072819956722425e-01,7.823153934491793027e-02,1.000136302354923956e-01,8.972827438179538720e-03,1.987307434651167659e-01,5.562538027924712140e-05,4.854743316216760148e-03,2.552999504911300076e-03,-2.874863177941498815e+00,8.907678526498281207e-03,-4.750069196616524270e-03,3.493640148329789086e-01
1.500000000000000000e+00,5.320089727540856517e-01,1.032845856292104181e-01,1.000195680254933883e-01,3.819638159340142409e-03,2.017715299049931132e-01,4.107229704544588741e-05,4.172976420211609548e-03,3.710934798713324580e-03,-2.831192972586066947e+00,6.682675470197517974e-03,-9.755670888418875933e-03,3.493903704787977293e-01
1.750000000000000000e+00,5.320714700236415240e-01,1.286298570594736623e-01,1.000240726587036666e-01,-2.911246523281276529e-03,2.035047836377213981e-01,3.194075026267056234e-05,4.029249364051421325e-03,5.343498641982094566e-03,-2.787518361273658485e+00,4.274951865059956752e-03,-1.373210999369249563e-02,3.494106999987200424e-01
2.000000000000000000e+00,5.311601076488164930e-01,1.541232269677505207e-01,1.000276234296969685e-01,-1.175318341925031540e-02,2.042078478442701794e-01,2.528556214305900283e-05,4.281363935164794396e-03,7.204632416988879066e-03,-2.743839610491374259e+00,3.193803549940641036e-03,-1.482570190272917282e-02,3.494209299977508176e-01
2.250000000000000000e+00,5.289979601099612516e-01,1.796435517807596083e-01,1.000303627874216811e-01,-2.282386205573473312e-02,2.039645721875635309e-01,1.858023207388453214e-05,4.622815731430388216e-03,8.934405621088842980e-03,-2.700159359549575200e+00,3.153582148540101920e-03,-1.213628994476628753e-02,3.494164935437126807e-01
2.500000000000000000e+00,5.253290677967864530e-01,2.050691709510032990e-01,1.000321701784247369e-01,-3.568179930161392149e-02,2.027137617860919894e-01,1.034746870507121081e-05,4.792333419496513230e-03,1.014489208357939078e-02,-2.656481816592204837e+00,2.892467414508841875e-03,-6.172801196536297982e-03,3.493970024538475272e-01
2.750000000000000000e+00,5.199861374489903598e-01,2.302720655410938622e-01,1.000328806233940632e-01,-4.939549662849439249e-02,2.004493260045850378e-01,1.387628911232626600e-06,4.687511896524837116e-03,1.053395062443808657e-02,-2.612810121146207365e+00,1.331632367628598265e-03,1.361907991793409860e-03,3.493677661313048244e-01
3.000000000000000000e+00,5.129367564226444687e-01,2.551370788384706434e-01,1.000325645326625157e-01,-6.279972511452404371e-02,1.973943126523681757e-01,-5.643813682753771596e-06,4.365419603107838567e-03,9.987561656369254789e-03,-2.569144468978217244e+00,-1.652247348404505250e-03,8.242508535432574099e-03,3.493373836501001417e-01
3.250000000000000000e+00,5.042907786895146627e-01,2.795940188468714616e-01,1.000316336733005629e-01,-7.483714857140197352e-02,1.940257630719113002e-01,-8.337658008143926941e-06,3.971825544902635174e-03,8.633815795701020243e-03,-2.525482615623991567e+00,-5.139929923846351528e-03,1.250285632578631775e-02,3.493136567617324273e-01
3.500000000000000000e+00,4.942662583369896168e-01,3.036416911924629258e-01,1.000306705794617029e-01,-8.486170278426818925e-02,1.909319822226192009e-01,-6.507719284822705777e-06,3.656328682664626139e-03,6.827424762082191095e-03,-2.481821815043177892e+00,-7.648829622845432566e-03,1.303163160431757180e-02,3.493010659029725518e-01
3.750000000000000000e+00,4.831253980737330034e-01,3.273468286491041934e-01,1.000301175676987786e-01,-9.280754842523736281e-02,1.885737507740260777e-01,-2.339576206614407939e-06,3.513871129691621166e-03,5.066510946080382202e-03,-2.438160187506806409e+00,-7.837326670839797269e-03,9.827414401218145107e-03,3.493010512285747438e-01
4.000000000000000000e+00,4.711006314496437031e-01,3.508129366936698079e-01,1.000300825916045355e-01,-9.918192825795255074e-02,1.870598497161308216e-01,1.418643777203515699e-06,3.565327189058285599e-03,3.865142647415038477e-03,-2.394496665143801550e+00,-5.089609607760541693e-03,3.902565172629274357e-03,3.493136193887925733e-01
4.250000000000000000e+00,4.583323759361146443e-01,3.741273824554325889e-01,1.000304157578564418e-01,-1.048977720868764923e-01,1.860321556058736892e-01,3.604552466157565405e-06,3.768589695651645369e-03,3.618485951564616877e-03,-2.350830265764053184e+00,2.284617158618143322e-04,-3.076376466094114283e-03,3.493379310189247966e-01
4.500000000000000000e+00,4.448350114645404640e-01,3.973039773548567855e-01,1.000309637105581823e-01,-1.110051688062234504e-01,1.847059046806495686e-01,5.142721838083806848e-06,4.043700751345215977e-03,4.498777694465519623e-03,-2.307159858396674590e+00,6.881905295247114744e-03,-9.278551771135873372e-03,3.493710391744163646e-01
4.750000000000000000e+00,4.304986529079314339e-01,4.202402102345282886e-01,1.000317437916156960e-01,-1.184016862592944669e-01,1.820525800125076255e-01,7.443518919920029917e-06,4.298558829629168382e-03,6.410114448093162144e-03,-2.263484816436510005e+00,1.315595978147493343e-02,-1.319085230463480987e-02,3.494062848516025777e-01
5.000000000000000000e+00,4.151242114122705162e-01,4.427035672514610387e-01,1.000328618006856990e-01,-1.275991749753449811e-01,1.770672954195081361e-01,1.029944287995157314e-05,4.448912945490658168e-03,9.012431384335507431e-03,-2.219805994871015375e+00,1.736698763964421299e-02,-1.397604936321701456e-02,3.494338148095217922e-01
5.250000000000000000e+00,3.984807548442681480e-01,4.643524225792963200e-01,1.000342551276276054e-01,-1.386032268961885638e-01,1.690406187173966734e-01,1.141920862595307991e-05,4.432047721753897690e-03,1.180587762001951077e-02,-2.176126102288929332e+00,1.833611210549676920e-02,-1.163044966561232151e-02,3.494442206088199665e-01
5.500000000000000000e+00,3.803692377889085763e-01,4.847869461948137726e-01,1.000355279285590343e-01,-1.509279676851011109e-01,1.577581348455718568e-01,8.197178171642346338e-06,4.215557363364715905e-03,1.425143441994923717e-02,-2.132448926673039313e+00,1.570080239339545838e-02,-6.916000560912542380e-03,3.494334920287938684e-01
5.750000000000000000e+00,3.606762222321664990e-01,5.036172554980761218e-01,1.000360765968190402e-01,-1.637321663997066412e-01,1.435749413406868236e-01,1.862187905973951727e-07,3.801817137411533844e-03,1.589564176915370455e-02,-2.088777694726336787e+00,9.993435393567971781e-03,-1.098813656912725738e-03,3.494057977813310734e-01
6.000000000000000000e+00,3.394050483589189926e-01,5.205316928745211680e-01,1.000354455085299132e-01,-1.760320261399683506e-01,1.273484080254261297e-01,-9.951131115369401026e-06,3.227397115206105411e-03,1.646809169869466877e-02,-2.045113523220025264e+00,2.478030084302610889e-03,4.423699552322809571e-03,3.493717453205834600e-01
6.250000000000000000e+00,3.166787518978602667e-01,5.353485453290881546e-01,1.000336437720708987e-01,-1.869292468638101556e-01,1.102510886557270253e-01,-1.790551246357674719e-05,2.556445883422566075e-03,1.592907730725691418e-02,-2.001454941821219080e+00,-5.202285791717939541e-03,8.496577472789238264e-03,3.493429839949347970e-01
6.500000000000000000e+00,2.927168169524280716e-01,5.480393942897532344e-01,1.000311781497704305e-01,-1.957941158079189170e-01,9.351682420894263936e-02,-2.042894293931076473e-05,1.868381314318352067e-03,1.445880063793762021e-02,-1.957798769027641494e+00,-1.146615937991168378e-02,1.047611298347215537e-02,3.493266566202374857e-01
6.750000000000000000e+00,2.677943718358775649e-01,5.587201236422615347e-01,1.000287825449978074e-01,-2.023613990547992181e-01,7.818887600731444509e-02,-1.718338896177134184e-05,1.242254130783708660e-03,1.239487443090216134e-02,-1.914141725029768537e+00,-1.520086134374925603e-02,1.032572688390634430e-02,3.493231081647811820e-01
7.000000000000000000e+00,2.421959275675190648e-01,5.676141971208344961e-01,1.000270473690610951e-01,-2.067254774330430922e-01,6.493542728774390205e-02,-1.050277516486229030e-05,7.416549347700189965e-04,1.013740500478978526e-02,-1.870481762104735157e+00,-1.602468734686239224e-02,8.528515881836496587e-03,3.493276735173299063e-01
7.250000000000000000e+00,2.161754789318348913e-01,5.749997596216961382e-01,1.000261937708099708e-01,-2.092511532376986616e-01,5.397632478125118788e-02,-3.578413058753492188e-06,4.041449293880353881e-04,8.047812674836346200e-03,-1.826818446909247662e+00,-1.433564728233828987e-02,5.862807979502092544e-03,3.493345604629614076e-01
7.500000000000000000e+00,1.899311886039856401e-01,5.811555343799338358e-01,1.000260929033621321e-01,-2.104385920213636407e-01,4.513174021522781826e-02,1.376326788710360408e-06,2.378254644825256235e-04,6.367666927491446617e-03,-1.783152468018173842e+00,-1.113582526863432162e-02,3.124651427292339089e-03,3.493399580275403093e-01
7.750000000000000000e+00,1.635973894071061918e-01,5.863194979589539946e-01,1.000264456984892997e-01,-2.107888272057008294e-01,3.796788142228281482e-02,3.791272712416510378e-06,2.254291473266799620e-04,5.177635445099948094e-03,-1.739484849131048616e+00,-7.683419684451536606e-03,8.900092765817553108e-04,3.493428058923270241e-01
8.000000000000000000e+00,1.372511652235658408e-01,5.906692811563784007e-01,1.000269640176567887e-01,-2.107088407185457035e-01,3.198708648528505311e-02,4.231397663614976775e-06,3.340849275370867504e-04,4.405625527384083272e-03,-1.695816414764838687e+00,-5.076334259317554463e-03,-6.109437374285480978e-04,3.493436871605481442e-01
8.250000000000000000e+00,1.109270450081157461e-01,5.943257063307195720e-01,1.000274568501977740e-01,-2.104760149474653730e-01,2.679794810893207369e-02,3.555892704662050608e-06,5.274036189131595109e-04,3.879656001285623507e-03,-1.652147668637013567e+00,-3.897167323563548343e-03,-1.477366672539084892e-03,3.493433740538021692e-01
8.500000000000000000e+00,8.463240707783052652e-02,5.973731701271679517e-01,1.000278322110808027e-01,-2.102578857004909485e-01,2.220974292068811015e-02,2.463726764798209029e-06,7.761210475963799130e-04,3.408129255017447023e-03,-1.608478910463198686e+00,-4.037257231359624859e-03,-2.000268585013298579e-03,3.493421712222555264e-01
8.750000000000000000e+00,5.835807457612524063e-02,5.998852063465022200e-01,1.000280721487064040e-01,-2.101631118266759080e-01,1.822258080887095844e-02,1.455618301420299322e-06,1.064235255662569204e-03,2.861671376954130763e-03,-1.564810357424649245e+00,-4.764521725740691362e-03,-2.468421998393506046e-03,3.493401634190594351e-01
9.000000000000000000e+00,3.208231903195007950e-02,6.019423645257727662e-01,1.000282094814437389e-01,-2.102905066024365610e-01,1.492218675840746057e-02,8.390930573729127698e-07,1.389116049642242275e-03,2.229642712695115592e-03,-1.521142163234737499e+00,-5.019323064076662393e-03,-3.001644616826908054e-03,3.493378267226263101e-01
9.250000000000000000e+00,5.770455780071337241e-03,6.036330304489684329e-01,1.000282977492998604e-01,-2.107479756324000808e-01,1.232359153775510092e-02,6.336935034540776409e-07,1.756000779654672168e-03,1.631875546121583798e-03,-1.477474339926186042e+00,-3.840582288878023436e-03,-3.482576707380426184e-03,3.493364812269844633e-01
9.500000000000000000e+00,-2.062525956855014789e-02,6.050348820512415626e-01,1.000283751828223988e-01,-2.116300554088217101e-01,1.022847318639777923e-02,6.171447124086324893e-07,2.169077524266659757e-03,1.280498154248410625e-03,-1.433806621230993672e+00,-7.713310858903777009e-04,-3.616093409522317011e-03,3.493382863639735714e-01
9.750000000000000000e+00,-4.716070834719114646e-02,6.061828507465140126e-01,1.000284540171884756e-01,-2.129644261512984027e-01,8.158161546302380648e-03,6.621140820152009875e-07,2.622473756336052546e-03,1.403585944305160921e-03,-1.390138345240985451e+00,3.908308329983921359e-03,-3.089849028925726378e-03,3.493455544756016162e-01
1.000000000000000000e+01,-7.388773768002063203e-02,6.070357329965502258e-01,1.000285546412916365e-01,-2.146550078023984065e-01,5.398113417949124485e-03,1.027816952768958753e-06,3.094552497160300755e-03,2.156246458291722397e-03,-1.346468511670865675e+00,9.217151656900740217e-03,-1.762753547425526066e-03,3.493593378250894887e-01
1.025000000000000000e+01,-1.008364464436912050e-01,6.074555016917473349e-01,1.000287449748250984e-01,-2.164542362982940504e-01,1.148527151356251198e-03,2.116650760306699720e-06,3.547893792217613872e-03,3.550443277905962480e-03,-1.302796160213914423e+00,1.377720653824036391e-02,2.084159169468353988e-04,3.493778655385209597e-01
1.050000000000000000e+01,-1.279972062547617417e-01,6.072099578703062939e-01,1.000291147851519180e-01,-2.179870195039237402e-01,-5.265334746303835557e-03,3.775663646270837262e-06,3.935478878764888180e-03,5.429561152676454228e-03,-1.259120998485875997e+00,1.628094881946852077e-02,2.370405815981135433e-03,3.493960749996152249e-01
1.075000000000000000e+01,-1.553092038184757662e-01,6.060017063572785689e-01,1.000296738163895804e-01,-2.188274904027445178e-01,-1.419453639193646484e-02,4.918627792203628232e-06,4.211469241699856113e-03,7.498499795894834896e-03,-1.215443900651135944e+00,1.594773927565573679e-02,4.112750870994206533e-03,3.494072393655026643e-01
1.100000000000000000e+01,-1.826608795186864531e-01,6.035173184323993079e-01,1.000302628074944827e-01,-2.186062094778055132e-01,-2.554933459706650728e-02,4.117721475013435272e-06,4.343296794739569255e-03,9.400215461747851720e-03,-1.171766827206306871e+00,1.279607759313002892e-02,4.890793882788636512e-03,3.494062366606712766e-01
1.125000000000000000e+01,-2.099037409856147340e-01,5.994834104143466069e-01,1.000305881552725484e-01,-2.171104950139931822e-01,-3.880507315591909950e-02,8.196565485229018076e-07,4.321165342481830297e-03,1.081295202863596233e-02,-1.128092061865898499e+00,7.633081648408875097e-03,4.438305122148149262e-03,3.493924536244290557e-01
1.150000000000000000e+01,-2.368762165943067155e-01,5.937139035750511606e-01,1.000303883399009108e-01,-2.143409446406412955e-01,-5.312928572895007917e-02,-3.941123309311902951e-06,4.161770949137915364e-03,1.153581336354144934e-02,-1.084421183983439230e+00,1.778059589806616327e-03,2.879980095491240216e-03,3.493702623923998773e-01
1.175000000000000000e+01,-2.634304674677760416e-01,5.861357195568499545e-01,1.000296106718333577e-01,-2.105027294023340267e-01,-6.758726345742950559e-02,-8.082256386729629600e-06,3.904870184283946565e-03,1.153615487643411958e-02,-1.040754422574788673e+00,-3.361742118491662257e-03,6.994412903108222302e-04,3.493467321890455501e-01
1.200000000000000000e+01,-2.894538945765724458e-01,5.767872321190744556e-01,1.000284569214920788e-01,-2.059339215466820250e-01,-8.136042109705063363e-02,-9.840500298152929338e-06,3.603630229337293975e-03,1.094721207537536350e-02,-9.970907496949291682e-01,-6.702200093251107528e-03,-1.419846266866326995e-03,3.493282400540849153e-01
1.225000000000000000e+01,-3.148788404900577653e-01,5.657921415320116276e-01,1.000272671964966276e-01,-2.009949655621933728e-01,-9.391364232129172096e-02,-8.811956607431374724e-06,3.311656679678989801e-03,1.002159079526190877e-02,-9.534285322775705174e-01,-7.746025468015535313e-03,-2.815486593569786929e-03,3.493181654172868300e-01
1.250000000000000000e+01,-3.396778952464869494e-01,5.533181147193104721e-01,1.000263405622579677e-01,-1.959552477063863929e-01,-1.050705145335383284e-01,-5.916708081983669123e-06,3.070519262967837028e-03,9.058846476363891648e-03,-9.097662447467349534e-01,-6.639192078023169880e-03,-3.049186191394682392e-03,3.493166465419887401e-01
1.275000000000000000e+01,-3.638467654189677658e-01,5.395326128204736005e-01,1.000258205787133980e-01,-1.909115260600611486e-01,-1.149877063719893233e-01,-2.538181967892424195e-06,2.901212153225299437e-03,8.329682136189559341e-03,-8.661028610188719057e-01,-4.040749101171324520e-03,-2.030346308690313475e-03,3.493217586774003958e-01
1.300000000000000000e+01,-3.873803284320745388e-01,5.245674349683933091e-01,1.000256967227290683e-01,-1.857610873987205480e-01,-1.240491689498791905e-01,3.289277476740638442e-07,2.801544977310758792e-03,8.015856389005220420e-03,-8.224378946413324343e-01,-8.799156019366563292e-04,-3.391650516815935710e-05,3.493308254987483319e-01
1.325000000000000000e+01,-4.102492695363482156e-01,5.084996165937286650e-01,1.000258761818706710e-01,-1.802353801287262802e-01,-1.327188361630968205e-01,2.325409012498256840e-06,2.749582758661683803e-03,8.177083761716682705e-03,-7.787712945004671150e-01,1.912082079491261724e-03,2.379768659021842727e-03,3.493411054975680829e-01
1.350000000000000000e+01,-4.323843128976241346e-01,4.913510806262020303e-01,1.000262470639855517e-01,-1.739832263404155199e-01,-1.413946448165513126e-01,3.420097168134106892e-06,2.711614376031787951e-03,8.747957749959687015e-03,-7.351033758093378223e-01,3.625541148889253711e-03,4.513995206532194805e-03,3.493499875531728138e-01
1.375000000000000000e+01,-4.536728458647403261e-01,4.731044557953049123e-01,1.000266926779916909e-01,-1.666804624441783345e-01,-1.502995178948071109e-01,3.525367801741579608e-06,2.652183864148585386e-03,9.561634826431710671e-03,-6.914347875474453620e-01,3.910612025879424414e-03,5.715254699173905745e-03,3.493552304290655774e-01
1.400000000000000000e+01,-4.739693859096060224e-01,4.537288735186756905e-01,1.000270766211515672e-01,-1.581368841447008400e-01,-1.594310451370118675e-01,2.443338140057983048e-06,2.543582204807821271e-03,1.039305879840557272e-02,-6.477664005938592595e-01,2.816289124011739711e-03,5.543080461028827670e-03,3.493555017758501746e-01
1.425000000000000000e+01,-4.931176830834043123e-01,4.332078850783139812e-01,1.000272456867384585e-01,-1.483722251880666421e-01,-1.685752921475013044e-01,1.605930908689531769e-07,2.372704415045074483e-03,1.101211753754043239e-02,-6.040990499405657355e-01,7.348792773316196059e-04,3.890922781027752238e-03,3.493509397733401411e-01
1.450000000000000000e+01,-5.109791346558566483e-01,4.115619812383174980e-01,1.000270752690449461e-01,-1.376403785033292748e-01,-1.773747460779956930e-01,-2.836003236540448018e-06,2.144039473144769819e-03,1.123571429734478502e-02,-5.604332141115269117e-01,-1.728273636787995603e-03,1.025413800009420014e-03,3.493432195561186338e-01
1.475000000000000000e+01,-5.274603791673951880e-01,3.888602660647281217e-01,1.000265351061256081e-01,-1.263939995558249763e-01,-1.854284552899901906e-01,-5.581413711115728328e-06,1.878510212537751189e-03,1.096773179316326563e-02,-5.167688158399059706e-01,-3.925706565309821684e-03,-2.471395946426116225e-03,3.493348787113341736e-01
1.500000000000000000e+01,-5.425329542649132142e-01,3.652190485275166321e-01,1.000257245383154026e-01,-1.151972272535779079e-01,-1.923962493658234463e-01,-7.063312733188835955e-06,1.608736094416514037e-03,1.021817653542230961e-02,-4.731052813861608697e-01,-5.335074050213259311e-03,-5.845303017491645763e-03,3.493282078744413544e-01
1.525000000000000000e+01,-5.562398146460187931e-01,3.407886358241162261e-01,1.000248417856370309e-01,-1.046082509816526201e-01,-1.980800527331587069e-01,-6.774163233599972296e-06,1.371949184131056234e-03,9.097669027966494640e-03,-4.294418316191762064e-01,-5.678712806164657421e-03,-8.359083616831856217e-03,3.493243698667282127e-01
1.550000000000000000e+01,-5.686868173206260924e-01,3.157325212835240258e-01,1.000240990408825248e-01,-9.506139218081145759e-02,-2.024634985014676647e-01,-4.977203385893773354e-06,1.202179574999162701e-03,7.789801006591173631e-03,-3.857778253326826223e-01,-4.966370062537961254e-03,-9.471954348869819629e-03,3.493232600163042045e-01
1.575000000000000000e+01,-5.800210355591396416e-01,2.902047129847612483e-01,1.000236348365563938e-01,-8.677761801056496638e-02,-2.057038025349144095e-01,-2.499475180248939725e-06,1.123382703907975120e-03,6.509518219515644973e-03,-3.421129534537639683e-01,-3.457179430779341346e-03,-8.958712259942580233e-03,3.493240801286633945e-01
1.600000000000000000e+01,-5.904008739327131217e-01,2.643308330319368848e-01,1.000234749895281966e-01,-7.972350294157724837e-02,-2.080830651562377287e-01,-2.253977777240702623e-07,1.144888224344151701e-03,5.458560920734841122e-03,-2.984472031608267906e-01,-1.562116969708077620e-03,-6.941113101906142870e-03,3.493261144984202149e-01
1.625000000000000000e+01,-5.999646053964265979e-01,2.381970466403497133e-01,1.000235563065224598e-01,-7.362506024348633438e-02,-2.099357787226944771e-01,1.342425512677376334e-06,1.259967288782567162e-03,4.788268314442838992e-03,-2.547806734808897300e-01,2.768851577478797436e-04,-3.834723897425639828e-03,3.493291395818966527e-01
1.650000000000000000e+01,-6.088038553667531882e-01,2.118484815590861436e-01,1.000237853370120056e-01,-6.802932586608036181e-02,-2.115729529628340988e-01,2.193296424992056824e-06,1.447587779066155950e-03,4.576458944239113376e-03,-2.111134067464097708e-01,1.694915067044253792e-03,-2.387271345584124739e-04,3.493332592110701684e-01
1.675000000000000000e+01,-6.169469952124181367e-01,1.852963427871920088e-01,1.000240887175582460e-01,-6.239701428849290382e-02,-2.132209377035237385e-01,2.597921737498864408e-06,1.676747684595690817e-03,4.820404192337773668e-03,-1.674453567745221860e-01,2.474618884344613207e-03,3.193939954209623015e-03,3.493384025277481153e-01
1.700000000000000000e+01,-6.243550156559863895e-01,1.585310508668077989e-01,1.000244275589842746e-01,-5.620576751933713949e-02,-2.149866483719778121e-01,2.789796721772068226e-06,1.912319008020333961e-03,5.443842907274250471e-03,-1.237764964444022092e-01,2.571023928994918724e-03,5.872752011800591934e-03,3.493439183506062973e-01
1.725000000000000000e+01,-6.309299434888154812e-01,1.315377682421906003e-01,1.000247778492876355e-01,-4.904507400207236412e-02,-2.168531573106722565e-01,2.765807504351639336e-06,2.121190550792196802e-03,6.313596692199632994e-03,-8.010696780647459658e-02,2.096433617002307296e-03,7.352013715783460406e-03,3.493485665359961079e-01
1.750000000000000000e+01,-6.365337978691749665e-01,1.043106402446481590e-01,1.000250998411484765e-01,-4.068889901887438182e-02,-2.187028244571699864e-01,2.305109545080966572e-06,2.277649886731773592e-03,7.260969602435457353e-03,-3.643715765287337816e-02,1.278951124056013685e-03,7.376136185825514849e-03,3.493509104011920940e-01
1.775000000000000000e+01,-6.410147177518574768e-01,7.686275018227489708e-02,1.000253218936117267e-01,-3.113789362630352969e-02,-2.203605938637094863e-01,1.158811892463436256e-06,2.367283375734172048e-03,8.104421506498878103e-03,7.232362999928974683e-03,4.085911689322875703e-04,5.897932530321235538e-03,3.493498796047700972e-01
1.800000000000000000e+01,-6.442361896975972169e-01,4.922987418114614655e-02,1.000253524295610374e-01,-2.062758753672199949e-02,-2.216478645784117352e-01,-7.140683205093614975e-07,2.389048195420861304e-03,8.672164054007109116e-03,5.090101283169310570e-02,-2.200914067653907428e-04,3.085577592994737019e-03,3.493452149946196794e-01
1.825000000000000000e+01,-6.461050289859774365e-01,2.146737502020657634e-02,1.000251173451630893e-01,-9.601313948847228427e-03,-2.224366584363202393e-01,-2.991654159025458770e-06,2.355454148080942788e-03,8.825112172527996637e-03,9.456840141478928263e-02,-3.661121020393197367e-04,-6.732551652473665622e-04,3.493375981488136550e-01
1.850000000000000000e+01,-6.465936842228111603e-01,-6.359130698187807212e-03,1.000246061896250677e-01,1.352261536737417100e-03,-2.226936833210340916e-01,-5.010234433227455218e-06,2.290933810301599895e-03,8.480612781794721194e-03,1.382344556213651598e-01,1.001533455374800321e-04,-4.779423559950419891e-03,3.493284221865946004e-01
1.875000000000000000e+01,-6.457525487134024855e-01,-3.418740374604073429e-02,1.000239017189330781e-01,1.159470453395095718e-02,-2.225040776057173597e-01,-6.002258238958931534e-06,2.228517055824778131e-03,7.635053461465255917e-03,1.818994049614812702e-01,1.146234885550197289e-03,-8.467440423943593461e-03,3.493193231963344081e-01
1.900000000000000000e+01,-6.437085919129108547e-01,-6.197337698406996803e-02,1.000231682737378752e-01,2.055822867067011797e-02,-2.220660243926639854e-01,-5.490049842506596978e-06,2.204964160179234689e-03,6.379986312620992278e-03,2.255636365401577081e-01,2.549923667297944712e-03,-1.091106440898282834e-02,3.493117326161725433e-01
1.925000000000000000e+01,-6.406482233519577019e-01,-8.970310693211278052e-02,1.000225913375990677e-01,2.787359988774558428e-02,-2.216515110844705649e-01,-3.629716060924937083e-06,2.254658812937800506e-03,4.904207634191344242e-03,2.692275189106891897e-01,3.915092804823805048e-03,-1.138929946265628858e-02,3.493067488091274320e-01
1.950000000000000000e+01,-6.367850704830153585e-01,-1.173977333018739189e-01,1.000222927671579887e-01,3.347934658754293802e-02,-2.215359603884128337e-01,-1.224425579582075129e-06,2.402863550763456851e-03,3.475364519628285163e-03,3.128913389478571450e-01,4.744033690954470653e-03,-9.479042437091420373e-03,3.493054416915671312e-01
1.975000000000000000e+01,-6.323169296700050790e-01,-1.451082499089923761e-01,1.000222748098820724e-01,3.768261259248499584e-02,-2.219090728847455674e-01,7.312228331438604055e-07,2.659332520338548653e-03,2.399491550264925329e-03,3.565554382735728889e-01,4.560660240461609193e-03,-5.215074481483315989e-03,3.493093075387741497e-01
2.000000000000000000e+01,-6.273795985553373145e-01,-1.728990249153229963e-01,1.000224415804723960e-01,4.114760380648618820e-02,-2.227879402140796605e-01,1.757085672555151736e-06,3.013598635786951443e-03,1.963804109818088200e-03,4.002204727542178486e-01,3.056848941744824515e-03,8.435386600691254563e-04,3.493202566428478817e-01
2.025000000000000000e+01,-6.220074264879359438e-01,-2.008219735336991829e-01,1.000226968034368530e-01,4.480245773507107038e-02,-2.239576445704644370e-01,2.313457264190563295e-06,3.433310398486250255e-03,2.374296753257858130e-03,4.438875476931995467e-01,2.194144213018337213e-04,7.676926010727467241e-03,3.493396421268154528e-01
2.050000000000000000e+01,-6.161102796516387814e-01,-2.288863280363031827e-01,1.000230498595325174e-01,4.967570196338452065e-02,-2.249616135440003772e-01,3.489075992256651326e-06,3.866648892327381563e-03,3.702802652344260904e-03,4.875579607544847649e-01,-3.605306856307262473e-03,1.399436080521886984e-02,3.493665489991401030e-01
2.075000000000000000e+01,-6.094739119751487744e-01,-2.570311394800218752e-01,1.000236351291715342e-01,5.669310840898322129e-02,-2.251537404911509166e-01,6.015986917993883426e-06,4.249097392252908396e-03,5.857124009058600235e-03,5.312325041354409860e-01,-7.738179472842235396e-03,1.850858667158402499e-02,3.493964325383846492e-01
2.100000000000000000e+01,-6.017859537671308434e-01,-2.851081927474870548e-01,1.000245993937556727e-01,6.647863882692753301e-02,-2.238089798746061287e-01,9.291577381023645891e-06,4.513811602676272988e-03,8.583183373594384033e-03,5.749106404191566266e-01,-1.129074350909475485e-02,2.022814083236943589e-02,3.494214657604209351e-01
2.125000000000000000e+01,-5.926840008914560087e-01,-3.128815335438503431e-01,1.000259152066198115e-01,7.920544501022075412e-02,-2.202727131364821678e-01,1.126288160265709444e-05,4.603822637074372025e-03,1.150134379315657755e-02,6.185901109604606818e-01,-1.336471393444844599e-02,1.869599245399031912e-02,3.494331618391211536e-01
2.150000000000000000e+01,-5.818170205908613779e-01,-3.400464398278451039e-01,1.000272584893533157e-01,9.453372329508076544e-02,-2.141160687694985132e-01,9.513756374094257622e-06,4.483611497047437257e-03,1.417170649338718100e-02,6.622674180393383070e-01,-1.328377668178403262e-02,1.411477014817553131e-02,3.494263130370610648e-01
2.175000000000000000e+01,-5.689078094678023945e-01,-3.662660929851143110e-01,1.000280734758485085e-01,1.116536545822166826e-01,-2.052584321631500397e-01,2.987772778407580969e-06,4.147460077135449452e-03,1.617658286783591956e-02,7.059391336505648207e-01,-1.079854462181013136e-02,7.323054283423094737e-03,3.494020634801275893e-01
2.200000000000000000e+01,-5.538034751293945401e-01,-3.912194930320824215e-01,1.000278300952728155e-01,1.294277475144183509e-01,-1.940221365201450499e-01,-6.848205508382094022e-06,3.622487401803461352e-03,1.720352830859621721e-02,7.496034178010830828e-01,-6.203118984902298259e-03,-3.797099488513293688e-04,3.493680347353940729e-01
2.225000000000000000e+01,-5.365031968175602017e-01,-4.146505847271983458e-01,1.000263332489594037e-01,1.466030149619688971e-01,-1.810982305253580060e-01,-1.638156097233544229e-05,2.965332405923451313e-03,1.711048186277853989e-02,7.932608902823166108e-01,-3.164188118894499351e-04,-7.525187975910802712e-03,3.493350430918693017e-01
2.250000000000000000e+01,-5.171574703089362179e-01,-4.364072696220371306e-01,1.000238811112892368e-01,1.620454050200055285e-01,-1.674240015061440046e-01,-2.172881000913866057e-05,2.252835716274743418e-03,1.595666844116935823e-02,8.369143192066084147e-01,5.686546441352500342e-03,-1.281747855385390912e-02,3.493121233623323052e-01
2.275000000000000000e+01,-4.960395754908096255e-01,-4.564606575215292561e-01,1.000211521607904525e-01,1.749419494699826771e-01,-1.539975286174826985e-01,-2.093131362860815411e-05,1.568502398533449128e-03,1.398940684292458193e-02,8.805672980285230711e-01,1.056411737490392522e-02,-1.543626474585873751e-02,3.493027572738168218e-01
2.300000000000000000e+01,-4.734965127423733100e-01,-4.748994654374744107e-01,1.000188809152875585e-01,1.849232382440368916e-01,-1.416748260516057512e-01,-1.496633224298184844e-05,9.876315037994484389e-04,1.158723818561527980e-02,9.242226972801210749e-01,1.334331342360454281e-02,-1.521596489163540289e-02,3.493044297287830613e-01
2.325000000000000000e+01,-4.498913637073733707e-01,-4.919008748203236858e-01,1.000175273657307462e-01,1.920795544433091251e-01,-1.310036824969831870e-01,-6.902908018219663258e-06,5.644312625911780809e-04,9.171861734230726468e-03,9.678817552519383138e-01,1.359623657351887761e-02,-1.264400594980802026e-02,3.493113852805920794e-01
2.350000000000000000e+01,-4.255505210320061904e-01,-5.076855782857582211e-01,1.000171391050667519e-01,1.968733158431650587e-01,-1.221401449598552846e-01,7.943689726068232595e-08,3.240165951408230122e-04,7.111677199763261764e-03,1.011544170295784362e+00,1.155699642690697151e-02,-8.675167255234327718e-03,3.493183993839041324e-01
2.375000000000000000e+01,-4.007269690836353093e-01,-5.224690595669966298e-01,1.000174532811385353e-01,1.999795088514035313e-01,-1.148692160748003427e-01,4.311762822646997624e-06,2.609825398058398280e-04,5.643999509941090460e-03,1.055208879396481336e+00,8.026373059856066125e-03,-4.422128055920402853e-03,3.493230606339444155e-01
2.400000000000000000e+01,-3.755854712981602783e-01,-5.364217318053500216e-01,1.000181173225982989e-01,2.021045749977913586e-01,-1.087180649108061281e-01,5.891433683052190293e-06,3.445767498391065801e-04,4.838170654765418244e-03,1.098874866539536255e+00,4.091600959425839915e-03,-8.291941851783970335e-04,3.493255873997288541e-01
2.425000000000000000e+01,-3.502089191298199955e-01,-5.496470679829893458e-01,1.000188600953265672e-01,2.038357001819658954e-01,-1.031202983081311031e-01,5.805868927656769243e-06,5.288099759484393442e-04,4.608207766083147021e-03,1.142541531756913198e+00,7.677246391559544103e-04,1.557814371617238097e-03,3.493271478631947979e-01
2.450000000000000000e+01,-3.246194905121646546e-01,-5.621805664461398955e-01,1.000195351784552572e-01,2.055562443428442521e-01,-9.757598081808036006e-02,4.943642103138070110e-06,7.646234793765089481e-04,4.766051881626288782e-03,1.186208608985875435e+00,-1.297196529471517220e-03,2.655242785832004002e-03,3.493283962739665016e-01
2.475000000000000000e+01,-2.988058582733922885e-01,-5.740056371118347212e-01,1.000203618633145053e-01,2.073833923460413620e-01,-9.174161551332064846e-02,2.374960778139319922e-05,-4.651415540409000425e-04,5.074428416085874707e-03,1.227899065210486640e+00,-3.470462796352030005e-02,-9.322172770323593205e-02,2.072880948669668377e-01
2.500000000000000000e+01,-2.734068148209917171e-01,-5.848599736733735011e-01,1.000417796914943036e-01,1.931781900971913657e-01,-8.017168799389584599e-02,4.718363589094648112e-04,-3.382288008025571835e-02,4.434983308004475204e-03,1.221860065003591345e+00,-1.087528113970115257e-01,-3.351706547430375327e-01,-2.000526199656189885e-01
2.525000000000000000e+01,-2.526578908877095131e-01,-5.932778869473727124e-01,1.001534767105777268e-01,1.329884571445597574e-01,-5.261916017097713338e-02,1.109836777346656558e-03,-7.378268089800286977e-02,1.903703298906540874e-03,1.188334410417258402e+00,-6.781594218630586368e-02,-2.401609994831349904e-01,-3.076166520981733488e-01
2.550000000000000000e+01,-2.419382309846440093e-01,-5.973219637593458753e-01,1.002426799940750873e-01,3.853827700972198289e-02,-1.215398284613753918e-02,9.600090883645967846e-05,-8.930316873848276327e-02,-1.625473045767519224e-03,1.147586502847416812e+00,2.309647007801594876e-02,-1.403487718519779055e-02,-3.371831078607329668e-01
2.575000000000000000e+01,-2.434760459253886011e-01,-5.961040086786412173e-01,1.001602687074441278e-01,-5.751208554883512764e-02,2.934749141553042590e-02,-1.214874607469203964e-03,-7.598336866735089234e-02,-4.071984493025824874e-03,1.104728079063465929e+00,9.528506455865004554e-02,1.654852316905214005e-01,-3.458320029997005718e-01
2.600000000000000000e+01,-2.555862359763874103e-01,-5.902679037268334650e-01,9.999773212437337855e-02,-1.283726613296440056e-01,6.068207516204648239e-02,-1.153263633884598315e-03,-4.696697665031021596e-02,-4.092358104179313547e-03,1.061176806439198206e+00,1.126605534478570397e-01,2.211596511384749386e-01,-3.484082971952295327e-01
2.625000000000000000e+01,-2.743549171252878116e-01,-5.814467132920653203e-01,9.990621521651889270e-02,-1.652828988933984500e-01,7.755848939886199334e-02,-3.250506328561377878e-04,-1.895770198372187174e-02,-2.040499664328255473e-03,1.017471943646078847e+00,8.074700604421783390e-02,1.707775492944202389e-01,-3.492521353668497364e-01
2.650000000000000000e+01,-2.958841262839713715e-01,-5.713123072001505820e-01,9.990390457024427018e-02,-1.755252210326977702e-01,8.303086323855216055e-02,1.778851483898407206e-04,-2.362441204942002885e-03,5.806056108267161273e-04,9.737780542439727904e-01,2.905024780071912421e-02,7.664207417895863017e-02,-3.495425754357627812e-01
2.675000000000000000e+01,-3.177324163297027271e-01,-5.608702630998665395e-01,9.993269242951970111e-02,-1.731994036119104963e-01,8.381069793638522281e-02,2.354771130882167649e-04,1.394758814460094485e-03,2.312688683262455538e-03,9.300874636954887809e-01,-1.243111154673715198e-02,-2.741639060184911450e-03,-3.495393844998873623e-01
2.700000000000000000e+01,-3.391620608737362375e-01,-5.502939195027068964e-01,9.995855201446907090e-02,-1.703719764183291019e-01,8.590596129566019368e-02,1.810539844500264918e-04,-2.875314402516196931e-03,2.634949745030723458e-03,8.863913081597762922e-01,-2.900678438383842012e-02,-3.887256436847834340e-02,-3.494212449424534128e-01
2.725000000000000000e+01,-3.605478847659319142e-01,-5.391995795267771063e-01,9.997873743257941481e-02,-1.726920780104065634e-01,9.213087791409407812e-02,1.444866648828579026e-04,-8.845340951823956605e-03,2.076171394495559402e-03,8.427051133925235193e-01,-2.359009554376056625e-02,-3.442701431458643213e-02,-3.493458427848720738e-01
2.750000000000000000e+01,-3.825536136184917169e-01,-5.270685862699918678e-01,9.999398906541213938e-02,-1.796807914543527562e-01,1.021128411227168603e-01,9.794217086228005882e-05,-1.224722123684262101e-02,1.688343437527134450e-03,7.990306826403138496e-01,-8.906962450196722822e-03,-8.962574607462053811e-03,-3.493558078437467573e-01
2.775000000000000000e+01,-4.055384183740167736e-01,-5.135515564550185985e-01,1.000028047721478464e-01,-1.876107346446728719e-01,1.138914649642136928e-01,4.716142046558725182e-05,-1.201105387931903842e-02,2.362985459303403642e-03,7.553582049197079540e-01,2.570077386101516682e-03,1.716119051360540104e-02,-3.494166246026821909e-01
2.800000000000000000e+01,-4.293566695854790782e-01,-4.985471989218171474e-01,1.000068031320287265e-01,-1.925665849200184354e-01,1.256980935052076087e-01,2.321848873068570971e-05,-9.404564682039630308e-03,4.405163471580780636e-03,7.116852023466205823e-01,4.986818244251398254e-03,3.227950575047015824e-02,-3.494886806391951373e-01
2.825000000000000000e+01,-4.534662815152012416e-01,-4.821053125506011838e-01,1.000096929300786225e-01,-1.922299968385472457e-01,1.369134650109440909e-01,2.560238275275275393e-05,-6.399940472997640850e-03,7.508643363654312133e-03,6.680127187559724566e-01,-1.779420407859634990e-04,3.473479741498491924e-02,-3.495463517871024717e-01
2.850000000000000000e+01,-4.771602497572796642e-01,-4.642787645379131134e-01,1.000134092454604828e-01,-1.861645394807655007e-01,1.479879407926476265e-01,3.285785959419668600e-05,-4.376526177247260646e-03,1.101717712311780194e-02,6.243357384433750878e-01,-7.423842026879555814e-03,2.894706742326252566e-02,-3.495714452359561242e-01
2.875000000000000000e+01,-4.997661894986360487e-01,-4.450323982014077751e-01,1.000175574079262553e-01,-1.751778764400419020e-01,1.597288309751536406e-01,3.186070576834447931e-05,-3.655435915795049017e-03,1.424910332133787552e-02,5.806487618640254755e-01,-1.146531756215963052e-02,2.043392437168619832e-02,-3.495551744771877023e-01
2.900000000000000000e+01,-5.207479550486351361e-01,-4.242490928713272269e-01,1.000209750957237326e-01,-1.605094368690930806e-01,1.725528420815296005e-01,2.195653512657955468e-05,-3.754502273228466601e-03,1.671163074278220195e-02,5.369557363781212178e-01,-9.940166299475108186e-03,1.263663845675353122e-02,-3.495044602830100766e-01
2.925000000000000000e+01,-5.397225390170871107e-01,-4.018071906671996096e-01,1.000227921527676728e-01,-1.433239139322639577e-01,1.861219665639389509e-01,7.202451023001273907e-06,-3.945903401429632328e-03,1.815342254813380810e-02,4.932685111134336720e-01,-3.778288799293449008e-03,6.291843548183353833e-03,-3.494397992964178301e-01
2.950000000000000000e+01,-5.564403235984781704e-01,-3.776721804005061522e-01,1.000227165777263505e-01,-1.246061269475411543e-01,1.994524093056943004e-01,-7.511557930430265492e-06,-3.720025398306648148e-03,1.850782007454994729e-02,4.495964863330084715e-01,4.135988402158529732e-03,5.382314754125577545e-04,-3.493844167168636550e-01
2.975000000000000000e+01,-5.707697513384115684e-01,-3.519526741120505564e-01,1.000210475544434097e-01,-1.052900761393801704e-01,2.113253505575585500e-01,-1.785350001110507060e-05,-2.964786087529149797e-03,1.781475952365120519e-02,4.059395015790485117e-01,1.077823238012753405e-02,-5.554601473546758386e-03,-3.493528967376924310e-01
3.000000000000000000e+01,-5.827005096928961070e-01,-3.248998039686215034e-01,1.000185017473362026e-01,-8.639161663834622751e-02,2.207382066531893283e-01,-2.161941737358560075e-05,-1.884847083351379876e-03,1.618172088290142918e-02,3.622894405289878161e-01,1.427108247178395309e-02,-1.201065169807932764e-02,-3.493465527868167553e-01
3.025000000000000000e+01,-5.923549430888616074e-01,-2.968590418953143129e-01,1.000159027353075131e-01,-6.899899773949273729e-02,2.271968547663515692e-01,-1.913576573336030063e-05,-8.013034192688175354e-04,1.379100647902738001e-02,3.186368975155151051e-01,1.426018830767020532e-02,-1.784136472473726170e-02,-3.493567836747093480e-01
3.050000000000000000e+01,-5.999877616274755798e-01,-2.682002459773024095e-01,1.000139180675610334e-01,-5.410813205319948971e-02,2.307786024477234688e-01,-1.233550684764560497e-05,2.661335068579971912e-05,1.092121895438978238e-02,2.749766392476789556e-01,1.155685360843036746e-02,-2.158692791243692691e-02,-3.493721545040924803e-01
3.075000000000000000e+01,-6.059594519244928534e-01,-2.392527383560667520e-01,1.000129192881549778e-01,-4.238771287896227202e-02,2.320084759541213570e-01,-3.894692436991553118e-06,4.841189462822924490e-04,7.943404757831722118e-03,2.313086923898255431e-01,7.481126624831310225e-03,-2.205854922709942628e-02,-3.493840646563745600e-01
3.100000000000000000e+01,-6.106820868249245304e-01,-2.102627875780214983e-01,1.000129273472549762e-01,-3.398904315050958747e-02,2.316444426381242261e-01,3.379587777348959183e-06,5.895910293391570670e-04,5.272166997955357245e-03,1.876360564675903231e-01,3.288624398354871199e-03,-1.889195576215679448e-02,-3.493889390987144905e-01
3.125000000000000000e+01,-6.145491453234129819e-01,-1.813787409612411528e-01,1.000136549115554357e-01,-2.848568833722295648e-02,2.304624275669995559e-01,7.526912486921668055e-06,4.345792488636151954e-04,3.281136747113709909e-03,1.439618502839112302e-01,-1.409624879680903967e-04,-1.272072440656154928e-02,-3.493877709986118463e-01
3.150000000000000000e+01,-6.178679259170962723e-01,-1.526598170650088349e-01,1.000146797349195926e-01,-2.496930716839627570e-02,2.290967891742392570e-01,8.382016096435128776e-06,1.235483734777862851e-04,2.212949262440136542e-03,1.002877825999193423e-01,-2.370984864445666116e-03,-4.976719302901881636e-03,-3.493843063093350909e-01
3.175000000000000000e+01,-6.208125854133195176e-01,-1.241000935950464512e-01,1.000156738005630042e-01,-2.227059688981173485e-02,2.279548885566199390e-01,7.413558792839239468e-06,-2.598948295482975015e-04,2.117977607521384815e-03,5.661409071135059534e-02,-3.340439939719086135e-03,2.553484877820971256e-03,-3.493825550935787394e-01
3.200000000000000000e+01,-6.234092694730837270e-01,-9.565858954755850074e-02,1.000165266322494695e-01,-1.923673773293879674e-02,2.272007143660300377e-01,6.348382757668825780e-06,-6.589349525611571399e-04,2.845149632544449921e-03,1.294022085204412850e-02,-3.260111507265624035e-03,8.248938114598786120e-03,-3.493844248350369552e-01
3.225000000000000000e+01,-6.255551928802848272e-01,-6.728772726016997441e-02,1.000172814063865628e-01,-1.498488324334645849e-02,2.267924959940871843e-01,5.808916131717041924e-06,-1.035031754301995273e-03,4.089334357444567893e-03,-3.073438964980355209e-02,-2.510448310859607346e-03,1.109711134868271790e-02,-3.493887388555556583e-01
3.250000000000000000e+01,-6.270640152799019651e-01,-3.895460300577032603e-02,1.000179731610113532e-01,-9.063114470387030261e-03,2.265556410432208179e-01,5.184511179976140333e-06,-1.359365392841712251e-03,5.480739507277360839e-03,-7.440978587106897302e-02,-1.534184762393877698e-03,1.094082254397660964e-02,-3.493923628432253903e-01
3.275000000000000000e+01,-6.277230728525547976e-01,-1.065201497309881812e-02,1.000185344748045074e-01,-1.480326773898626947e-03,2.262693549516679725e-01,3.666574466170521804e-06,-1.611164816656879056e-03,6.688265676319267612e-03,-1.180854200484951211e-01,-7.157665764193770234e-04,8.461194344415643581e-03,-3.493926040682349132e-01
3.300000000000000000e+01,-6.273457646926088316e-01,1.760092329624611540e-02,1.000188437742205727e-01,7.392997126540363367e-03,2.257430120616353564e-01,1.272515909920171805e-06,-1.781428137980810636e-03,7.504091559811708334e-03,-1.617605065383292406e-01,-2.707821507710547770e-04,4.896289020434557542e-03,-3.493890148808935781e-01
3.325000000000000000e+01,-6.258053149211550981e-01,4.576586732325878953e-02,1.000188426597096447e-01,1.701069779549804067e-02,2.248611522072396507e-01,-1.119495920912283557e-06,-1.876370518802733230e-03,7.882269136793020395e-03,-2.054345080629766396e-01,-1.951664287836092941e-04,1.578943402719504415e-03,-3.493833643567876845e-01
3.350000000000000000e+01,-6.230434230076143942e-01,7.379530875607805129e-02,1.000185961734261358e-01,2.685346272153181849e-02,2.235873227087301907e-01,-2.570406042203112666e-06,-1.915976761785405380e-03,7.919323604257717461e-03,-2.491073902319539402e-01,-3.131380149577432919e-04,-5.431569607139820430e-04,-3.493781629174140257e-01
