time_total,x,y,z,vx,vy,vz,roll,pitch,yaw,roll_rate,pitch_rate,yaw_rate
8e-01,9.990628392810071978e-02,-1.156829150466465589e-01,5.163881213975584500e-02,3.680069499226915996e-04,7.592366202279765552e-04,1.560814886645162667e-03,1.247155704289079958e+00,1.483821028032400458e-02,-1.730918939645513521e-02,-2.620365410145387708e-01
2.500000000000000000e-01,-1.271199563401309851e-01,-4.708996190702230411e-01,9.994492224211488918e-02,-1.148354668106762316e-01,5.194001145343168230e-02,2.604525398666024784e-04,-9.698680860565617569e-04,-7.085905006603811446e-04,1.214402094561593648e+00,1.058326821931131548e-02,-1.864160397839739747e-02,-2.620139849746914162e-01
5.000000000000000000e-01,-1.415730734315515660e-01,-4.644782180075193168e-01,9.997229890383896311e-02,-1.167492301999204368e-01,5.062920830779143316e-02,1.839934212869296835e-04,-2.310763987648362366e-03,-2.433028972382873280e-03,1.181653043666122338e+00,7.531966556898764265e-03,-1.076087008390782911e-02,-2.620064687169837425e-01
7.500000000000000000e-01,-1.563904562469132509e-01,-4.582932156633089393e-01,9.999143550073696929e-02,-1.203716919687618792e-01,4.828043288657133530e-02,1.268672153801017372e-04,-2.672404431540810650e-03,-3.382249597621424502e-03,1.148903096588506090e+00,4.109468207198169014e-03,-1.046481975358570966e-03,-2.620095794920316856e-01
1.000000000000000000e+00,-1.716934598863156525e-01,-4.524385516411266184e-01,1.000044618598003310e-01,-1.242899844998874154e-01,4.546629042390337716e-02,8.538998416352719509e-05,-2.262720234286265918e-03,-3.416794010838098555e-03,1.116150099649213967e+00,-9.226705425745528868e-04,5.901547396861643417e-03,-2.620153831072358219e-01
1.250000000000000000e+00,-1.874448406071699547e-01,-4.469261030694004488e-01,1.000132024361784500e-01,-1.274395723630808996e-01,4.293862140439963504e-02,5.740827717817567860e-05,-1.630904130463289338e-03,-2.507229117998392449e-03,1.083395866724449430e+00,-7.362517890221000928e-03,9.078650870225342048e-03,-2.620215137139089157e-01
1.500000000000000000e+00,-2.035087762657803723e-01,-4.416614372305421865e-01,1.000191604729832456e-01,-1.292826168541096055e-01,4.162072268114771351e-02,4.001142364175511970e-05,-1.233387576143217838e-03,-7.591505337619192063e-04,1.050641955609294520e+00,-1.365426125444168387e-02,9.735781415819533963e-03,-2.620295649453891484e-01
1.750000000000000000e+00,-2.197080906944055556e-01,-4.364341427742113866e-01,1.000234647394851462e-01,-1.296424339475102383e-01,4.240022613200586377e-02,3.018578957974951690e-05,-1.224388884717878033e-03,1.579065901833522946e-03,1.017887570853167833e+00,-1.777962700078279668e-02,9.490895774723558803e-03,-2.620391832236473872e-01
2.000000000000000000e+00,-2.358539861169568208e-01,-4.309408213823670564e-01,1.000268521585653547e-01,-1.284741331505019069e-01,4.584192596229039879e-02,2.459732747369378688e-05,-1.482731747611593445e-03,4.139442309240690468e-03,9.851313945682056428e-01,-1.827056335289280534e-02,9.105275251433144618e-03,-2.620461785009431943e-01
2.250000000000000000e+00,-2.517539447307701739e-01,-4.248408427996715475e-01,1.000296167923684226e-01,-1.257587650697550019e-01,5.197088036805642963e-02,1.964090929116962364e-05,-1.768262332487672639e-03,6.489716281114569531e-03,9.523740433538923078e-01,-1.481384330702560127e-02,8.305693703456290891e-03,-2.620458302952825558e-01
2.500000000000000000e+00,-2.672168114270751516e-01,-4.178289652360563378e-01,1.000316595276418558e-01,-1.215522362934052802e-01,6.022307934555577030e-02,1.289545805947297900e-05,-1.881568025999527747e-03,8.211220322716651990e-03,9.196179956335556183e-01,-8.278070460784121148e-03,6.348256685990164017e-03,-2.620371030292030778e-01
2.750000000000000000e+00,-2.820698069546790365e-01,-4.097022426943482953e-01,1.000327371479802635e-01,-1.161059775512347375e-01,6.957532088704115880e-02,4.505686815600355819e-06,-1.749166378530701924e-03,8.982487603372335538e-03,8.868653733300799757e-01,-3.040475147815139092e-04,2.753860617590018958e-03,-2.620236263469249427e-01
3.000000000000000000e+00,-2.961890614953558987e-01,-4.004020235042615727e-01,1.000327837742379378e-01,-1.099471239058568001e-01,7.879641099669976168e-02,-3.121571961474447439e-06,-1.422165010325516241e-03,8.648837414473744753e-03,8.541161796106913062e-01,7.267693621146069025e-03,-2.240082091856642095e-03,-2.620110121004669002e-01
3.250000000000000000e+00,-3.095333470988470004e-01,-3.900214333341057715e-01,1.000320840125820954e-01,-1.038469176735514199e-01,8.673227812077181909e-02,-7.172789367027898124e-06,-1.021288463206745500e-03,7.260392541916639228e-03,8.213685871653341186e-01,1.289255671600880553e-02,-7.675077270509227632e-03,-2.620031980126559246e-01
3.500000000000000000e+00,-3.221661210041950607e-01,-3.787794413242928648e-01,1.000311850136846592e-01,-9.867396109117161640e-02,9.254601167875561862e-02,-6.484119797703000945e-06,-6.724850914892850163e-04,5.068244049682723608e-03,7.886205865815917315e-01,1.561787048420991766e-02,-1.221428549754321850e-02,-2.620006386700802214e-01
3.750000000000000000e+00,-3.342543801778112833e-01,-3.669706736364354849e-01,1.000306157754102671e-01,-9.518345802568783931e-02,9.586374310002800103e-02,-2.429008543722923694e-06,-4.635623818753186300e-04,2.478948335533507144e-03,7.558713182642616824e-01,1.517009422969608709e-02,-1.460884391995384383e-02,-2.620011503780715900e-01
4.000000000000000000e+00,-3.460409559401666502e-01,-3.549040666023255408e-01,1.000306072739098606e-01,-9.381466374170671640e-02,9.681090598263571156e-02,1.924748113845756797e-06,-4.303267769225662385e-04,-2.216543882877183529e-05,7.231211774316587126e-01,1.188876830970789396e-02,-1.408188771113426212e-02,-2.620022703584363177e-01
4.250000000000000000e+00,-3.577954779537151353e-01,-3.428435927666405592e-01,1.000310038617541336e-01,-9.455794874501725900e-02,9.594945824737101392e-02,3.808916673047473541e-06,-5.642876067780815694e-04,-1.961594849408688449e-03,6.903709952202746747e-01,6.574966207404313139e-03,-1.052052721322812960e-02,-2.620033365705377593e-01
4.500000000000000000e+00,-3.697551603616632820e-01,-3.309618808936565237e-01,1.000314250625616574e-01,-9.692422075639428591e-02,9.414183105670513585e-02,2.525269622983212034e-06,-8.285023626179054872e-04,-2.963212629217059323e-03,6.576211204838412483e-01,3.037624491312083627e-04,-4.467591899204059226e-03,-2.620059887602259052e-01
4.750000000000000000e+00,-3.820686114207769157e-01,-3.193138472375798287e-01,1.000315638119938094e-01,-1.000184252997170092e-01,9.237371782854543467e-02,-2.295442697478165407e-07,-1.171474717493266662e-03,-2.812785932775429751e-03,6.248710086902926619e-01,-5.772341527001794044e-03,3.032692899757130807e-03,-2.620128403590585853e-01
5.000000000000000000e+00,-3.947544590179985491e-01,-3.078333365168821056e-01,1.000314145877591598e-01,-1.026953264720023851e-01,9.156881063496542794e-02,-1.683525536238091162e-06,-1.535670081969145060e-03,-1.491328831170743441e-03,5.921194802205950181e-01,-1.061291108885148438e-02,1.066458489660085038e-02,-2.620251700619804502e-01
5.250000000000000000e+00,-4.076829101084487594e-01,-2.963517459462831072e-01,1.000312768779770961e-01,-1.037627183273958087e-01,9.242638669425778941e-02,-1.906452125667752078e-08,-1.862369701938994563e-03,8.260985325776464168e-04,5.593654639742970947e-01,-1.345386456121323501e-02,1.708794778487997268e-02,-2.620411454900025139e-01
5.500000000000000000e+00,-4.205836683188726166e-01,-2.846340430176437786e-01,1.000315345234026460e-01,-1.021932397420843713e-01,9.530747722874129135e-02,4.262211244359873125e-06,-2.096180241434619698e-03,3.803338125518764077e-03,5.266088215515368764e-01,-1.392305711755885238e-02,2.116389205028531423e-02,-2.620558872322948929e-01
5.750000000000000000e+00,-4.330788850634213483e-01,-2.724248919882895636e-01,1.000323601581525196e-01,-9.730842173845144494e-02,1.001867136601819752e-01,8.521977961099348379e-06,-2.191148526491464542e-03,7.000291453282350522e-03,4.938507673660912367e-01,-1.208510193655486058e-02,2.213470370276910543e-02,-2.620635992466892050e-01
6.000000000000000000e+00,-4.447356731427253851e-01,-2.594962005708488784e-01,1.000335402397116158e-01,-8.890536061821228964e-02,1.066751965309159361e-01,9.574802691859417332e-06,-2.118017496283215294e-03,9.943860220184935067e-03,4.610935571729660176e-01,-8.405018615309942098e-03,1.974089856921981342e-02,-2.620606509336154133e-01
6.250000000000000000e+00,-4.551296178853452834e-01,-2.456875705634183338e-01,1.000345376511960760e-01,-7.730623227470734271e-02,1.141067309970051347e-01,5.677373631001906471e-06,-1.870461306663407253e-03,1.220115593726681449e-02,4.283395138492242515e-01,-3.638255864180595968e-03,1.426196396273354469e-02,-2.620477912686827171e-01
6.500000000000000000e+00,-4.639090081642848751e-01,-2.309328647348679875e-01,1.000347615862465928e-01,-6.332292798770090825e-02,1.216683031120108921e-01,-2.294232141929549634e-06,-1.467920458136857172e-03,1.344395220569492844e-02,3.955898816095156367e-01,1.328167959295411009e-03,6.473494048022678492e-03,-2.620301103792654351e-01
6.750000000000000000e+00,-4.708493951803460753e-01,-2.152690214258468904e-01,1.000338903502905608e-01,-4.814233420822727066e-02,1.285483103362830282e-01,-1.116893184350473371e-05,-9.536811557339621359e-04,1.349521210522982434e-02,3.628441525335446283e-01,5.648344571956120073e-03,-2.475414639307174907e-03,-2.620146752486068875e-01
7.000000000000000000e+00,-4.758896158742972893e-01,-1.988267354021971689e-01,1.000320630191776639e-01,-3.315052041966892737e-02,1.340742744549739962e-01,-1.710386229453619860e-05,-3.883638539363178923e-04,1.235153062603034854e-02,3.301002632377248447e-01,8.668125611810493375e-03,-1.124644937288393418e-02,-2.620071201162035845e-01
7.250000000000000000e+00,-4.791433939689217492e-01,-1.818059631616457950e-01,1.000298327239153851e-01,-1.972423913158053918e-02,1.378156220602578808e-01,-1.757304990402260467e-05,1.597131793979853658e-04,1.017912862504731508e-02,2.973555647190500029e-01,1.002575649956970877e-02,-1.852743407548973487e-02,-2.620090415312045784e-01
7.500000000000000000e+00,-4.808845960408743014e-01,-1.644417603413595164e-01,1.000279087178851806e-01,-9.023673217682832981e-03,1.396354821547950986e-01,-1.262101967857566685e-05,6.251687012808190618e-04,7.285064605373892457e-03,2.646080396453342476e-01,9.687959957920964232e-03,-2.324167276098026980e-02,-2.620175381847181240e-01
7.750000000000000000e+00,-4.815085025328575963e-01,-1.469672773566073065e-01,1.000268280791916653e-01,-1.820003110467370002e-03,1.396863078567905370e-01,-4.735421329456840640e-06,9.551225280488685005e-04,4.068900250773489075e-03,2.318571323350114288e-01,7.921937330965926963e-03,-2.471626425174312455e-02,-2.620270169941022464e-01
8.000000000000000000e+00,-4.814753048609230479e-01,-1.295806732674777695e-01,1.000267292074970976e-01,1.614838548343336833e-03,1.383550101233584351e-01,2.524858321082033092e-06,1.116189719609080727e-03,9.625446042053479364e-04,1.991038035774395365e-01,5.216115020501350084e-03,-2.278369217520135812e-02,-2.620321933351845156e-01
8.250000000000000000e+00,-4.812448117425491834e-01,-1.124214038474987132e-01,1.000273362265682864e-01,1.539446973494699002e-03,1.361719839241944674e-01,6.352082236784139128e-06,1.098147533021273875e-03,-1.632816502524780510e-03,1.663498535072552298e-01,2.169516832772285832e-03,-1.780296002541220321e-02,-2.620306743648521119e-01
8.500000000000000000e+00,-4.812126264472981751e-01,-9.555916731743625825e-02,1.000281461321803483e-01,-1.308639511738867540e-03,1.337035952841705566e-01,5.979452667886475484e-06,9.141531260965890223e-04,-3.403716935577230044e-03,1.335969233290730807e-01,-6.282897590344241551e-04,-1.059754702857705275e-02,-2.620238447663059134e-01
8.750000000000000000e+00,-4.816576842758114041e-01,-7.899622044581754154e-02,1.000287050184547055e-01,-5.838058381572428304e-03,1.314490092874637805e-01,2.800240949032635426e-06,5.978195966436408281e-04,-4.167153733929341609e-03,1.008457096064636349e-01,-2.705604766287410604e-03,-2.318206778120603280e-03,-2.620157369876127129e-01
9.000000000000000000e+00,-4.827090840674115313e-01,-6.268128388459534572e-02,1.000288214758401906e-01,-1.078108873789423994e-02,1.297598849825521983e-01,-6.545974517617441575e-07,1.977283218794167715e-04,-3.892722580881437505e-03,6.809576495217771475e-02,-3.787065271729604145e-03,5.748945903568961936e-03,-2.620106357977821654e-01
9.250000000000000000e+00,-4.843368972611482026e-01,-4.653126413634364050e-02,1.000286114420052275e-01,-1.489363180291728393e-02,1.287960066980435858e-01,-2.231645080600897026e-06,-2.298460621046237928e-04,-2.700852850722386313e-03,3.534592109109976898e-02,-3.829106033954442212e-03,1.239607846504370975e-02,-2.620107804634033144e-01
9.500000000000000000e+00,-4.863676162719265395e-01,-3.045586013452831683e-02,1.000283698838407426e-01,-1.714427566193699876e-02,1.285223389981285658e-01,-1.286432151107453044e-06,-6.290460388180557248e-04,-8.378714436327654126e-04,2.595041836281369863e-03,-3.007502113293862578e-03,1.668963674321437274e-02,-2.620153740517399688e-01
9.750000000000000000e+00,-4.885208216691153682e-01,-1.437997229982161673e-02,1.000283607838773764e-01,-1.686149941826423082e-02,1.287447158560402205e-01,1.160829178379900559e-06,-9.522819133044475035e-04,1.367374662086288982e-03,-3.015733225870153092e-02,-1.661683115564870127e-03,1.811351032312850939e-02,-2.620213034738554381e-01
1.000000000000000000e+01,-4.904602513206322012e-01,1.740326861829545602e-03,1.000286532413582480e-01,-1.381615566655931653e-02,1.291740206673155367e-01,3.231145378104211669e-06,-1.166678812626145180e-03,3.557747772970473212e-03,-6.291078217854391419e-02,-2.089127544625374831e-04,1.663746861470678448e-02,-2.620250056614273348e-01
1.025000000000000000e+01,-4.918503294195006870e-01,1.791087753003884134e-02,1.000290918989659716e-01,-8.228089313692638768e-03,1.295036548600702053e-01,3.395143744131408032e-06,-1.258104503670336898e-03,5.404193459228784184e-03,-9.566430868859993053e-02,9.534027498117466585e-04,1.270514235067264977e-02,-2.620243490453524893e-01
1.050000000000000000e+01,-4.924086476577154148e-01,3.410212959173138103e-02,1.000294042008261081e-01,-6.985331470271839271e-04,1.294831569611084032e-01,1.353400256534176151e-06,-1.232112714213065693e-03,6.655967555329287376e-03,-1.284169061357205710e-01,1.537616749596869064e-03,7.148413464840653979e-03,-2.620195219366958095e-01
1.075000000000000000e+01,-4.919458729760633475e-01,5.025992297391666808e-02,1.000293685301197333e-01,7.918334111639991485e-03,1.289722345853057395e-01,-1.883168529461936940e-06,-1.111661524105782544e-03,7.177664598775744531e-03,-1.611680623453627670e-01,1.429924793148379392e-03,1.041792895046548097e-03,-2.620125878209388914e-01
1.100000000000000000e+01,-4.903868720457827957e-01,6.632111359004244644e-02,1.000289394875620436e-01,1.668174560482281465e-02,1.279639224826699950e-01,-4.686033235368272213e-06,-9.320449023881791908e-04,6.967484803972295339e-03,-1.939179228149454093e-01,7.143500812257367379e-04,-4.485840653291483029e-03,-2.620061448270213367e-01
1.125000000000000000e+01,-4.877701714706171865e-01,8.222981876255279488e-02,1.000282607853878319e-01,2.473904328775202235e-02,1.265724404518868973e-01,-5.801463669344887767e-06,-7.339759086845397146e-04,6.152974471169395457e-03,-2.266670851452019797e-01,-3.515943431868198319e-04,-8.458619503575060677e-03,-2.620019662000102056e-01
1.150000000000000000e+01,-4.842267979919861465e-01,9.795002836449942518e-02,1.000275690793110406e-01,3.147633838978155379e-02,1.249895814839882130e-01,-5.018242026229949394e-06,-5.560860915081472121e-04,4.963219789454958487e-03,-2.594162084558109260e-01,-1.408310270979601245e-03,-1.024619818830212019e-02,-2.620003845975422130e-01
1.175000000000000000e+01,-4.799434863283527641e-01,1.134713408138952606e-01,1.000270587148822110e-01,3.661536786129047927e-02,1.234215437927826814e-01,-3.121518179068010473e-06,-4.282051776321823709e-04,3.680662490427514047e-03,-2.921657001649818897e-01,-2.098520048334136592e-03,-9.698145642657158422e-03,-2.620006255411533314e-01
1.200000000000000000e+01,-4.751184346055717378e-01,1.288064821407606531e-01,1.000267955073080861e-01,4.023607706580006882e-02,1.220239144765401934e-01,-1.234850378507418281e-06,-3.666453066985491771e-04,2.580827556502213616e-03,-3.249156439404298768e-01,-2.177857312086402351e-03,-7.178803426353494270e-03,-2.620016669949412069e-01
1.225000000000000000e+01,-4.699193964684065250e-01,1.439816238814922433e-01,1.000267250799946467e-01,4.272000229012556938e-02,1.208538946271300873e-01,-7.230113855525437403e-08,-3.723547740861821230e-04,1.872659298169070639e-03,-3.576659411411644562e-01,-1.598011631945651066e-03,-3.480375894183489367e-03,-2.620029249907412927e-01
1.250000000000000000e+01,-4.644533136480035740e-01,1.590226891069624615e-01,1.000267494547606717e-01,4.462826302260937406e-02,1.198546522757706900e-01,3.541962659875318763e-07,-4.322748015387864223e-04,1.653746744734825233e-03,-3.904164975176790953e-01,-5.332074512715178271e-04,3.738748415005592896e-04,-2.620043217059104257e-01
1.275000000000000000e+01,-4.587538352494926475e-01,1.739421466933240845e-01,1.000268005638504099e-01,4.654469447677461041e-02,1.188775321853820927e-01,4.364572668994560420e-07,-5.236031121924487799e-04,1.892066080850471257e-03,-4.231672956038092237e-01,6.628440788681086568e-04,3.387839972244425287e-03,-2.620058578910968161e-01
1.300000000000000000e+01,-4.527885573052861101e-01,1.887307715521640006e-01,1.000268562472064610e-01,4.892385648243748053e-02,1.177363174605585983e-01,4.441712946805702954e-07,-6.200452484738446391e-04,2.439276964425775990e-03,-4.559183267594969502e-01,1.559591339433621330e-03,4.841097388963615591e-03,-2.620072070961249056e-01
1.325000000000000000e+01,-4.464828382949846963e-01,2.033574295083726557e-01,1.000269044094273668e-01,5.198197832733708612e-02,1.162775153186008659e-01,2.814374731080458314e-07,-6.986544273215209919e-04,3.072169487074563436e-03,-4.886694897982262198e-01,1.781884458940333725e-03,4.458855619859392397e-03,-2.620077496310697640e-01
1.350000000000000000e+01,-4.397529826110213036e-01,2.177775218311718275e-01,1.000269076483421421e-01,5.565668718921202435e-02,1.144450872766158284e-01,-2.892877639849790952e-07,-7.456648460680643988e-04,3.551451596022004494e-03,-5.214205797583079116e-01,1.132079084867131363e-03,2.459856296199228187e-03,-2.620069982274119136e-01
1.375000000000000000e+01,-4.325395307163098502e-01,2.319480149592818008e-01,1.000268124397591246e-01,5.964249674153909719e-02,1.123189322028668169e-01,-1.239651406868031613e-06,-7.599084316324952650e-04,3.682958670146450984e-03,-5.541713875134304246e-01,-3.346561188326347747e-04,-5.241410961679493583e-04,-2.620049917674908690e-01
1.400000000000000000e+01,-4.248318240224542852e-01,2.458447924883426783e-01,1.000265960752524802e-01,6.348920047178421844e-02,1.101134581052940764e-01,-2.133145862619987974e-06,-7.529675617580644390e-04,3.366400162397739215e-03,-5.869218159904141530e-01,-2.304919473144828763e-03,-3.628749132971569209e-03,-2.620022909226331631e-01
1.425000000000000000e+01,-4.166776818388368553e-01,2.594770479855821876e-01,1.000263024748806878e-01,6.673494268309217159e-02,1.081336801967481692e-01,-2.421415146236552487e-06,-7.460281240077243706e-04,2.620426954674131333e-03,-6.196719040699751879e-01,-4.275302379685379413e-03,-5.985483564375695259e-03,-2.619996117345397835e-01
1.450000000000000000e+01,-4.081761215023557154e-01,2.728939045626573301e-01,1.000260251014121193e-01,6.903846261773231852e-02,1.066983652600796001e-01,-1.916810935820210352e-06,-7.642353175017637485e-04,1.578834818339184490e-03,-6.524217452144664975e-01,-5.677865132358048822e-03,-6.938725934215086988e-03,-2.619974720739641771e-01
1.475000000000000000e+01,-3.994554532246639145e-01,2.861803073053384439e-01,1.000258440649066799e-01,7.027707430573769398e-02,1.060494928067517856e-01,-9.953979088691744557e-07,-8.299766455837951458e-04,4.596418392358569689e-04,-6.851713968369640417e-01,-6.029919698620932710e-03,-6.197831184930963772e-03,-2.619961783787804199e-01
1.500000000000000000e+01,-3.906426659451326944e-01,2.994420073126585757e-01,1.000257690221930534e-01,7.058730051163074337e-02,1.062719452397511560e-01,-3.178727970877246696e-07,-9.567494246178338520e-04,-4.848716637889071411e-04,-7.179208891040972373e-01,-5.066785332785713782e-03,-3.889739869582662518e-03,-2.619961057361550050e-01
1.525000000000000000e+01,-3.818319296147958952e-01,3.127823893258565024e-01,1.000257381170109733e-01,7.034072317325533452e-02,1.072453834759744956e-01,-2.886482455028245063e-07,-1.145068747779246030e-03,-1.024744623667723327e-03,-7.506703418861221389e-01,-2.819745359281402609e-03,-5.046523895424705110e-04,-2.619978931449943871e-01
1.550000000000000000e+01,-3.730598808623165619e-01,3.262761688569499330e-01,1.000256764202197002e-01,7.006424342342744416e-02,1.086421198042231417e-01,-7.133819195850659581e-07,-1.381322187364759924e-03,-1.002006688020642142e-03,-7.834200775958388707e-01,3.825785554724753712e-04,3.243539207511103931e-03,-2.620022144944678111e-01
1.575000000000000000e+01,-3.642933060753215102e-01,3.399459616312274224e-01,1.000255663129624439e-01,7.032704591719390885e-02,1.099728548318731763e-01,-9.510259909270509046e-07,-1.639750238839223937e-03,-3.623962412852630008e-04,-8.161705902317253347e-01,3.987908039820214044e-03,6.598510500468513125e-03,-2.620091750164819100e-01
1.600000000000000000e+01,-3.554315638652567055e-01,3.537471603470895287e-01,1.000254712320442219e-01,7.162281291210552403e-02,1.106700154018128990e-01,-4.416959938684668127e-07,-1.887016801858599525e-03,8.366854110367881459e-04,-8.489223302672447291e-01,7.346165081920482537e-03,8.934128506188628721e-03,-2.620177776281972792e-01
1.625000000000000000e+01,-3.463225458458174533e-01,3.675646504055631314e-01,1.000254914763225866e-01,7.427413257714944594e-02,1.101895683416998367e-01,8.101805849226350519e-07,-2.088290984389485749e-03,2.441666921129624721e-03,-8.816754140863694023e-01,9.853046448652064138e-03,9.877495407401470223e-03,-2.620259489664023556e-01
1.650000000000000000e+01,-3.367880703362265971e-01,3.812222168795506017e-01,1.000256840078388582e-01,7.837805046558149469e-02,1.081086426628389274e-01,2.168244284931905193e-06,-2.213494232929596930e-03,4.236293894058580124e-03,-9.144294457503872042e-01,1.107659457335717114e-02,9.360605186451018828e-03,-2.620312574798500105e-01
1.675000000000000000e+01,-3.266529535558919117e-01,3.945027398334196023e-01,1.000260049052155154e-01,8.380030586724303288e-02,1.041983531282783676e-01,2.753872614460254392e-06,-2.242415799057603711e-03,5.984532683367144862e-03,-9.471835846054248442e-01,1.083926677832168679e-02,7.598926037610976604e-03,-2.620319715714998221e-01
1.700000000000000000e+01,-3.157718230234893286e-01,4.071750885634889960e-01,1.000263154800054566e-01,9.021418184090820858e-02,9.845786109907078698e-02,2.004372527310101941e-06,-2.167735974885495742e-03,7.473281253619197713e-03,-9.799368436609890987e-01,9.238807128303123256e-03,5.011050894550762858e-03,-2.620278555199225812e-01
1.725000000000000000e+01,-3.040488790958171816e-01,4.190224743425062792e-01,1.000264478403161544e-01,9.717065159190522994e-02,9.110521129361866255e-02,1.762779311380989545e-08,-1.995524471678297804e-03,8.546084970968132952e-03,-1.012688465738503352e+00,6.604847873710643393e-03,2.104299965849433431e-03,-2.620202539732693903e-01
1.750000000000000000e+01,-2.914478573740775236e-01,4.298671258940497952e-01,1.000262872866299196e-01,1.041813389234604315e-01,8.253064393585252123e-02,-2.518380492260042358e-06,-1.743362049785137421e-03,9.121577209417412735e-03,-1.045438187113847839e+00,3.404417553100550029e-03,-6.431632960405244325e-04,-2.620114493365250929e-01
1.775000000000000000e+01,-2.779918240809645669e-01,4.395874308785601703e-01,1.000258227525418625e-01,1.107955431895533971e-01,7.322633949303684886e-02,-4.718445333376785262e-06,-1.436726372766949401e-03,9.194359301905243032e-03,-1.078186275923727955e+00,1.246354925541147656e-04,-2.874217548919242183e-03,-2.620036869616318986e-01
1.800000000000000000e+01,-2.637545419565777149e-01,4.481257431741709207e-01,1.000251422794052325e-01,1.166569237201739440e-01,6.371055016352643319e-02,-5.934358486553884859e-06,-1.104580702309665907e-03,8.820678135124850744e-03,-1.110933362699987548e+00,-2.831763476003847178e-03,-4.398433815920928247e-03,-2.619983901109190216e-01
1.825000000000000000e+01,-2.488464857107287598e-01,4.554872626957732207e-01,1.000243859092303234e-01,1.215328629406109695e-01,5.446261093561831357e-02,-5.980380505184196062e-06,-7.751508219005175376e-04,8.095147080503590359e-03,-1.143680177004621656e+00,-5.207894805157409733e-03,-5.186979087773335023e-03,-2.619958891198277962e-01
1.850000000000000000e+01,-2.333989323692702844e-01,4.617320946083730560e-01,1.000236884744241939e-01,1.253175516492762154e-01,4.587912719490382096e-02,-5.085150563729344027e-06,-4.726769044520970917e-04,7.126439453124613389e-03,-1.176427318830840285e+00,-6.898816464042536491e-03,-5.329059170499788473e-03,-2.619956484799900731e-01
1.875000000000000000e+01,-2.175489999475292702e-01,4.669633486318718885e-01,1.000231406074833657e-01,1.280158693410289594e-01,3.825330981937726665e-02,-3.680783026389757155e-06,-2.155530195058941070e-04,6.018673871163344145e-03,-1.209175139513182007e+00,-7.912548861639714590e-03,-4.973015522600960671e-03,-2.619967334644183188e-01
1.900000000000000000e+01,-2.014274283206191618e-01,4.713139005680934690e-01,1.000227776999074863e-01,1.297175194954615640e-01,3.177238140256766208e-02,-2.190462047123760939e-06,-1.583942540065596364e-05,4.861718639597269360e-03,-1.241923735202493884e+00,-8.312625807026864308e-03,-4.275384630876806653e-03,-2.619982338093621577e-01
1.925000000000000000e+01,-1.851497626001300800e-01,4.749335492817988724e-01,1.000225897595184432e-01,1.305696209225328253e-01,2.652476473557119699e-02,-9.110536385490780010e-07,1.202121767931666342e-04,3.729578500751036443e-03,-1.274673010976295595e+00,-8.170749779625778586e-03,-3.371737197397275693e-03,-2.619994986762771982e-01
1.950000000000000000e+01,-1.688107832190331448e-01,4.779772972124184394e-01,1.000225392477631509e-01,1.307525369810428328e-01,2.250985776336292266e-02,5.998218294154989869e-09,1.911423357103330615e-04,2.683247631759698524e-03,-1.307422767438850109e+00,-7.546483854727455143e-03,-2.370035050055142260e-03,-2.620001922124268745e-01
1.975000000000000000e+01,-1.524816663236628622e-01,4.805948129991070572e-01,1.000225774738329743e-01,1.304601836941125526e-01,1.964699707888337490e-02,5.232142152069416120e-07,1.992515040428552583e-04,1.773890963097740853e-03,-1.340172778951657540e+00,-6.493683390914554293e-03,-1.357548020575741069e-03,-2.620002521095691761e-01
2.000000000000000000e+01,-1.362093605531904950e-01,4.829209771613636737e-01,1.000226563599548452e-01,1.298839093554458868e-01,1.778417730540689592e-02,6.800046961447766075e-07,1.498261607472204239e-04,1.043680657965978748e-03,-1.372922851949625711e+00,-5.080245935831203923e-03,-4.098260086390950979e-04,-2.619998194875394759e-01
2.025000000000000000e+01,-1.200178196777598322e-01,4.850676445902338818e-01,1.000227362534070186e-01,1.291986819622077398e-01,1.670921073561884226e-02,5.664633495793026974e-07,5.065081700487022884e-05,5.238574381544447694e-04,-1.405672861612408120e+00,-3.405141652635719322e-03,4.058771870028049142e-04,-2.619991624531605168e-01
2.050000000000000000e+01,-1.039108419128821625e-01,4.871170994928206155e-01,1.000227908866133941e-01,1.285511557921723558e-01,1.616577550757484008e-02,3.018942663332148490e-07,-8.835343092066876263e-05,2.312216809634697089e-04,-1.438422766500291550e+00,-1.603840768639269027e-03,1.034064760364932379e-03,-2.619985894028792894e-01
2.075000000000000000e+01,-8.787624987121959996e-02,4.891178855189545760e-01,1.000228094037736021e-01,1.280502451354458837e-01,1.587515821859873666e-02,8.524138969053585496e-09,-2.555881032485869328e-04,1.646224934205134426e-04,-1.471172600432002708e+00,1.574726196834566475e-04,1.438439253375073867e-03,-2.619983533907508377e-01
2.100000000000000000e+01,-7.189102095200648745e-02,4.910836792368875603e-01,1.000227947264905465e-01,1.277614430780003862e-01,1.556277665075788200e-02,-2.196885300409463056e-07,-4.385027630196179855e-04,3.025432087624750329e-04,-1.503922443694883704e+00,1.695298840309722660e-03,1.609683321930143775e-03,-2.619985663318458169e-01
2.125000000000000000e+01,-5.592681621699802791e-02,4.929956755423617887e-01,1.000227581875483829e-01,1.277061450330393422e-01,1.498730712646806178e-02,-3.436500321163840148e-07,-6.246268545511227685e-04,6.025504841891995674e-04,-1.536672381491877681e+00,2.829599773459177264e-03,1.570798024016252731e-03,-2.619991511270878259e-01
2.150000000000000000e+01,-3.995522316123305967e-02,4.948086074911565158e-01,1.000227118438871826e-01,1.278667833561296374e-01,1.396906360281740048e-02,-3.881476925703297665e-07,-8.028108212363681273e-04,1.003548304324699712e-03,-1.569422463031585835e+00,3.413841888047987935e-03,1.377457740154789138e-03,-2.619998550721575614e-01
2.175000000000000000e+01,-2.395197948893430101e-02,4.964600170617203823e-01,1.000226613631344380e-01,1.281976960342243455e-01,1.241292975474235678e-02,-4.236597232808940429e-07,-9.644808662222285845e-04,1.431833870287864754e-03,-1.602172676138393426e+00,3.371252649397319268e-03,1.110860120747457795e-03,-2.620003302484937846e-01
2.200000000000000000e+01,-7.899534138327279909e-03,4.978817410088321460e-01,1.000226029138975292e-01,1.286403692646644337e-01,1.032031894300517415e-02,-5.231149508348772171e-07,-1.104670008044607386e-03,1.811147650543382765e-03,-1.634922947322998921e+00,2.726040871517208548e-03,8.621944248688031632e-04,-2.620002586003575828e-01
2.225000000000000000e+01,8.212436295405967090e-03,4.990119177097926406e-01,1.000225260822982937e-01,1.291402919487809331e-01,7.785477976976580214e-03,-7.135881538539193743e-07,-1.222598857749975301e-03,2.075360138007632284e-03,-1.667673166610456947e+00,1.615329168746744643e-03,7.113028817639011807e-04,-2.619994731290558598e-01
2.250000000000000000e+01,2.438852249787542073e-02,4.998054057270714945e-01,1.000224214901999642e-01,1.296616992941800883e-01,4.974397907174967284e-03,-9.534432234609873432e-07,-1.321634738836813261e-03,2.181025297966955427e-03,-1.700423225066017840e+00,2.729154358586183336e-04,7.053780289040027752e-04,-2.619980228929426058e-01
2.275000000000000000e+01,4.063057917263090957e-02,5.002405578256285956e-01,1.000222884495626102e-01,1.301964992555520173e-01,2.088886194547432719e-03,-1.154114743938725854e-06,-1.408555446462707002e-03,2.116516618691463222e-03,-1.733173047980781201e+00,-1.014531625977840683e-03,8.447026687776474285e-04,-2.619961574206119970e-01
2.300000000000000000e+01,5.694131607372619752e-02,5.003208940823214990e-01,1.000221374426836368e-01,1.307648712744923780e-01,-6.774313461933645971e-04,-1.235364703701731254e-06,-1.492179899651429470e-03,1.904996811092907628e-03,-1.765922611703265366e+00,-1.969507855615452302e-03,1.081037849174400255e-03,-2.619942482027304842e-01
2.325000000000000000e+01,7.332739334169603718e-02,5.000712641372938583e-01,1.000219855228722532e-01,1.314071752624580147e-01,-3.181630653742554844e-03,-1.176142651480399689e-06,-1.581580370850068067e-03,1.599852265373903756e-03,-1.798671943394496653e+00,-2.388351103846086173e-03,1.330690907395360280e-03,-2.619926904025782766e-01
2.350000000000000000e+01,8.980104804131502916e-02,4.995293345149285358e-01,1.000218477645270498e-01,1.321693134148505533e-01,-5.362618980112436942e-03,-1.024060499329726881e-06,-1.684217421254794725e-03,1.273198564941289187e-03,-1.831421111828741122e+00,-2.189489815320775062e-03,1.499157741795855087e-03,-2.619918212326773355e-01
2.375000000000000000e+01,1.063796862829714668e-01,4.987343416953844977e-01,1.000217307268932709e-01,1.330856942319682545e-01,-7.253521736983858242e-03,-8.577819814609408591e-07,-1.804389734811294920e-03,1.000297586175156409e-03,-1.864170217451496026e+00,-1.427423992135823730e-03,1.508853120463196380e-03,-2.619918662260199982e-01
2.400000000000000000e+01,1.230834525351338499e-01,4.977156553779293335e-01,1.000216480474047376e-01,1.341645777954970364e-01,-8.973213499547216809e-03,2.086721816594021040e-06,-1.819083137080481282e-03,8.439049224694051459e-04,-1.896743201226390951e+00,-6.829811174112949620e-03,-1.779885197430909269e-02,-2.321350597175765029e-01
2.425000000000000000e+01,1.396751075176344559e-01,4.965763917648208792e-01,1.000263719052391365e-01,1.282348929537634186e-01,-8.104473454290611265e-03,1.183332877029485622e-04,1.585568315470168091e-02,5.221707022295107295e-04,-1.897772934572810044e+00,-7.243319068686386586e-02,-1.988196544238455543e-01,1.289316363078012173e-01
2.450000000000000000e+01,1.538761362197390292e-01,4.961306538973035418e-01,1.000624525867833403e-01,9.502494829890081873e-02,2.336806594221323488e-03,4.103885803187121671e-04,4.160696744183964985e-02,-3.857425490101119565e-04,-1.874082122396808936e+00,-6.049950950820779522e-02,-1.618727607541758651e-01,2.260655424186457929e-01
2.475000000000000000e+01,1.622130754299188626e-01,4.975456662696064458e-01,1.001027681566538791e-01,3.765312190381616547e-02,2.043132020646495559e-02,1.327075623725677324e-04,5.422882103526173447e-02,-1.574686599926539490e-03,-1.843799295709869002e+00,-1.569358950840889916e-02,-2.478606651024563290e-02,2.522620202958538171e-01
2.500000000000000000e+01,1.628343575872082394e-01,5.013419084296870665e-01,1.000828676016485147e-01,-2.471901205049356273e-02,3.921728007158074847e-02,-3.979927750269152652e-04,4.885227448082560958e-02,-2.149474467994795870e-03,-1.811693709971953892e+00,2.376262822875881489e-02,9.682690436804691769e-02,2.595027355836931338e-01
2.525000000000000000e+01,1.563650669245008618e-01,5.071977402011227376e-01,1.000228146356159226e-01,-7.394454090543088609e-02,5.286159916482431609e-02,-4.669347906493956303e-04,3.231986277557477583e-02,-1.440203490916287148e-03,-1.779069290796907454e+00,4.152303035653050201e-02,1.431472282744468694e-01,2.615014017602925178e-01
2.550000000000000000e+01,1.450708101105135928e-01,5.142851196106696943e-01,9.998203330309103631e-02,-1.023411800167426666e-01,5.908992552236776163e-02,-1.759499261049390256e-04,1.485127624191957471e-02,4.762340992721059109e-04,-1.746328555606352806e+00,3.957344825505675762e-02,1.167745753167784423e-01,2.620530601123411962e-01
2.575000000000000000e+01,1.314441138870241776e-01,5.217038115579596402e-01,9.997640647529827673e-02,-1.130342479672204054e-01,5.868032294557259942e-02,4.618520694711914225e-05,3.530893544420765640e-03,2.931143744597012289e-03,-1.713577491677926945e+00,2.791661846629284183e-02,5.577810764459534276e-02,2.622041783989511043e-01
2.600000000000000000e+01,1.171630964964004984e-01,5.287560136044727743e-01,9.998649092999904731e-02,-1.146675667197078474e-01,5.375101582919288024e-02,9.244975502047407447e-05,2.086459431197665472e-05,5.170362008355470357e-03,-1.680813718455562711e+00,1.590270787680238967e-02,7.549378274780964727e-04,2.622083601362608096e-01
2.625000000000000000e+01,1.028040184785663363e-01,5.350106016818330090e-01,9.999704849071644475e-02,-1.153942196005214860e-01,4.627004971507701903e-02,7.496774917173348169e-05,1.843315792095754540e-03,6.781353517917214704e-03,-1.648029774108753731e+00,8.302596345384390120e-03,-2.603187461328718491e-02,2.621480964296910576e-01
2.650000000000000000e+01,8.816181615331732113e-02,5.402318818771419950e-01,1.000052708561254000e-01,-1.193989007485582732e-01,3.738186884293186185e-02,5.767180220151167701e-05,5.171081322550825574e-03,7.798745494299579722e-03,-1.615241387880649526e+00,5.450270968262688025e-03,-2.429977549945541368e-02,2.620808267114993484e-01
2.675000000000000000e+01,7.279229644979813563e-02,5.442742492222567563e-01,1.000112770336536727e-01,-1.266462163138156183e-01,2.745852434594373698e-02,3.822565249913835304e-05,7.160586107658078667e-03,8.519935249676450703e-03,-1.582468214606881807e+00,5.356202111496959246e-03,-7.204417793730680426e-03,2.620386633229648266e-01
2.700000000000000000e+01,5.643444206758065074e-02,5.470092536442650033e-01,1.000147107012132330e-01,-1.347050308465429502e-01,1.648672376202480264e-02,1.831213397375094031e-05,6.877678323255794444e-03,9.227981514245637076e-03,-1.549717021297484232e+00,5.777982484246824146e-03,1.027235925714745611e-02,2.620277277243713843e-01
2.725000000000000000e+01,3.916346170383139952e-02,5.483029598230109158e-01,1.000162253533602719e-01,-1.409562139008484760e-01,4.442060071592169104e-03,8.245642152686243119e-06,4.938823403566132940e-03,1.000868915233821266e-02,-1.516981695248605266e+00,5.298627562505205807e-03,1.915085057246844469e-02,2.620389816720296028e-01
2.750000000000000000e+01,2.131259861121234320e-02,5.480295070654125356e-01,1.000171235190056573e-01,-1.439838060532415143e-01,-8.510827819619502799e-03,6.914868418170002964e-06,2.560253248009938722e-03,1.073460512867500070e-02,-1.484250340333405749e+00,3.462205644295699575e-03,1.825485950857840337e-02,2.620569725674036787e-01
2.775000000000000000e+01,3.295706203438878833e-03,5.460981358187994017e-01,1.000179583576191744e-01,-1.438241515224988609e-01,-2.198740336852688521e-02,6.030711458535174451e-06,7.130883507842474206e-04,1.117228115339666435e-02,-1.451512667602366635e+00,4.406214885424728964e-04,1.154629195666240400e-02,2.620676636379712376e-01
2.800000000000000000e+01,-1.454463933080369503e-02,5.424772859232429578e-01,1.000184933081741390e-01,-1.414270111082498449e-01,-3.544366228220351828e-02,2.278117350837258494e-06,-2.520344722211663511e-04,1.111606467663352714e-02,-1.418765027364503384e+00,-3.340847189546020893e-03,4.086620668425396639e-03,2.620654804321804199e-01
2.825000000000000000e+01,-3.200282952142174953e-02,5.372093200217624709e-01,1.000184853790922201e-01,-1.379162288341906628e-01,-4.825608680181049659e-02,-2.099243539623349568e-06,-5.221642805292755736e-04,1.047026186759192172e-02,-1.386010453465724046e+00,-7.420175851581113126e-03,-8.719840710159019450e-04,2.620546039628416368e-01
2.850000000000000000e+01,-4.899601143872184261e-02,5.304159625363965569e-01,1.000180360966380216e-01,-1.340921991864937879e-01,-5.978862029402623457e-02,-4.588271561596087831e-06,-5.091347149145337763e-04,9.257294364445074059e-03,-1.353254250429864136e+00,-1.135324406386682347e-02,-2.718950109855163087e-03,2.620437667404323379e-01
2.875000000000000000e+01,-6.551250695825021342e-02,5.222962529220118721e-01,1.000174381980203780e-01,-1.303177209783700219e-01,-6.944775613701181793e-02,-4.593826019224725047e-06,-5.530028085073701322e-04,7.578524182871201366e-03,-1.320499485850968435e+00,-1.469085895843012281e-02,-2.673724764972490453e-03,2.620395363279106604e-01
2.900000000000000000e+01,-8.156576225728105756e-02,5.131176470947232948e-01,1.000169711947133944e-01,-1.266805498828106891e-01,-7.673918521835700057e-02,-2.700099711412504729e-06,-7.800408778224392691e-04,5.570949515081003410e-03,-1.287745860813535703e+00,-1.696259468826711442e-02,-2.380347195050530520e-03,2.620428940097085380e-01
2.925000000000000000e+01,-9.717542663268978476e-02,5.031994580485862345e-01,1.000168116731625922e-01,-1.232286425346106329e-01,-8.133363736531816490e-02,1.175238118525916837e-07,-1.122477125404208916e-03,3.388090417101506831e-03,-1.254991573954812978e+00,-1.771142095483808215e-02,-2.827123794273853248e-03,2.620501184600157463e-01
2.950000000000000000e+01,-1.123731777529563269e-01,4.928877110124562089e-01,1.000170050081441026e-01,-1.201147832486925138e-01,-8.313622935446336737e-02,2.772016939027576034e-06,-1.426025618520124260e-03,1.205685135570397533e-03,-1.222235605512040246e+00,-1.658223444213017053e-02,-3.996510024138131591e-03,2.620560383475758481e-01
2.975000000000000000e+01,-1.272170747723891104e-01,4.825219928285765514e-01,1.000174659660527238e-01,-1.175929182236331721e-01,-8.234217714026551005e-02,4.302581969151621677e-06,-1.558840039068990152e-03,-7.677109240333566736e-04,-1.189478532760583684e+00,-1.344090909551489028e-02,-5.150793989663638231e-03,2.620571137092166381e-01
3.000000000000000000e+01,-1.417976034942312891e-01,4.723974027687860011e-01,1.000180128254757050e-01,-1.159045194517732968e-01,-7.945704496828394359e-02,4.159718645366273924e-06,-1.469778499658026035e-03,-2.298314145891199381e-03,-1.156721789607095374e+00,-8.485225521116111086e-03,-5.401036801376703396e-03,2.620528468340870276e-01
3.025000000000000000e+01,-1.562269143086007783e-01,4.627273058662682570e-01,1.000184364594918773e-01,-1.151389448115907599e-01,-7.526307270414386852e-02,2.471387947559714045e-06,-1.189095709875719010e-03,-3.163700554342172185e-03,-1.123966443385919778e+00,-2.301537610683771114e-03,-4.209783681232335227e-03,2.620454203965960627e-01
3.050000000000000000e+01,-1.706132737419677747e-01,4.536142703863313974e-01,1.000185959079817055e-01,-1.151450426758026113e-01,-7.072390567557750030e-02,1.671796982923610535e-07,-7.944846216556931007e-04,-3.210855851235437045e-03,-1.091212535669411121e+00,4.175024190365442429e-03,-1.632068847139241325e-03,2.620382471161730731e-01
3.075000000000000000e+01,-1.850301576489390420e-01,4.450365250051785404e-01,1.000185037064139359e-01,-1.155336328465185886e-01,-6.683624537518147168e-02,-1.348827910575977247e-06,-3.717377039166666771e-04,-2.414036993819788229e-03,-1.058459276076683109e+00,9.816814829794125868e-03,1.727696921257584894e-03,2.620342038982070298e-01
3.100000000000000000e+01,-1.994915371676689864e-01,4.368550490407225873e-01,1.000183326218646584e-01,-1.157675277781743950e-01,-6.445469305037510033e-02,-1.075608102412172881e-06,1.106891815331735033e-05,-9.072833164782998861e-04,-1.025705700776540663e+00,1.355624941254941936e-02,4.954351378875850032e-03,2.620342341947731746e-01
3.125000000000000000e+01,-2.139423079470553213e-01,4.288421718840630947e-01,1.000183047137013642e-01,-1.153046461462480798e-01,-6.412962640255533142e-02,7.244346318674132479e-07,3.118882186970598847e-04,1.025810797647352295e-03,-9.929512636387902713e-01,1.467008691712516806e-02,7.133894125586018146e-03,2.620369675419725874e-01
3.150000000000000000e+01,-2.282674660743605755e-01,4.207272294007062818e-01,1.000185223858561928e-01,-1.137465435838223848e-01,-6.600129813787260213e-02,2.545356946964607588e-06,5.116453456997043479e-04,3.007463015550704537e-03,-9.601960649255909530e-01,1.300391503924820322e-02,7.634521866644128005e-03,2.620396769402159043e-01
3.175000000000000000e+01,-2.423177146757471423e-01,4.122499483183705848e-01,1.000188757194357680e-01,-1.109475280073688175e-01,-6.978301305917498920e-02,2.742481999311299460e-06,6.081900418272818618e-04,4.652702814878053802e-03,-9.274406889794669651e-01,9.052347121583169398e-03,6.288661278615881312e-03,2.620400743541722033e-01
3.200000000000000000e+01,-2.559443966605910448e-01,4.032094796018741434e-01,1.000191156730084324e-01,-1.070535352293347925e-01,-7.484364153518907603e-02,8.671946779778694649e-07,6.122536134568406585e-04,5.663370784476602637e-03,-8.946857938680999878e-01,3.852463069637796379e-03,3.441461441509134200e-03,2.620377147588045519e-01
3.225000000000000000e+01,-2.690340611697282225e-01,3.934975397834476474e-01,1.000190423305393206e-01,-1.024601678766446922e-01,-8.037132873392353882e-02,-1.953740841462187184e-06,5.456761249226521225e-04,5.901549737479625836e-03,-8.619317071616108272e-01,-1.288909819507628183e-03,-1.403447263518169195e-04,2.620339849385318054e-01
3.250000000000000000e+01,-2.815330728808578264e-01,3.831080745721938130e-01,1.000186527492321342e-01,-9.770131698377058915e-02,-8.557550207487710225e-02,-3.950676027640102478e-06,4.394081237901918202e-04,5.420711566719616480e-03,-8.291782844805590802e-01,-5.153435841195009963e-03,-3.476812538275159386e-03,2.620308053143622362e-01
3.275000000000000000e+01,-2.934553969667664242e-01,3.721221771537923662e-01,1.000181290585335087e-01,-9.329901802613013717e-02,-8.987204184613017954e-02,-4.106981865920997971e-06,3.289762149039034589e-04,4.445392734059943306e-03,-7.964251022080695019e-01,-6.942241345334857969e-03,-5.649041880075768816e-03,2.620292315912176595e-01
3.300000000000000000e+01,-3.048713801980739713e-01,3.606737477466185893e-01,1.000176912578547433e-01,-8.961687760199146813e-02,-9.300145430429371252e-02,-2.785040506423597993e-06,2.472095448517426866e-04,3.305280238555789122e-03,-7.636717899789493558e-01,-6.476027393160265280e-03,-6.066388188703822348e-03,2.620290791996940372e-01
3.325000000000000000e+01,-3.158807953106142485e-01,3.489064504800585276e-01,1.000174517949949937e-01,-8.675979051887576510e-02,-9.505057401339835066e-02,-1.143061990292428899e-06,2.162586303230241514e-04,2.342550691857005381e-03,-7.309182153247648639e-01,-4.205791411648097076e-03,-4.648979884885776764e-03,2.620296174860500260e-01
3.350000000000000000e+01,-3.265781009160989012e-01,3.369343504705122894e-01,1.000173871354283345e-01,-8.455061090799616264e-02,-9.637773620382016071e-02,-4.653435246708131506e-08,2.419229228144072381e-04,1.818596976720925941e-03,-6.981644139873761645e-01,-1.037888822933049227e-03,-1.865553949517170448e-03,2.620304151112599067e-01
3.375000000000000000e+01,-3.370203589123550447e-01,3.248167218128588662e-01,1.000174183052280202e-01,-8.259242909000541477e-02,-9.746983150757237979e-02,4.613243573834055263e-07,3.126608206399191696e-04,1.846155286023755827e-03,-6.654104198082605448e-01,1.965053378451122029e-03,1.394620382050737678e-03,2.620314862824197899e-01
3.400000000000000000e+01,-3.472076548168424592e-01,3.125526248413856845e-01,1.000174963061390560e-01,-8.039909416535800935e-02,-9.877825586597525909e-02,7.690263890881802344e-07,4.038961321041885334e-04,2.365489345534549891e-03,-6.326562115343875581e-01,3.910037662193831774e-03,4.086220592066723556e-03,2.620327852759000153e-01
3.425000000000000000e+01,-3.570821892816797294e-01,3.000945887326273431e-01,1.000176089499355547e-01,-7.755458871086255701e-02,-1.005840882090106025e-01,9.931111900287849381e-07,4.862678187590513054e-04,3.170634043947863877e-03,-5.999018153688107091e-01,4.324896497054462642e-03,5.332146281625726493e-03,2.620338021283028507e-01
3.450000000000000000e+01,-3.665464545016955400e-01,2.873750951541743093e-01,1.000177270350087189e-01,-7.385134027260593925e-02,-1.029304492294442208e-01,7.960539959441579512e-07,5.351074783410201662e-04,3.977157331607142181e-03,-5.671474038633014247e-01,3.261142361857722900e-03,4.705104663857281530e-03,2.620338105619338664e-01
3.475000000000000000e+01,-3.754948417055991583e-01,2.743362555207280451e-01,1.000177747605539708e-01,-6.936286613371203669e-02,-1.056364617385917443e-01,-1.196390380112742028e-07,5.381021533674215651e-04,4.510672575808265077e-03,-5.343932377913601650e-01,1.225577575176021658e-03,2.371774957288523295e-03,2.620325196386529276e-01
3.500000000000000000e+01,-3.838486272376159247e-01,2.609530090467453434e-01,1.000176732617748532e-01,-6.442641497420081853e-02,-1.083805634123017753e-01,-1.475190739634489137e-06,4.988083368559585989e-04,4.589290485002236498e-03,-5.016394859037711651e-01,-1.025285374598690737e-03,-9.527710252795001077e-04,2.620304071878680197e-01
3.525000000000000000e+01,-3.915830679126413583e-01,2.472431540872524480e-01,1.000174149950473212e-01,-5.954019559362434821e-02,-1.108199714800696678e-01,-2.501044858193671702e-06,4.350960517193759028e-04,4.175496486022827781e-03,-4.688861031429177317e-01,-2.750471782883148492e-03,-4.228724093985188233e-03,2.620283671283744065e-01
3.550000000000000000e+01,-3.987377729831308448e-01,2.332623794388535843e-01,1.000170858902511006e-01,-5.520760973531482763e-02,-1.127045135070233878e-01,-2.588540574149772241e-06,3.732165795266791401e-04,3.382988615434224817e-03,-4.361328879045048845e-01,-3.457384920146974652e-03,-6.419566224427234423e-03,2.620270453851058501e-01
3.575000000000000000e+01,-4.054068270974532928e-01,2.190874503129864870e-01,1.000168058899666007e-01,-5.177797449971006244e-02,-1.139489008571069883e-01,-1.818595985192153857e-06,3.394896562337859549e-04,2.438433698645385301e-03,-4.033796491799223061e-01,-3.028944667741592482e-03,-6.814952532914819033e-03,2.620265320567041756e-01
3.600000000000000000e+01,-4.117115388645988805e-01,2.047941707397825384e-01,1.000166441124201305e-01,-4.933369293940813999e-02,-1.146447118060279907e-01,-8.248056751526369978e-07,3.522156513743684124e-04,1.611953874107132983e-03,-3.706263097987239075e-01,-1.714844904056931837e-03,-5.242894070784878506e-03,2.620266333670902559e-01
3.625000000000000000e+01,-4.177640545205917322e-01,1.904376933647312642e-01,1.000165881651863126e-01,-4.765790148810962468e-02,-1.150149744440354393e-01,-1.696539696768709484e-07,4.161965598851946006e-04,1.138847452975901920e-03,-3.378728601239217033e-01,-6.313620100112363642e-06,-2.107088485205767508e-03,2.620273064283045739e-01
3.650000000000000000e+01,-4.236326926199885379e-01,1.760411379898951523e-01,1.000165872139786166e-01,-4.629030552040625662e-02,-1.153324548515657216e-01,1.059526264579765954e-07,5.213295005385160802e-04,1.156026476881443291e-03,-3.051192481491653563e-01,1.549227563236583918e-03,1.753121332765363288e-03,2.620287143031851396e-01
3.675000000000000000e+01,-4.293190116474784324e-01,1.615951457598924501e-01,1.000166143473992381e-01,-4.465153942498799322e-02,-1.158317781309835953e-01,3.435174324790125869e-07,6.454554392791534909e-04,1.670251825792350717e-03,-2.723653563396408184e-01,2.524771339377818689e-03,5.324661710156384717e-03,2.620308416079298874e-01
3.700000000000000000e+01,-4.347527898883735697e-01,1.470672496768138937e-01,1.000166826985923185e-01,-4.219696831722336006e-02,-1.166435000998479188e-01,7.619782249236470385e-07,7.604160694504016795e-04,2.564273891401788481e-03,-2.396111112761434292e-01,2.725940703656724515e-03,7.714976107633679872e-03,2.620331331723541046e-01
3.725000000000000000e+01,-4.398056749264170340e-01,1.324170561903313670e-01,1.000168055706222997e-01,-3.855490133338085323e-02,-1.177674396497487286e-01,1.148248410721979469e-06,8.394446171121563603e-04,3.635475054039408356e-03,-2.068566198050868499e-01,2.213260680563846478e-03,8.388504045468496775e-03,2.620346186475856487e-01
3.750000000000000000e+01,-4.443190158594471639e-01,1.176120079009007197e-01,1.000169495188253516e-01,-3.361216170972240735e-02,-1.190878632168847623e-01,1.043032831786278228e-06,8.637886620253270187e-04,4.653242189862661325e-03,-1.741021854781653888e-01,1.242425789966079223e-03,7.283971143988620701e-03,2.620344961845615384e-01
3.775000000000000000e+01,-4.481378379454201699e-01,1.026390691785369763e-01,1.000170329798980573e-01,-2.752774219649188614e-02,-1.204198617415829647e-01,2.036162044696506662e-07,8.268412073422101672e-04,5.418124459652004683e-03,-1.413481658712020805e-01,1.551085921717417296e-04,4.794517438885698493e-03,2.620326934331700941e-01
3.800000000000000000e+01,-4.511418707880469614e-01,8.750958497678040793e-02,1.000169753890723656e-01,-2.067630579993869067e-02,-1.215684065120036378e-01,-1.115521766543860506e-06,7.348744056385390867e-04,5.807830064759733971e-03,-1.085947735951789672e-01,-7.379422468374855675e-04,1.633625255945801973e-03,2.620299392069206368e-01
3.825000000000000000e+01,-4.532659776818654396e-01,7.225701238623957745e-02,1.000167542106445151e-01,-1.354120598364740718e-02,-1.223805679157588255e-01,-2.309132472415485859e-06,6.044541860268330810e-04,5.800613773846980889e-03,-7.584196880769886184e-02,-1.245486005011442075e-03,-1.364326809055776708e-03,2.620273045397460421e-01
3.850000000000000000e+01,-4.545055670106368240e-01,5.692939771779045866e-02,1.000164227666461986e-01,-6.587323650827103978e-03,-1.227762843573308310e-01,-2.839757768445209850e-06,4.574716358034598869e-04,5.473275430598485355e-03,-4.308950992693091897e-02,-1.335144856394304127e-03,-3.453313510042075370e-03,2.620255868733107341e-01
3.875000000000000000e+01,-4.549065733609673479e-01,4.157978050714201956e-02,1.000160778461715999e-01,-1.460694880461855779e-04,-1.227514078079968013e-01,-2.566618253010663885e-06,3.152392342967461568e-04,4.976861992480386028e-03,-1.033710639336737902e-02,-1.120063884467891640e-03,-4.147221749297442216e-03,2.620249722179782692e-01
3.900000000000000000e+01,-4.545433541617389106e-01,2.625790691094715204e-02,1.000158063464439140e-01,5.660567918285982006e-03,-1.223556552442784662e-01,-1.747139633381567437e-06,1.931779608096597495e-04,4.497253020681005187e-03,2.241544181480556105e-02,-8.038765075907651275e-04,-3.321325940066886719e-03,2.620251295713296180e-01
3.925000000000000000e+01,-4.534905564570015923e-01,1.100582188155099263e-02,1.000156511545215593e-01,1.094077074073351342e-02,-1.216551442252425674e-01,-7.695683594811316594e-07,9.731339824226136056e-05,4.209988439221148612e-03,5.516819419938612246e-02,-6.040837124075721125e-04,-1.227707793332727393e-03,2.620255538470497303e-01
3.950000000000000000e+01,-4.517961784362756195e-01,-4.141576045200318426e-03,1.000156139114365267e-01,1.599564780116434839e-02,-1.206928374672661120e-01,1.212914188744191684e-07,2.324971705408034506e-05,4.239152874707717220e-03,8.792109968687428223e-02,-6.772674897962639370e-04,1.574572254808709933e-03,2.620258508551658316e-01
3.975000000000000000e+01,-4.494625249044958970e-01,-1.915161906580057499e-02,1.000156793919824705e-01,2.123450448100366872e-02,-1.194598946090705688e-01,8.809172609377807117e-07,-4.232541282558977881e-05,4.628849111247758386e-03,1.206740433811950980e-01,-1.067065311030723817e-03,4.355922758360129821e-03,2.620258022147264332e-01
4.000000000000000000e+01,-4.464397258544197666e-01,-3.398660091525455840e-02,1.000158313858864195e-01,2.706354744281632557e-02,-1.178870462051354179e-01,1.499523278228496616e-06,-1.180890156578978033e-04,5.332761772841212132e-03,1.534268639476217555e-01,-1.687995635997162130e-03,6.384952310547163667e-03,2.620252905640003127e-01
4.025000000000000000e+01,-4.426334777831660849e-01,-4.859691941151324940e-02,1.000160436715960000e-01,3.377405273331977181e-02,-1.158589777736010462e-01,1.810984619740572666e-06,-2.233379862141421910e-04,6.223006314588088762e-03,1.861793549070180076e-01,-2.347067733256429523e-03,7.087630055819852358e-03,2.620242825406201570e-01
4.050000000000000000e+01,-4.379254335070645321e-01,-6.291734289638868660e-02,1.000162576307615098e-01,4.145469265112047136e-02,-1.132482013453863512e-01,1.489181654020639032e-06,-3.730726305884935401e-04,7.115084268860847466e-03,2.189313027831467640e-01,-2.794566600128446567e-03,6.161319436606040555e-03,2.620229683298933576e-01
4.075000000000000000e+01,-4.322019760566386259e-01,-7.686831996967889713e-02,1.000163750251884254e-01,4.994586369722203711e-02,-1.099597712853771225e-01,2.749294206011181610e-07,-5.738981560210976119e-04,7.802816731141511662e-03,2.516825942060121890e-01,-2.789406979383100577e-03,3.625986916752307627e-03,2.620219472624785162e-01
4.100000000000000000e+01,-4.253854959848256678e-01,-9.036297068610814331e-02,1.000162861000838260e-01,5.884414779011088587e-02,-1.059755190193935742e-01,-1.726569002641226719e-06,-8.215312713597798262e-04,8.096396385402899326e-03,2.844333566548578052e-01,-2.164248685085290707e-03,-1.850764376047886158e-04,2.620222238891194433e-01
4.125000000000000000e+01,-4.174619060277752758e-01,-1.033189484491035398e-01,1.000159263645190311e-01,6.755549267922930645e-02,-1.013863465006070025e-01,-3.915340386891511689e-06,-1.100376759085507040e-03,7.857755335973659605e-03,3.171840384025433890e-01,-8.786749431945146483e-04,-4.681376694356636538e-03,2.620248545102824012e-01
4.150000000000000000e+01,-4.084988176321499576e-01,-1.156730363655268240e-01,1.000153300203723006e-01,7.538809741068761006e-02,-9.640307124023574092e-02,-5.380211773600657320e-06,-1.385261463310411782e-03,7.028842240928302038e-03,3.499353345251765002e-01,9.491135106468210703e-04,-9.106360166985556434e-03,2.620303191320813574e-01
4.175000000000000000e+01,-3.986503156338873644e-01,-1.273953729179137240e-01,1.000146415141963396e-01,8.167025277072313683e-02,-9.133997953789819990e-02,-5.351327814913382951e-06,-1.645045822133725825e-03,5.648885022427142799e-03,3.826879398445436897e-01,3.041940754817395575e-03,-1.265906987604700079e-02,2.620379396997613020e-01
4.200000000000000000e+01,-3.881464254395136093e-01,-1.384997981977742210e-01,1.000140651847462175e-01,8.587363849069881705e-02,-8.657057312757668321e-02,-3.685787415327874719e-06,-1.847526653036491795e-03,3.856453238003103041e-03,4.154422202047660106e-01,5.003680723183179073e-03,-1.464139459630033405e-02,2.620457595380276672e-01
4.225000000000000000e+01,-3.772680555157591487e-01,-1.490471736935554126e-01,1.000137696076976307e-01,8.771898980146979052e-02,-8.246176630221505044e-02,-1.065458865739677846e-06,-1.964827582870895366e-03,1.872716456762653922e-03,4.481979736144581228e-01,6.401438427770435140e-03,-1.461215406343317758e-02,2.620511351913781262e-01
4.250000000000000000e+01,-3.663111595492660744e-01,-1.591397724890623866e-01,1.000137983355804949e-01,8.724060474380110342e-02,-7.929982238289705332e-02,1.299417242123762392e-06,-1.978356097132414650e-03,-3.472103802816580288e-05,4.809544396756806894e-01,6.876934906256599624e-03,-1.251062470019033424e-02,2.620518913069261324e-01
4.275000000000000000e+01,-3.555465319985909867e-01,-1.689068552038951454e-01,1.000140457462804638e-01,8.479144923825013280e-02,-7.722630119454079733e-02,2.353621181100705730e-06,-1.882401302551416989e-03,-1.602651818237567404e-03,5.137105936212468249e-01,6.257576961318889013e-03,-8.704100215175720329e-03,2.620474591123373997e-01
4.300000000000000000e+01,-3.451832220271217055e-01,-1.784839114476916566e-01,1.000143209392511806e-01,8.098261117983762691e-02,-7.620260472517149941e-02,1.835984800583876964e-06,-1.685586376750367217e-03,-2.627037136562199952e-03,5.464655897436232479e-01,4.628117087425822826e-03,-3.926562448342636215e-03,2.620392868023736499e-01
4.325000000000000000e+01,-3.353432837777898246e-01,-1.879900541804813419e-01,1.000144618388560946e-01,7.656749531920847840e-02,-7.601579630392907294e-02,4.014872933937001772e-07,-1.409713252655311541e-03,-3.007255260397891962e-03,5.792191118305043407e-01,2.329764079900958473e-03,8.907300532902060744e-04,2.620301778216511668e-01
4.350000000000000000e+01,-3.260531989734798963e-01,-1.975089494797231948e-01,1.000144223166096608e-01,7.229733412618166710e-02,-7.632703046474691166e-02,-8.856590297988740180e-07,-1.086043365614809339e-03,-2.766386431410708391e-03,6.119714350688009175e-01,-1.235489599756953616e-04,4.854072587961642121e-03,2.620229043708604544e-01
4.375000000000000000e+01,-3.172532729177889310e-01,-2.070779671041221848e-01,1.000142745050950355e-01,6.878411298156181242e-02,-7.675060715135639811e-02,-1.297884584263280158e-06,-7.496672447419739510e-04,-2.040353229428872994e-03,6.447231864848064209e-01,-2.190759567169741316e-03,7.335473088077130131e-03,2.620189470315865687e-01
4.400000000000000000e+01,-3.088217620599966184e-01,-2.166880103550810344e-01,1.000141345591694236e-01,6.640555269911020686e-02,-7.694124881897640433e-02,-8.510059272152126394e-07,-4.331627161652891380e-04,-1.038317112361758542e-03,6.774749792498420131e-01,-3.463630341520473454e-03,8.119405962863167348e-03,2.620181013942242121e-01
4.425000000000000000e+01,-3.006068790661607926e-01,-2.262933869274493248e-01,1.000140764566322393e-01,6.527407348234104401e-02,-7.666400987788841992e-02,-1.104725066772153556e-07,-1.610268638240943805e-04,1.387245888118542735e-05,7.102271497438256143e-01,-3.784251452761007700e-03,7.420435541783646990e-03,2.620190471278648348e-01
4.450000000000000000e+01,-2.924583210009895073e-01,-2.358281662086455233e-01,1.000140969545648267e-01,6.527183504450771723e-02,-7.582700979224750448e-02,3.452624339027731620e-07,5.375965084084754288e-05,9.298036875923155380e-04,7.429797165823467386e-01,-3.276593013027283199e-03,5.770154904760372086e-03,2.620203327099679957e-01
4.475000000000000000e+01,-2.842510291321721505e-01,-2.452237750494023205e-01,1.000141429651046077e-01,6.613403505378211145e-02,-7.447013945137102853e-02,3.180868985693239661e-07,2.102392848863015109e-04,1.601256885870107859e-03,7.757325129658944052e-01,-2.279877047483044004e-03,3.818149194383078926e-03,2.620210891529935471e-01
4.500000000000000000e+01,-2.758970544643605805e-01,-2.544227272952463981e-01,1.000141628276778882e-01,6.754970344457314479e-02,-7.271828603686418535e-02,-1.511046477375195467e-08,3.171132111374591308e-04,2.008962715792593154e-03,8.084853535543641279e-01,-1.209496441125398371e-03,2.120660750124092088e-03,2.620211607235226614e-01
