time_total,x,y,z,vx,vy,vz,roll,pitch,yaw,roll_rate,pitch_rate,yaw_rate
0e-01,9.990766605752553209e-02,1.258480918479652488e-01,-1.716705598169969080e-02,3.729483656540707776e-04,7.267859704987027518e-04,2.869074282615814535e-03,1.624403064615336456e+00,-2.625475224635070298e-02,1.338962539137506652e-02,2.620472280226825990e-01
2.500000000000000000e-01,-2.665982116607271482e-03,-4.981363529605875029e-01,9.994707349129794416e-02,1.267372672158407210e-01,-1.167858988463215536e-02,2.673974138515532888e-04,2.675902554563878728e-03,6.051672924853586204e-03,1.657169171330803437e+00,-2.607295351168516587e-02,1.202457975295596372e-02,2.620666285273017260e-01
5.000000000000000000e-01,1.332201561504203595e-02,-4.990235294607874850e-01,9.997530228433537669e-02,1.291343600267578495e-01,-2.197093401040433290e-03,1.902500903968386043e-04,3.879023584659992835e-03,8.988840301180713727e-03,1.689936259840984834e+00,-2.213048985343079103e-02,1.975017306664996700e-03,2.620632290169416234e-01
7.500000000000000000e-01,2.962644793387627512e-02,-4.984956790593709774e-01,9.999505613977213714e-02,1.315053555422910359e-01,1.070345211493867535e-02,1.303208410678135523e-04,3.751718507274086692e-03,1.136173755908869744e-02,1.722691662766127507e+00,-1.491008214474445759e-02,-8.168991183282875435e-03,2.620479136372807494e-01
1.000000000000000000e+00,4.613624867886002151e-02,-4.961929168237317889e-01,1.000082500864717255e-01,1.322600084571627643e-01,2.589789834988532116e-02,8.446105449188950605e-05,2.581894413167285917e-03,1.283760811772011873e-02,1.755432337937942178e+00,-5.204426587679697284e-03,-1.290698184520617207e-02,2.620340778900049350e-01
1.250000000000000000e+00,6.258794468608538941e-02,-4.919245757441755296e-01,1.000164781315097395e-01,1.306124377797593938e-01,4.184668488926431701e-02,4.999359141714070478e-05,1.039094367384187697e-03,1.309339455092428314e-02,1.788166001275243611e+00,5.854936499866912440e-03,-1.111530485940862359e-02,2.620292013886508786e-01
1.500000000000000000e+00,7.868643981322653858e-02,-4.857083813893133262e-01,1.000210149909762647e-01,1.267945530839246493e-01,5.680104156936396920e-02,2.501346895777041229e-05,-2.886094231028360794e-04,1.191920993694331639e-02,1.820903009462336852e+00,1.678110347931664401e-02,-4.866867386981257350e-03,2.620328794267307027e-01
1.750000000000000000e+00,9.421772752352439162e-02,-4.777805237202080724e-01,1.000230844872892211e-01,1.217751055601840188e-01,6.905813779383224160e-02,1.048025046225780584e-05,-1.122167729997910731e-03,9.333414604022980884e-03,1.853648581896705227e+00,2.584446763822913218e-02,2.654045267490806690e-03,2.620415222850166481e-01
2.000000000000000000e+00,1.091108813545485640e-01,-4.685720853920109508e-01,1.000240800311638090e-01,1.167862626661172049e-01,7.723740408856280548e-02,7.343075904144334299e-06,-1.474780799036797202e-03,5.639676845018985057e-03,1.886401636259597669e+00,3.136527437443206723e-02,8.821988994386898569e-03,2.620516367522057188e-01
2.250000000000000000e+00,1.234427964083065626e-01,-4.586519307932369616e-01,1.000252716137755293e-01,1.129105078699010473e-01,8.053285539411919602e-02,1.238671794588852031e-05,-1.503909579423533564e-03,1.393462035468000541e-03,1.919158443804091840e+00,3.211924792638533310e-02,1.226940331475201082e-02,2.620591845080622040e-01
2.500000000000000000e+00,1.374021482997628274e-01,-4.486426118827315790e-01,1.000272405735100345e-01,1.108426220966871184e-01,7.888584050908045708e-02,1.842544322410661085e-05,-1.362070429420058704e-03,-2.709548275696832976e-03,1.951915811748445417e+00,2.770783941464647834e-02,1.275715554566533502e-02,2.620593565374572664e-01
2.750000000000000000e+00,1.512349032640093738e-01,-4.391225647066728244e-01,1.000296459617378009e-01,1.108186521788117745e-01,7.302944187243826102e-02,1.876116724918178443e-05,-1.122696753345987656e-03,-5.981925508712380296e-03,1.984671616340506706e+00,1.874357322748285495e-02,1.068659281273137349e-02,2.620496615331261436e-01
3.000000000000000000e+00,1.651882974840699625e-01,-4.305324691241467772e-01,1.000315964802084845e-01,1.126473034087085850e-01,6.438161560494179425e-02,1.162406331651040483e-05,-7.878497177592391678e-04,-7.884023651002172728e-03,2.017424426847671537e+00,6.770147686982067384e-03,6.676407121101481795e-03,2.620335059439518055e-01
3.250000000000000000e+00,1.794620101126880862e-01,-4.231041736641523165e-01,1.000323644359195213e-01,1.157849631580277622e-01,5.480110059603147954e-02,9.686084218377997377e-07,-3.397415119394618091e-04,-8.121597268865271557e-03,2.050173990814299074e+00,-6.064433879604454528e-03,1.386448219057582164e-03,2.620196326072600779e-01
3.500000000000000000e+00,1.941699950932067598e-01,-4.168264790896530347e-01,1.000319282678742705e-01,1.194292785704228477e-01,4.625523929786586053e-02,-6.697586086042851156e-06,2.099595276389764156e-04,-6.687193755416445673e-03,2.082921979729891238e+00,-1.748159716231830613e-02,-4.461941198182346920e-03,2.620167001050952571e-01
3.750000000000000000e+00,2.093152546939940351e-01,-4.114543435109401792e-01,1.000309912860736783e-01,1.226334275080527142e-01,4.047061687524032558e-02,-6.922402599702096927e-06,8.009532207363995095e-04,-3.846453451434647154e-03,2.115671444892630149e+00,-2.555707197387995996e-02,-1.002601036303997842e-02,2.620271173190578673e-01
4.000000000000000000e+00,2.247806430818293510e-01,-4.065588354848315711e-01,1.000305084135009598e-01,1.244477009727274347e-01,3.863998115276200823e-02,-1.773356832801020782e-07,1.338040930109665478e-03,-7.953518675170276916e-05,2.148424850366579708e+00,-2.909423485144838409e-02,-1.437270866413392113e-02,2.620450594072402661e-01
4.250000000000000000e+00,2.403388103512870688e-01,-4.016068405450241019e-01,1.000310687533410847e-01,1.240805121502444597e-01,4.124292140768423542e-02,8.669985689668146438e-06,1.723229472198245732e-03,4.008029853332453936e-03,2.181182229103749037e+00,-2.780900437761590557e-02,-1.663526364337286970e-02,2.620601027332016275e-01
4.500000000000000000e+00,2.556821409417166513e-01,-3.960541039940779218e-01,1.000325373765048598e-01,1.210517722098756604e-01,4.800911838597012038e-02,1.359886743991533566e-05,1.887388445585305458e-03,7.789087443477968851e-03,2.213941017092428520e+00,-2.230680798016506858e-02,-1.623731981760378335e-02,2.620636685780627917e-01
4.750000000000000000e+00,2.704693577841203456e-01,-3.894337033106352042e-01,1.000341589391853941e-01,1.153014128701552871e-01,5.802038581423944047e-02,1.113977765047293288e-05,1.808480966473662715e-03,1.071660035461974476e-02,2.246697669829176292e+00,-1.388349799963417563e-02,-1.308443340091018821e-02,2.620538527538481821e-01
5.000000000000000000e+00,2.843809818216145313e-01,-3.814244051373663069e-01,1.000350261687170533e-01,1.072209861720842122e-01,6.991980419947557701e-02,2.270949488943997559e-06,1.512850781938651678e-03,1.240750771180183960e-02,2.279449802379753809e+00,-4.216887341269171668e-03,-7.639769467593997623e-03,2.620358560244864243e-01
5.250000000000000000e+00,2.971728941220918019e-01,-3.718885733116747416e-01,1.000346078877194234e-01,9.759429419513970805e-02,8.217889902643009392e-02,-8.443678504417723716e-06,1.063502011227048395e-03,1.269614523338657985e-02,2.312197408328887871e+00,4.970525901257554641e-03,-8.561106850374000567e-04,2.620183416764654827e-01
5.500000000000000000e+00,3.087169597254197928e-01,-3.608758535760215880e-01,1.000330251905439394e-01,8.745572317824143460e-02,9.336922461487899561e-02,-1.570505159989741623e-05,5.423117782203129176e-04,1.165081253107386541e-02,2.344942561993051733e+00,1.220546245343125807e-02,6.006308933413507210e-03,2.620083815842602637e-01
5.750000000000000000e+00,3.190200443533088848e-01,-3.485952302577600692e-01,1.000309410601298021e-01,7.789371742596364057e-02,1.023914575409276828e-01,-1.647420957323431775e-05,3.229304270649729848e-05,9.554302352195518169e-03,2.377688041899374216e+00,1.646949091126398770e-02,1.161691778177437531e-02,2.620080075241866813e-01
6.000000000000000000e+00,3.282169301145976270e-01,-3.353630590415711543e-01,1.000291638377419356e-01,6.983684999174011310e-02,1.086290668086514200e-01,-1.139210638751025194e-05,-3.965600674669598731e-04,6.854672819751555721e-03,2.410435836895934880e+00,1.730596334808195969e-02,1.481280528438628889e-02,2.620139957750672322e-01
6.250000000000000000e+00,3.365374893765656905e-01,-3.215377530824444774e-01,1.000282169808128646e-01,6.386143163503343878e-02,1.120097554658447542e-01,-3.978290167033045403e-06,-6.967752103696305249e-04,4.094537345932255587e-03,2.443186360683543334e+00,1.484288301678097881e-02,1.480762078814560831e-02,2.620205117726280286e-01
6.500000000000000000e+00,3.442531284563569161e-01,-3.074529408225280536e-01,1.000281235160033894e-01,6.005567550993816395e-02,1.129722598007323608e-01,1.754031131711409225e-06,-8.485726566972977974e-04,1.826563896226873112e-03,2.475938661033338040e+00,9.750553782725842819e-03,1.135950762299787857e-02,2.620227715944475899e-01
6.750000000000000000e+00,3.516114851749963521e-01,-2.933604465004065465e-01,1.000285131879465744e-01,5.796882550229898179e-02,1.123476012984086503e-01,3.796592258515280076e-06,-8.612853911540874641e-04,5.225901238040305810e-04,2.508691321514942452e+00,3.139528968290433014e-03,4.882980820885675713e-03,2.620195342664994875e-01
7.000000000000000000e+00,3.587713494769992906e-01,-2.793926525879325551e-01,1.000289635423003698e-01,5.666429074687282658e-02,1.111739745738363067e-01,3.220588679154663810e-06,-7.712403831103730378e-04,4.861445618470885337e-04,2.541443395138526462e+00,-3.608810268227567383e-03,-3.528779315159799850e-03,2.620130576549070112e-01
7.250000000000000000e+00,3.657512861038816898e-01,-2.655507408413703141e-01,1.000293347833912105e-01,5.488131093422506102e-02,1.104748306347964060e-01,3.049901451153908940e-06,-6.359532297306997152e-04,1.782768468361644069e-03,2.574194744367679810e+00,-9.081579575027757395e-03,-1.221587313719615583e-02,2.620067551561321983e-01
7.500000000000000000e+00,3.724046996415554256e-01,-2.517209553681219458e-01,1.000298468362682963e-01,5.128846364956526904e-02,1.110395819947714441e-01,5.546046875314138078e-06,-5.245971190406255747e-04,4.205914881750118066e-03,2.606945599280428461e+00,-1.211833055171507301e-02,-1.922425661275894981e-02,2.620023855005500502e-01
7.750000000000000000e+00,3.784303801975411607e-01,-2.377156841922204444e-01,1.000308149663325513e-01,4.478717245354282145e-02,1.132516675058333339e-01,9.833869588204628118e-06,-5.053971932509022458e-04,7.294002158679901635e-03,2.639695762039885540e+00,-1.207800649637245233e-02,-2.271373170996706867e-02,2.619991011549392956e-01
8.000000000000000000e+00,3.834208711381043022e-01,-2.233307265004554898e-01,1.000322281815666098e-01,3.480208986232391499e-02,1.170042789102826303e-01,1.194188085217688881e-05,-6.316472621582649776e-04,1.040425968804727271e-02,2.672444252285146593e+00,-9.007240907214589601e-03,-2.141188765194017990e-02,2.619953735639712900e-01
8.250000000000000000e+00,3.869424266575487992e-01,-2.084060345845449025e-01,1.000335268897729613e-01,2.148752945859895569e-02,1.217272437920875333e-01,7.725621393654007036e-06,-9.290010293928649236e-04,1.283347734690601892e-02,2.705189934589660616e+00,-3.643719219469736346e-03,-1.498305368324451790e-02,2.619923278819821788e-01
8.500000000000000000e+00,3.886320432691600102e-01,-1.928759236913240027e-01,1.000338362459170932e-01,5.791303526794853648e-03,1.265221083663689572e-01,-3.292021889923026292e-06,-1.387068370696129807e-03,1.396055468569693328e-02,2.737932858155162297e+00,2.761800181420004038e-03,-4.189815014189264726e-03,2.619953208529489097e-01
8.750000000000000000e+00,3.882915587640409227e-01,-1.767969732582579112e-01,1.000325654009617954e-01,-1.065164863823858492e-02,1.303741266998812987e-01,-1.632206341399359688e-05,-1.957817916291055334e-03,1.337737668952572630e-02,2.770675265283520705e+00,8.758496313619978241e-03,9.215403934609768533e-03,2.620114841713199194e-01
9.000000000000000000e+00,3.859579875957068751e-01,-1.603472163552952523e-01,1.000299518996079495e-01,-2.578207277196311806e-02,1.323891646126840738e-01,-2.370278493216498197e-05,-2.561832628157396756e-03,1.097672272375450377e-02,2.803421201032769705e+00,1.305090182785267894e-02,2.284513899052506222e-02,2.620441611720088493e-01
9.250000000000000000e+00,3.819335991040703759e-01,-1.437972686619235496e-01,1.000271062708782271e-01,-3.748280271658867291e-02,1.319976418005599228e-01,-1.993793517099429855e-05,-3.101475878392643583e-03,6.977673135780978683e-03,2.836174557567782362e+00,1.479436837065048298e-02,3.417994919776716489e-02,2.620881512471592845e-01
9.500000000000000000e+00,3.767676509074917024e-01,-1.274607528226240905e-01,1.000254465901715129e-01,-4.397107565813054841e-02,1.290783255655346962e-01,-5.805336749192997657e-06,-3.478215318851234691e-03,1.885469665422151702e-03,2.868936595775883447e+00,1.375593487003310897e-02,4.108764763962043792e-02,2.621297925630616255e-01
9.750000000000000000e+00,3.711918883375628364e-01,-1.116358818045109641e-01,1.000258568801126319e-01,-4.413497458540290713e-02,1.239776858689524835e-01,1.151568212628154812e-05,-3.610379733704674205e-03,-3.602030744102048196e-03,2.901704560846805503e+00,1.031433168111793933e-02,4.223945021590336940e-02,2.621528331129112099e-01
1.000000000000000000e+01,3.660213241445863797e-01,-9.655135555118819768e-02,1.000281167357925521e-01,-3.774760519537456727e-02,1.174275139889004865e-01,2.253264542294298301e-05,-3.447723290446714182e-03,-8.719437117690770345e-03,2.934472462273319593e+00,5.319445095273484317e-03,3.734551940631535005e-02,2.621470171749361033e-01
1.025000000000000000e+01,3.620383814729254968e-01,-8.232781744810427349e-02,1.000309797801787193e-01,-2.552081310661588956e-02,1.103866942445376337e-01,2.108069863262417238e-05,-2.980131391568757900e-03,-1.276513836051929376e-02,2.967233773184776879e+00,-1.378194350028026215e-04,2.717986024730041986e-02,2.621142452716465621e-01
1.050000000000000000e+01,3.598811362229628052e-01,-6.896184860996325272e-02,1.000328585262562769e-01,-8.993267349435505806e-03,1.038473436556095891e-01,7.911131890407016915e-06,-2.239197478527776494e-03,-1.521524004961894057e-02,2.999984606534477294e+00,-4.982431462389829389e-03,1.340661379793771889e-02,2.620684438349442646e-01
1.075000000000000000e+01,3.599549894403978323e-01,-5.633410060870094188e-02,1.000326960435766327e-01,9.721287033722748883e-03,9.864926222485720375e-02,-9.909258655554114328e-06,-1.292838413051737058e-03,-1.580178250554169217e-02,3.032725617768023962e+00,-8.379865323510128639e-03,-1.746943568156307308e-03,2.620290060380556230e-01
1.100000000000000000e+01,3.623822464952740630e-01,-4.423797340898313196e-02,1.000305090615944137e-01,2.827608382245372712e-02,9.534058432832991092e-02,-2.321771351075487889e-05,-2.343515363286451168e-04,-1.454433715432496173e-02,3.065461624406498053e+00,-9.884499205520841381e-03,-1.590338211362060314e-02,2.620114114500670111e-01
1.125000000000000000e+01,3.669969093268072857e-01,-3.242132086101345151e-02,1.000273110758161943e-01,4.446075152134389835e-02,9.410899058210445145e-02,-2.588310517579322118e-05,8.318850030386308516e-04,-1.173233157365862096e-02,3.098199221514654322e+00,-9.490134810824944409e-03,-2.695769924717977828e-02,2.620201080994668530e-01
1.150000000000000000e+01,3.733838337791701156e-01,-2.063175208450263726e-02,1.000245686996685118e-01,5.653243398757774180e-02,9.478534752191009050e-02,-1.117967174508554035e-05,1.475510279556923156e-03,-7.865728421938935830e-03,3.130279468598601067e+00,2.477394965707076235e-02,-3.355074733653248126e-02,1.934035983615343401e-01
1.175000000000000000e+01,3.809563284482855861e-01,-8.929548284595452065e-03,1.000268340139535833e-01,6.352969095077092010e-02,8.978234781541180598e-02,7.421027422374551366e-05,-1.292566155781259100e-02,-3.836214958327237995e-03,3.128548283794311047e+00,1.653098595424214445e-01,-3.225817673222139415e-02,-1.404770716021361276e-01
1.200000000000000000e+01,3.890662500701504434e-01,7.579660852496067445e-04,1.000493945244397692e-01,6.528610476883768554e-02,6.202173258996149241e-02,2.537761847685358028e-04,-3.280961368780181686e-02,-5.750011850081367462e-04,3.104063614226794332e+00,1.308847594219157695e-01,-2.679240504007350185e-02,-2.299099462849717446e-01
1.225000000000000000e+01,3.970583441919135481e-01,5.600637049173224843e-03,1.000741172822715713e-01,6.190122597456715337e-02,1.501306397847823777e-02,8.146259524414635890e-05,-4.234820788104604744e-02,1.649180623607668199e-03,3.073455137086615885e+00,1.928284970819081623e-02,-1.577185353305836715e-02,-2.538618332608156281e-01
1.250000000000000000e+01,4.043512653450280769e-01,4.173928656589518359e-03,1.000624666590551048e-01,5.452238711563358459e-02,-3.530004779200771048e-02,-2.350191103175309018e-04,-3.812099078733048596e-02,3.159475519299996798e-03,3.041239712009609075e+00,-7.745612525033897244e-02,-2.661575838154195579e-03,-2.601758479574998173e-01
1.275000000000000000e+01,4.105728151857359620e-01,-2.929579984943486010e-03,1.000270627602341394e-01,4.519064686399767994e-02,-7.439331607575482008e-02,-2.749537485328204522e-04,-2.545728334345580962e-02,4.285727143635526676e-03,3.008642365267605534e+00,-1.135616621642181329e-01,7.371315791962372230e-03,-2.617315735286108169e-01
1.300000000000000000e+01,4.156135075176576321e-01,-1.382658847530139276e-02,1.000029997589899078e-01,3.591222022618959647e-02,-9.639789259120927489e-02,-1.047708605544212760e-04,-1.212914820322591458e-02,4.992979819485611134e-03,2.975960369568182884e+00,-9.225118902613801963e-02,1.198851512851405177e-02,-2.620785067312266237e-01
1.325000000000000000e+01,4.195716030060433477e-01,-2.648709955361203128e-02,9.999939133517057877e-02,2.796292526773600656e-02,-1.040646150157277794e-01,2.380377381901614683e-05,-3.486015746055115983e-03,4.988482891669390046e-03,2.943239332673556419e+00,-4.374975334973232183e-02,1.233410767210008953e-02,-2.621325212274580596e-01
1.350000000000000000e+01,4.226498074982761866e-01,-3.955777094591547693e-02,1.000048457932658508e-01,2.179508756395479030e-02,-1.044700280596745773e-01,5.053716718961505844e-05,-7.769929241058594381e-04,4.067317705104880714e-03,2.910487731253676547e+00,3.381865455610480291e-04,1.103414737388790957e-02,-2.620909926584013006e-01
1.375000000000000000e+01,4.250702312285482010e-01,-5.258573421996602659e-02,1.000106860237795353e-01,1.734883161410906080e-02,-1.042975147060144492e-01,4.234346924359534632e-05,-2.148791579285586669e-03,2.370360743870487084e-03,2.877726748496010067e+00,2.274332618959971214e-02,9.921587921088000084e-03,-2.620215585110319267e-01
1.400000000000000000e+01,4.270337530688496086e-01,-6.576814626055187130e-02,1.000155233540276634e-01,1.439331530773546239e-02,-1.071371792565918163e-01,3.558398974227034030e-05,-4.749643790008655289e-03,3.868163197342960641e-04,2.844973869471767891e+00,2.295267799841774897e-02,9.063581113411454948e-03,-2.619751878431321179e-01
1.425000000000000000e+01,4.287100398784179367e-01,-7.952856405613666080e-02,1.000194182038010582e-01,1.266374581987235459e-02,-1.132651201661800250e-01,2.606848833864249164e-05,-6.468381233717446048e-03,-1.253912267694705200e-03,2.812228322796227253e+00,1.060085858222045707e-02,7.313344551943404444e-03,-2.619703196593773376e-01
1.450000000000000000e+01,4.302304886080822732e-01,-9.418016969397881299e-02,1.000218297606396689e-01,1.179507523507524434e-02,-1.209890530244529944e-01,1.297390317934620374e-05,-6.612031459798729457e-03,-2.041475959156190297e-03,2.779480814633493058e+00,-3.231897928701314704e-03,3.593958635573042508e-03,-2.619944513818881493e-01
1.475000000000000000e+01,4.316677402884097625e-01,-1.097879879110333773e-01,1.000227956433273058e-01,1.120520272204388566e-02,-1.282812902128641075e-01,3.965325436878981667e-06,-5.625225903453055613e-03,-1.750943999348649220e-03,2.746727424740136314e+00,-1.176930162208130251e-02,-2.102824562038535169e-03,-2.620277894415128928e-01
1.500000000000000000e+01,4.330061577141360307e-01,-1.262027025931473923e-01,1.000231042764068018e-01,1.008290398544857414e-02,-1.338192594525519086e-01,2.071878844690075132e-06,-4.376520781839300829e-03,-4.627969567782586361e-04,2.713970426128850644e+00,-1.380430735525671297e-02,-8.553998622876292368e-03,-2.620583389065982427e-01
1.525000000000000000e+01,4.341211437478626478e-01,-1.431710555260243267e-01,1.000234891855207725e-01,7.534770249795724566e-03,-1.372106666442189093e-01,4.368746451488068257e-06,-3.533871491416333034e-03,1.526295824549114095e-03,2.681211865110812553e+00,-1.173462678461543486e-02,-1.388495585664721761e-02,-2.620814016283669612e-01
1.550000000000000000e+01,4.347844115250319996e-01,-1.604348074435059113e-01,1.000242281356199109e-01,2.833666059972956165e-03,-1.386715973402581070e-01,7.218355899628570026e-06,-3.296857202002722101e-03,3.824913373821858982e-03,2.648451266440660756e+00,-8.670792737350394366e-03,-1.641792576489512975e-02,-2.620941903252748673e-01
1.575000000000000000e+01,4.347007962190415076e-01,-1.777773149792625795e-01,1.000252248677378636e-01,-4.344142531817560965e-03,-1.385809655861242606e-01,8.252918158207556333e-06,-3.471859075123554829e-03,6.039759638168153318e-03,2.615688442073237585e+00,-6.427717764320665245e-03,-1.531549881027921903e-02,-2.620941309524424945e-01
1.600000000000000000e+01,4.335683971852649088e-01,-1.950240365792695885e-01,1.000261592098541097e-01,-1.379149263193922038e-02,-1.372152916581819426e-01,6.217502551800493375e-06,-3.715655901854243194e-03,7.822676988765509334e-03,2.582925715259193122e+00,-5.049820416125128282e-03,-1.078968024931313378e-02,-2.620809243930445342e-01
1.625000000000000000e+01,4.311449764143173713e-01,-2.120269375749506136e-01,1.000266432052921706e-01,-2.479424832659306993e-02,-1.347428991314596480e-01,1.325026251290943383e-06,-3.761605113474811041e-03,8.890649219438861647e-03,2.550166634882981231e+00,-3.515047662273857593e-03,-3.918538785044213719e-03,-2.620582274738402218e-01
1.650000000000000000e+01,4.273022948801227239e-01,-2.286600994941931642e-01,1.000264249975359732e-01,-3.628903273718627615e-02,-1.313781255860548003e-01,-4.570659611828261266e-06,-3.525528437795762311e-03,9.047180705921295529e-03,2.517413165088719484e+00,-8.239280593351412142e-04,3.741998859014547714e-03,-2.620324402075006054e-01
1.675000000000000000e+01,4.220549421195645134e-01,-2.448361102688806079e-01,1.000255482550488767e-01,-4.710036150951640854e-02,-1.275337442566623347e-01,-8.835873233201084950e-06,-3.087251886239758287e-03,8.218378144123097279e-03,2.484664446192334175e+00,3.215418511761098611e-03,1.056702728573998863e-02,-2.620096818461837285e-01
1.700000000000000000e+01,4.155578838410988740e-01,-2.605344482863214406e-01,1.000243601713532021e-01,-5.619321394543073944e-02,-1.238515191023346618e-01,-9.462799989559775399e-06,-2.604359410885984626e-03,6.493472316305893936e-03,2.451917946923912517e+00,7.811780269983244034e-03,1.519109100526597027e-02,-2.619935079932141364e-01
1.725000000000000000e+01,4.080745111557501636e-01,-2.758237151993960246e-01,1.000233508926459680e-01,-6.288580680805172518e-02,-1.210810913928284660e-01,-6.258134333699249611e-06,-2.223616028684453991e-03,4.144543114044021287e-03,2.419171472584834781e+00,1.155162940036869902e-02,1.673436457842267938e-02,-2.619846745661079668e-01
1.750000000000000000e+01,3.999228820021377695e-01,-2.908614536998370692e-01,1.000228929139059114e-01,-6.698325689420329965e-02,-1.198593277445009486e-01,-1.176086471200889747e-06,-2.029722234698330512e-03,1.602292140810139759e-03,2.386424195444224239e+00,1.301324960501805753e-02,1.493648203927987368e-02,-2.619824627636038183e-01
1.775000000000000000e+01,3.914116596171491880e-01,-3.058649357068838892e-01,1.000230249559518197e-01,-6.880986108666485579e-02,-1.204830341538388333e-01,2.726542648533843553e-06,-2.037364242317429852e-03,-6.187743496392820401e-04,2.353676233345022073e+00,1.133226648999163116e-02,1.019835720222245744e-02,-2.619863353131811068e-01
1.800000000000000000e+01,3.827789178219099253e-01,-3.210580319466333488e-01,1.000234451991265788e-01,-6.913521808573636074e-02,-1.227631484377072757e-01,3.395005052772917362e-06,-2.210467373360890195e-03,-2.031117074246835928e-03,2.320927600098144694e+00,6.519979124408169929e-03,3.514855427490149072e-03,-2.619967977904333334e-01
1.825000000000000000e+01,3.741463734459802293e-01,-3.366081873341852937e-01,1.000237568155648293e-01,-6.900833157302965759e-02,-1.260126168829366899e-01,1.408418121876227971e-06,-2.487897592474027503e-03,-2.290577002663091340e-03,2.288177550089437240e+00,-5.271930972357344574e-04,-3.715508521724997151e-03,-2.620147660899447839e-01
1.850000000000000000e+01,3.654985847138744193e-01,-3.525710431670520673e-01,1.000237953787801864e-01,-6.953302843685077450e-02,-1.291733367029579416e-01,-4.383866408926650318e-07,-2.802386172201418082e-03,-1.284186629603472967e-03,2.255424752098152741e+00,-8.280272005630839524e-03,-9.986924842025367288e-03,-2.620396094101113960e-01
1.875000000000000000e+01,3.566914395101623558e-01,-3.688581394094870292e-01,1.000237643082177719e-01,-7.163312516206016278e-02,-1.310463886620300278e-01,4.744514169141785375e-07,-3.090056588352689797e-03,8.366615459954794510e-04,2.222668108097078044e+00,-1.498713692592507779e-02,-1.402896301190019110e-02,-2.620672550353325136e-01
1.900000000000000000e+01,3.474877370478804961e-01,-3.852367962515291788e-01,1.000240447017072543e-01,-7.586097931919111304e-02,-1.305638078134337965e-01,4.184918636468852850e-06,-3.294714901185123290e-03,3.687538745520083788e-03,2.189907692706792197e+00,-1.911886529185392522e-02,-1.510580975512641408e-02,-2.620902833725090031e-01
1.925000000000000000e+01,3.376113674409986776e-01,-4.013628693673322867e-01,1.000248257796900603e-01,-8.229445098594657948e-02,-1.270324768459897002e-01,7.865878215669564093e-06,-3.371951553164435900e-03,6.738487487311348861e-03,2.157145198225128624e+00,-1.974446395318053826e-02,-1.318338235725678709e-02,-2.621008191288933253e-01
1.950000000000000000e+01,3.268072565341563207e-01,-4.168388492114837862e-01,1.000258682341795685e-01,-9.054551093400815820e-02,-1.202902839828725312e-01,8.006924103273528354e-06,-3.295018917796814495e-03,9.434622199086611927e-03,2.124383475694205270e+00,-1.674967477592751233e-02,-8.910550255987531240e-03,-2.620947623436278295e-01
1.975000000000000000e+01,3.148931948207891462e-01,-4.312836757860333270e-01,1.000266089980851730e-01,-9.987444919554139267e-02,-1.107379361297231857e-01,3.258840525304183483e-06,-3.060781964882239910e-03,1.131876818151560972e-02,2.091625300924331299e+00,-1.084976650822321725e-02,-3.417848864492427103e-03,-2.620744427181966874e-01
2.000000000000000000e+01,3.017922908264947801e-01,-4.443980512743549993e-01,1.000265324497435215e-01,-1.093757389558896176e-01,-9.924139769315433457e-02,-4.408847290705819273e-06,-2.692308210963415167e-03,1.212550452784165456e-02,2.058872071026033979e+00,-3.393251107499894743e-03,2.003857659458843383e-03,-2.620476333719116702e-01
2.025000000000000000e+01,2.875403160328293128e-01,-4.560105429580355585e-01,1.000255187796402628e-01,-1.181839809091321802e-01,-8.693252521379973841e-02,-1.110071500162928107e-05,-2.235509314601788304e-03,1.182463107533217837e-02,2.026123253543415270e+00,3.990529455990017918e-03,6.243580845974874664e-03,-2.620234842210474868e-01
2.050000000000000000e+01,2.722689473725781184e-01,-4.660949545170886554e-01,1.000239132330978248e-01,-1.256465650027179248e-01,-7.496050376759075262e-02,-1.368410400781625327e-05,-1.749738935245550740e-03,1.060668589445872174e-02,1.993376895944770855e+00,9.799742174390745075e-03,8.625992604871388081e-03,-2.620081283643319603e-01
2.075000000000000000e+01,2.561718197046093937e-01,-4.747568543129555563e-01,1.000222934522156659e-01,-1.314237691043546874e-01,-6.425680263292772587e-02,-1.163379293920570217e-05,-1.294827585530131456e-03,8.819265548511388830e-03,1.960630766280035964e+00,1.300735555499157349e-02,9.015035460123431779e-03,-2.620026806009849163e-01
2.100000000000000000e+01,2.394636998095014957e-01,-4.821946674964746049e-01,1.000211341942256749e-01,-1.355014013535977280e-01,-5.536857250150113013e-02,-6.845485290379124049e-06,-9.184117776276130721e-04,6.875340098213640096e-03,1.927883345332103371e+00,1.325440942900241344e-02,7.754998911147444746e-03,-2.620043258579353718e-01
2.125000000000000000e+01,2.223432547991769925e-01,-4.886462634818878326e-01,1.000206048765465844e-01,-1.381268894253320778e-01,-4.839281827449860851e-02,-1.957804509321592436e-06,-6.471192100704773256e-04,5.159629329064669388e-03,1.895134152437428998e+00,1.085260252293487361e-02,5.493370120894263374e-03,-2.620090474651785573e-01
2.150000000000000000e+01,2.049672123346550356e-01,-4.943341470332241472e-01,1.000205923878624142e-01,-1.396983524176137470e-01,-4.301457151032801046e-02,1.320729530707529252e-06,-4.835889820144296451e-04,3.955489694560381832e-03,1.862383447288413763e+00,6.624204786720705798e-03,2.960142668786594489e-03,-2.620139032365125242e-01
2.175000000000000000e+01,1.874394563966910177e-01,-4.994210233494939533e-01,1.000208676715734768e-01,-1.406428365998282359e-01,-3.862660626388177837e-02,2.779003783499037774e-06,-4.093037320489376573e-04,3.405066323130735272e-03,1.829631723664908005e+00,1.652675163838306137e-03,7.759199289223237418e-04,-2.620177135350802988e-01
2.200000000000000000e+01,1.698142971232342036e-01,-5.039836027180801814e-01,1.000212456630758528e-01,-1.413149293831550135e-01,-3.449331378949023474e-02,3.149642378089447608e-06,-3.916197701263160230e-04,3.504107845997137590e-03,1.796879383416159826e+00,-2.971899855065796882e-03,-6.660839751776227204e-04,-2.620204355565111110e-01
2.225000000000000000e+01,1.521099940807841000e-01,-5.080075767481356808e-01,1.000216425252295760e-01,-1.419347622881800275e-01,-2.991927525332799612e-02,3.177913009929629422e-06,-3.926455913122753544e-04,4.124062330889042248e-03,1.764126699672355025e+00,-6.350285652506918940e-03,-1.234324788785953839e-03,-2.620222291038010742e-01
2.250000000000000000e+01,1.343271365283427443e-01,-5.114021950732158261e-01,1.000220343646318205e-01,-1.425706362351079337e-01,-2.439089391852968317e-02,3.053925329855390595e-06,-3.777345066623965120e-04,5.050260444414748050e-03,1.731373929580988236e+00,-7.890740400767789001e-03,-1.026982357666193823e-03,-2.620230091086662161e-01
2.275000000000000000e+01,1.164665821621185954e-01,-5.140296823939800586e-01,1.000223851575930967e-01,-1.431605374636200356e-01,-1.767151257635893660e-02,2.464036632676338383e-06,-3.220196488200807185e-04,6.025992658618859084e-03,1.698621379321753722e+00,-7.354989353256318439e-03,-3.023748403541211445e-04,-2.620226205151944265e-01
2.300000000000000000e+01,9.854283061542563893e-02,-5.157430357250716302e-01,1.000226111733143741e-01,-1.435604733336273142e-01,-9.841560084032252576e-03,1.049476450870804488e-06,-2.142416266264531434e-04,6.795848133192628100e-03,1.665869329583881120e+00,-4.857522484049844012e-03,6.032302271020121729e-04,-2.620212622525008306e-01
2.325000000000000000e+01,8.059039543572948938e-02,-5.164252248666464373e-01,1.000226074657002001e-01,-1.436053407484904898e-01,-1.283089205574601674e-03,-1.125572251879438204e-06,-5.780173492509592945e-05,7.144926263540703378e-03,1.633117874879303599e+00,-8.349487113552097250e-04,1.355198833565031402e-03,-2.620196889992627565e-01
2.350000000000000000e+01,6.266251847636873651e-02,-5.160230963157532713e-01,1.000223150564935326e-01,-1.431684277147512174e-01,7.386642426726607730e-03,-3.418890699745392202e-06,1.306135737029873699e-04,6.931684780967572318e-03,1.600366810394677319e+00,4.013914503296850747e-03,1.689795357388925974e-03,-2.620189522716694364e-01
2.375000000000000000e+01,4.482320299238338329e-02,-5.145701758145844185e-01,1.000217801127730316e-01,-1.422074551969586542e-01,1.542293058848391574e-02,-4.876163974433757075e-06,3.243192970471097249e-04,6.111390941441663741e-03,1.567615678250038114e+00,8.825863711711548834e-03,1.467055635113515694e-03,-2.620197957386284360e-01
2.400000000000000000e+01,2.713487626105039185e-02,-5.121941426965401778e-01,1.000211592757470763e-01,-1.407880065026674843e-01,2.208712648020912106e-02,-4.773919494687698353e-06,4.912632728036047140e-04,4.746059333001617121e-03,1.534863984386384494e+00,1.271086788637074312e-02,6.994029841212013156e-04,-2.620220920075051474e-01
2.425000000000000000e+01,9.644873458568110555e-03,-5.091070994069289979e-01,1.000206567811999653e-01,-1.390795015632712295e-01,2.678427717074778960e-02,-3.106710729461624170e-06,5.993977190386894777e-04,2.997367656018407479e-03,1.502111479193369847e+00,1.491114909642124974e-02,-4.516175348860137053e-04,-2.620247450555667212e-01
2.450000000000000000e+01,-7.625810563753579636e-03,-5.055797095777685435e-01,1.000204233545183286e-01,-1.373244508026669475e-01,2.918016764710039401e-02,-6.810929544568196798e-07,6.221159705927448635e-04,1.102147525620358372e-03,1.469358332565559921e+00,1.494456408955927365e-02,-1.712270052889134590e-03,-2.620262294845397966e-01
2.475000000000000000e+01,-2.468852933899361515e-02,-5.019032743772449123e-01,1.000204764051645101e-01,-1.357875646757480403e-01,2.927554619203779837e-02,1.292331039601546642e-06,5.430151872724393002e-04,-6.654284553929582869e-04,1.436605075409902676e+00,1.269226233108035860e-02,-2.759226760529752930e-03,-2.620255195283044403e-01
2.500000000000000000e+01,-4.158591406864513285e-02,-4.983460953854191855e-01,1.000206929310702014e-01,-1.346957676148636540e-01,2.742387698975128768e-02,1.883596781208559339e-06,3.592650668507787071e-04,-2.037207075032161988e-03,1.403852311156282173e+00,8.408622909813029747e-03,-3.291821864333371699e-03,-2.620228553585176035e-01
2.525000000000000000e+01,-5.838341213823187298e-02,-4.951114224098475125e-01,1.000208832472611609e-01,-1.341819223635406511e-01,2.429088690041890028e-02,9.856622472794718486e-07,8.302199406273349884e-05,-2.791445195001886204e-03,1.371100345325398484e+00,2.660784840729405604e-03,-3.096828631060864409e-03,-2.620198376524415784e-01
2.550000000000000000e+01,-7.515467419756527434e-02,-4.923037630486251093e-01,1.000209042621206385e-01,-1.342438792427280148e-01,2.076509994824136951e-02,-6.125446914702960660e-07,-2.593800153015410944e-04,-2.784125580812654190e-03,1.338348946195795142e+00,-3.771830196051273194e-03,-2.094723263381301735e-03,-2.620187202961570816e-01
2.575000000000000000e+01,-9.196328839561263013e-02,-4.899087078140285656e-01,1.000207479503812530e-01,-1.347272752893476089e-01,1.783502700576274427e-02,-1.659092814463386214e-06,-6.303794697746119280e-04,-1.969026010186877406e-03,1.305597392200632534e+00,-1.000455735073169615e-02,-3.646685448176214227e-04,-2.620212291088441225e-01
2.600000000000000000e+01,-1.088441671124695531e-01,-4.877893266075171708e-01,1.000205547022798847e-01,-1.353366805479699897e-01,1.645016543742673296e-02,-1.145581439528154262e-06,-9.858844050443299131e-04,-4.072354587522262429e-04,1.272844814507479327e+00,-1.514523110179502065e-02,1.850791798332744164e-03,-2.620274959521033398e-01
2.625000000000000000e+01,-1.257882235332031529e-01,-4.857001078688328866e-01,1.000205393498315998e-01,-1.356759449622522429e-01,1.738191395920128668e-02,1.058407120527211830e-06,-1.281110846915712058e-03,1.733149595148913025e-03,1.240090684480653627e+00,-1.839033965079341082e-02,4.163633037880433083e-03,-2.620356657059793037e-01
2.650000000000000000e+01,-1.427338297021300828e-01,-4.833174371209448261e-01,1.000208603248000094e-01,-1.353145769381961794e-01,2.110023630016224366e-02,3.963043427785764606e-06,-1.476845696138779068e-03,4.188710853463581928e-03,1.207335200712186030e+00,-1.913646112773184291e-02,6.088748434825027277e-03,-2.620424707952887511e-01
2.675000000000000000e+01,-1.595678362367790037e-01,-4.802835330786124346e-01,1.000214957570813579e-01,-1.338718917339357661e-01,2.768370580205068224e-02,5.810024203516075240e-06,-1.545360884903040997e-03,6.627379439956075993e-03,1.174579345874367853e+00,-1.710854823962729490e-02,7.129925205947896388e-03,-2.620446580407372328e-01
2.700000000000000000e+01,-1.761375132234714314e-01,-4.762584224640438180e-01,1.000222016377795009e-01,-1.311045977265528073e-01,3.678228559402481335e-02,4.981254228896177419e-06,-1.475166874093726413e-03,8.692618459538744777e-03,1.141824521801592329e+00,-1.247577936687803424e-02,6.898036806746103700e-03,-2.620406810302104428e-01
2.725000000000000000e+01,-1.922726197697052219e-01,-4.709722204280456515e-01,1.000225998515179848e-01,-1.269782772512418612e-01,4.764950621484821680e-02,1.065033128538309839e-06,-1.273780627888757662e-03,1.006242297287460348e-02,1.109071893931280695e+00,-5.901203737103019077e-03,5.235643520353530991e-03,-2.620317432406199520e-01
2.750000000000000000e+01,-2.078142288625739742e-01,-4.642684920985130637e-01,1.000223730172091485e-01,-1.217019848881440020e-01,5.925017870423629485e-02,-4.603121695513681068e-06,-9.677667623982033835e-04,1.051289101616430938e-02,1.076321777635527388e+00,1.525785245569593294e-03,2.305417156591170295e-03,-2.620214185186118261e-01
2.775000000000000000e+01,-2.226446103211494332e-01,-4.561297987246160091e-01,1.000214611149023020e-01,-1.157106031354737524e-01,7.043194824987547564e-02,-9.463409626466997085e-06,-5.995973185443527866e-04,9.970166672986262996e-03,1.043573435103973601e+00,8.488930063768867357e-03,-1.400256453618585516e-03,-2.620138362013081923e-01
2.800000000000000000e+01,-2.367112866810451299e-01,-4.466792908910921511e-01,1.000201272386102708e-01,-1.095918798140782802e-01,8.012922447643747170e-02,-1.117525387271990000e-05,-2.214317794168301368e-04,8.534074430719247595e-03,1.010825444032953602e+00,1.373682289474245470e-02,-5.149360436199320115e-03,-2.620114239203624185e-01
2.825000000000000000e+01,-2.500390130342682871e-01,-4.361571284267335424e-01,1.000188306102470504e-01,-1.039710649646992391e-01,8.755442740328384099e-02,-9.064401974550034130e-06,1.133254910620697543e-04,6.463138455706341802e-03,9.780764428440604785e-01,1.638261706850557137e-02,-8.144858076293604726e-03,-2.620136633439472673e-01
2.850000000000000000e+01,-2.627260102609481618e-01,-4.248763398165446570e-01,1.000179783749224199e-01,-9.938019613019516418e-02,9.233077853001177282e-02,-4.512980470638874091e-06,3.591152232904680584e-04,4.121868422568313560e-03,9.453257976347160252e-01,1.611627765158944736e-02,-9.734495211443108809e-03,-2.620177096221232849e-01
2.875000000000000000e+01,-2.749246940687557483e-01,-4.131676983277714488e-01,1.000177196615853747e-01,-9.614576398692253889e-02,9.453476086000785206e-02,1.943222089590710785e-08,4.860099694384367275e-04,1.902906428775137139e-03,9.125737859843473521e-01,1.326091102993792216e-02,-9.589314896962719201e-03,-2.620204085863073185e-01
2.900000000000000000e+01,-2.868112237276573828e-01,-4.013256783557438978e-01,1.000179141195877280e-01,-9.432465003250037339e-02,9.464065234862374665e-02,2.596034041774712355e-06,4.844153510160824957e-04,1.444805795891381840e-04,8.798212321451329698e-01,8.657482048298961383e-03,-7.792003156516707184e-03,-2.620202542317867089e-01
2.925000000000000000e+01,-2.985511415082113817e-01,-3.895667720443585780e-01,1.000182750121901276e-01,-9.370472670956937755e-02,9.338596533890003437e-02,2.835001060060162628e-06,3.656053334069309362e-04,-9.352178371112957692e-04,8.470688988150363308e-01,3.419836425442601170e-03,-4.806708309628271621e-03,-2.620179736061740150e-01
2.950000000000000000e+01,-3.102692432288952640e-01,-3.780077098513742184e-01,1.000185646820531266e-01,-9.386793952533684093e-02,9.159632634203933310e-02,1.732514975458291135e-06,1.580373074111381625e-04,-1.271018688272843944e-03,8.143170613304693273e-01,-1.357228945857958616e-03,-1.344187445066642337e-03,-2.620155486031441883e-01
2.975000000000000000e+01,-3.220303947802205524e-01,-3.666657192911553231e-01,1.000187046669721302e-01,-9.429660995070493490e-02,9.001518164566015001e-02,6.327297537757798269e-07,-9.957091373032761743e-05,-9.461176720122841527e-04,7.815654951278997453e-01,-4.845918268644384790e-03,1.828010498106929973e-03,-2.620146151804810253e-01
3.000000000000000000e+01,-3.338348708620645366e-01,-3.554776082361293943e-01,1.000187513497775849e-01,-9.449386560778084976e-02,8.917663326790842282e-02,2.576660175572430257e-07,-3.666795879684496074e-04,-1.560209708663832053e-04,7.488137852755634150e-01,-6.625599612703952923e-03,4.067986027142459285e-03,-2.620154394420076138e-01
3.025000000000000000e+01,-3.456280435656993721e-01,-3.443306907973676112e-01,1.000187930577243062e-01,-9.408888324581023144e-02,8.934289981677237535e-02,4.510995578438523820e-07,-6.089101993762199025e-04,8.453654904341960158e-04,7.160616753018138603e-01,-6.699430064884624725e-03,4.987684776054045720e-03,-2.620170128023389111e-01
3.050000000000000000e+01,-3.573210083857767394e-01,-3.330971447472753644e-01,1.000188630370440895e-01,-9.290510472997295932e-02,9.050863988122791193e-02,6.079545142683361241e-07,-8.038753537290875897e-04,1.802891876181489167e-03,6.833092200446877484e-01,-5.415802545508326821e-03,4.511706524451801308e-03,-2.620179274377396617e-01
3.075000000000000000e+01,-3.688166810633351500e-01,-3.216641481911450273e-01,1.000189242429466024e-01,-9.098015231199059472e-02,9.245935968559210183e-02,2.922065216350005101e-07,-9.438177145751991490e-04,2.509970186620824519e-03,6.505567003032276530e-01,-3.342425675827551904e-03,2.878150804344040917e-03,-2.620172849448647034e-01
3.100000000000000000e+01,-3.800351272319979490e-01,-3.099543157676230565e-01,1.000189160962608459e-01,-8.853566772892144943e-02,9.486341128653266730e-02,-4.373067688191281004e-07,-1.034832353151881939e-03,2.845819455558109765e-03,6.178044221847763806e-01,-1.132282955545025780e-03,5.988254795366874722e-04,-2.620150986609180999e-01
3.125000000000000000e+01,-3.909321472163032607e-01,-2.979336632523298944e-01,1.000188126588970883e-01,-8.590246013183838736e-02,9.737557128567607412e-02,-1.149992562152871784e-06,-1.093168956899720967e-03,2.798035957212579097e-03,5.850525573363808407e-01,6.014932955691752910e-04,-1.617085575011703059e-03,-2.620121325439057069e-01
3.150000000000000000e+01,-4.015062209615512523e-01,-2.856069991067347602e-01,1.000186447558056024e-01,-8.341276851271586801e-02,9.973169145907792577e-02,-1.438077163234683927e-06,-1.139589370158130806e-03,2.468056153133119622e-03,5.523010984319649541e-01,1.400136358749303660e-03,-2.986769813921197163e-03,-2.620094735416945153e-01
3.175000000000000000e+01,-4.117908737003276309e-01,-2.730030634576072757e-01,1.000184739137779943e-01,-8.127914882770763405e-02,1.018161765725185269e-01,-1.235255833614985343e-06,-1.192973189582090428e-03,2.055441931618629328e-03,5.195498970411802642e-01,1.058383955109821074e-03,-2.832365319860146932e-03,-2.620081765167724397e-01
3.200000000000000000e+01,-4.218325159220392973e-01,-2.601538187733390406e-01,1.000183478325551295e-01,-7.948796367784674577e-02,1.036874234011927326e-01,-7.777153499519580633e-07,-1.264400113960165249e-03,1.817615367986353267e-03,4.867987059930055649e-01,-3.123456624856503819e-04,-7.936053243480144454e-04,-2.620090986971629343e-01
3.225000000000000000e+01,-4.316577047561487857e-01,-2.470737724393484991e-01,1.000182846298431072e-01,-7.774059134960527306e-02,1.055529660107824980e-01,-2.319531569344344350e-07,-1.352880451549153635e-03,2.007008118098097503e-03,4.540471963550362644e-01,-2.288221359924326459e-03,2.984444743977824385e-03,-2.620127557566463983e-01
3.250000000000000000e+01,-4.412377857613068999e-01,-2.337455687648204161e-01,1.000183048431565469e-01,-7.547165988687432048e-02,1.076972147393732981e-01,6.117623624285058801e-07,-1.443766321910381787e-03,2.796494669261690835e-03,4.212950102798749263e-01,-4.226927595808422679e-03,7.769197282401534704e-03,-2.620189617108742985e-01
3.275000000000000000e+01,-4.504616297827762628e-01,-2.201168340226761500e-01,1.000184708145023804e-01,-7.195758016460923612e-02,1.103786440629391241e-01,2.115584810160688371e-06,-1.510574787784486504e-03,4.212342309712206398e-03,3.885419384339109938e-01,-5.443191241393770426e-03,1.232954074625992706e-02,-2.620263263778381813e-01
3.300000000000000000e+01,-4.591272267250242622e-01,-2.061103232380175065e-01,1.000188611289420382e-01,-6.650255808545700587e-02,1.137253211566690986e-01,4.062860149980780148e-06,-1.520385583119161863e-03,6.096946901779978605e-03,3.557881992703014196e-01,-5.420644879544770853e-03,1.520952121546218644e-02,-2.620321657991211417e-01
3.325000000000000000e+01,-4.669594340718604131e-01,-1.916454131070112477e-01,1.000194578811583190e-01,-5.866090971578219460e-02,1.176621483251623634e-01,5.148963034184627465e-06,-1.442127580940288792e-03,8.118566053695326634e-03,3.230346090181411833e-01,-3.990531670369195337e-03,1.513059913833349895e-02,-2.620334558172504602e-01
3.350000000000000000e+01,-4.736545955699437704e-01,-1.766651165501808840e-01,1.000200337147851698e-01,-4.843444767247390842e-02,1.218966510126144182e-01,3.547375583653478041e-06,-1.256104927745083089e-03,9.832840781542000197e-03,2.902823660399888039e-01,-1.410492263881512730e-03,1.140843144538632344e-02,-2.620287256699201373e-01
3.375000000000000000e+01,-4.789446977315977572e-01,-1.611604374523912808e-01,1.000201841389565666e-01,-3.638086185038885700e-02,1.259733555832709129e-01,-1.485170160900035559e-06,-9.623629016760516667e-04,1.078501984394418176e-02,2.575323951585505311e-01,1.692460041863688746e-03,4.248760539322840590e-03,-2.620196653955180754e-01
3.400000000000000000e+01,-4.826666629280578213e-01,-1.451840288624393072e-01,1.000195626847314861e-01,-2.358682609309680628e-02,1.293848667441027389e-01,-8.244115465235818274e-06,-5.853181869659811448e-04,1.062792889947513503e-02,2.247846116591386278e-01,4.503236297057064581e-03,-5.186903293801745606e-03,-2.620108441241195685e-01
3.425000000000000000e+01,-4.848187054043340827e-01,-1.288479312531666532e-01,1.000181831141568889e-01,-1.149433803640774812e-02,1.317082239129922783e-01,-1.300010422416536743e-05,-1.727079225985367371e-04,9.223767723446232511e-03,1.920377062820563530e-01,6.267501125562637519e-03,-1.498893684595821972e-02,-2.620070847190008045e-01
3.450000000000000000e+01,-4.855869381568890253e-01,-1.123048697988864031e-01,1.000165307739312726e-01,-1.610729695524241046e-03,1.327250956142180249e-01,-1.242854555487152529e-05,2.116976640429473952e-04,6.700304792240647893e-03,1.592897960038801297e-01,6.526084405395539759e-03,-2.294007717523759496e-02,-2.620100696536157847e-01
3.475000000000000000e+01,-4.853316935127749421e-01,-9.571769305204765044e-02,1.000153259174975801e-01,4.830898621498846447e-03,1.324878146196009077e-01,-6.333731150196844257e-06,5.003975018777935286e-04,3.443307483652838317e-03,1.265396208236607700e-01,5.257202683790970776e-03,-2.707549260753382495e-02,-2.620168608549664491e-01
3.500000000000000000e+01,-4.845328272856468388e-01,-7.922535434509594965e-02,1.000150605847847096e-01,7.174892703066380710e-03,1.313094025350781680e-01,1.717224590249747341e-06,6.366940071920209991e-04,2.371761979027526849e-05,9.378742658518450515e-02,2.879936249637548087e-03,-2.620975332627881529e-02,-2.620218875067826803e-01
3.525000000000000000e+01,-4.837039856036367547e-01,-6.291508498912060099e-02,1.000156528907316239e-01,5.528466778141719572e-03,1.296793073461977308e-01,6.742781603518160040e-06,5.878867891954425327e-04,-2.924449499573971573e-03,6.103479025419927123e-02,1.187426393636539215e-04,-2.028068516155810339e-02,-2.620212152260229521e-01
3.550000000000000000e+01,-4.832944145574057382e-01,-4.680864934188875420e-02,1.000165091875716838e-01,7.757272269265103872e-04,1.281297520423025638e-01,6.024250070225500080e-06,3.537827096526079671e-04,-4.845647963379377809e-03,2.828342229345088762e-02,-2.225348643442310540e-03,-1.040305134456376464e-02,-2.620158148855551428e-01
3.575000000000000000e+01,-4.836008471312141510e-01,-3.086636559009115280e-02,1.000169688521331396e-01,-5.588949848439684134e-03,1.270927230362756122e-01,1.134292946138401075e-06,-3.168337232107426154e-05,-5.387301803379398318e-03,-4.466181935627797084e-03,-3.520185730398061371e-03,1.399002682012894828e-03,-2.620110671362679278e-01
3.600000000000000000e+01,-4.847099620842468259e-01,-1.500729040824737986e-02,1.000167884922709693e-01,-1.176830802655361684e-02,1.267896860566999073e-01,-3.412139478494694947e-06,-5.062284488447314074e-04,-4.473848514156725763e-03,-3.721519328341128113e-02,-3.482334515481599370e-03,1.271673311373900349e-02,-2.620126863015986851e-01
3.625000000000000000e+01,-4.864841955501356119e-01,8.606679586623238593e-04,1.000162859787611241e-01,-1.603094592423970344e-02,1.271843748071403712e-01,-3.762723698877450517e-06,-9.911063226627676599e-04,-2.310234151526040398e-03,-6.996563020255867904e-02,-2.232791478563966262e-03,2.138667572331509614e-02,-2.620222192843946751e-01
3.650000000000000000e+01,-4.885923885319465310e-01,1.680941935942244572e-02,1.000160501575388661e-01,-1.704527973099538921e-02,1.280076008484805627e-01,4.242217619243709779e-07,-1.406312440717590300e-03,6.844583490455532961e-04,-1.027188855059023159e-01,-2.164771179706138492e-04,2.602803168154237123e-02,-2.620356629943626503e-01
3.675000000000000000e+01,-4.905752784752862028e-01,3.286644695245275610e-02,1.000164753568385245e-01,-1.409587178608993560e-02,1.288398198680991702e-01,6.091070248741457570e-06,-1.685498858737742925e-03,3.990874749566508846e-03,-1.354746932280340987e-01,1.974819064317852313e-03,2.631559489775658900e-02,-2.620461645064515732e-01
3.700000000000000000e+01,-4.919278329441944542e-01,4.900299553100433830e-02,1.000174898159162107e-01,-7.138992863939457555e-03,1.292207217521555151e-01,9.388855387287225551e-06,-1.787082847404511095e-03,7.113976391815631309e-03,-1.682312317237313615e-01,3.801104229572275280e-03,2.291163274911723127e-02,-2.620485160038760197e-01
3.725000000000000000e+01,-4.921783548774730788e-01,6.513579970351308923e-02,1.000186434760248766e-01,3.293855922653630627e-03,1.287511625613280974e-01,8.375145103698256163e-06,-1.699127845409656706e-03,9.680473892097118602e-03,-2.009861745674969002e-01,4.917052849151902320e-03,1.710857928394615007e-02,-2.620420491083976788e-01
3.750000000000000000e+01,-4.909484217542597895e-01,8.113958931497253224e-02,1.000194215851196167e-01,1.629137534964535117e-02,1.271617940926914325e-01,3.807627286336636157e-06,-1.437422646167426906e-03,1.148404256251729476e-02,-2.337378874217504454e-01,5.213794634258831981e-03,1.034049870513084612e-02,-2.620302552557532416e-01
3.775000000000000000e+01,-4.879859914204843219e-01,9.686545370205987271e-02,1.000195221666878576e-01,3.078311025188829389e-02,1.243396335739469089e-01,-2.005673998147129659e-06,-1.038174839280527019e-03,1.247457664220570986e-02,-2.664860472598192809e-01,4.765129999277271933e-03,3.757724907564936011e-03,-2.620181360861256747e-01
3.800000000000000000e+01,-4.831729573380843523e-01,1.121601629737651595e-01,1.000189381108155251e-01,4.572020871123075314e-02,1.203202785952359050e-01,-6.893992492671109981e-06,-5.481425376998325192e-04,1.270843235492138609e-02,-2.992315107603879532e-01,3.726692713912140974e-03,-1.989349750066384936e-03,-2.620095684519553880e-01
3.825000000000000000e+01,-4.765147386399736784e-01,1.268831824189558255e-01,1.000178682868319013e-01,6.018205520184816831e-02,1.152623176215394618e-01,-9.760201131094268977e-06,-1.535238119393759901e-05,1.228803365601582528e-02,-3.319757493851093200e-01,2.250033051806977786e-03,-6.718232605121596257e-03,-2.620062123108685692e-01
3.850000000000000000e+01,-4.681213410788913620e-01,1.409201989346307859e-01,1.000165792563919021e-01,7.341173349602815590e-02,1.094191509189611222e-01,-1.051268820811295158e-05,5.172626130860470944e-04,1.131741567230772592e-02,-3.647202770990137233e-01,4.533272244459163932e-04,-1.050583537527098078e-02,-2.620078983122038352e-01
3.875000000000000000e+01,-4.581870397461268452e-01,1.541933695590189946e-01,1.000153130921924288e-01,8.481021401025735929e-02,1.031148064215602483e-01,-9.526659208525655129e-06,1.014513254631186018e-03,9.887646794328337416e-03,-3.974662972397062788e-01,-1.549043522802595867e-03,-1.343858725691873986e-02,-2.620134902433424728e-01
3.900000000000000000e+01,-4.469714233629398792e-01,1.666686735435707889e-01,1.000142587453872189e-01,9.392612733446414897e-02,9.672060439344111471e-02,-7.236969370131811855e-06,1.448678268024743577e-03,8.089581273740681366e-03,-4.302145541587824584e-01,-3.591309959936641021e-03,-1.544930303850450444e-02,-2.620213911985100896e-01
3.925000000000000000e+01,-4.347805626397470147e-01,1.783599655645638771e-01,1.000135511239236136e-01,1.004656825364117767e-01,9.062458198990348823e-02,-4.091044003861052977e-06,1.798047592841788998e-03,6.038812032149434329e-03,-4.629652777796229302e-01,-5.421973808089128669e-03,-1.630556975307487569e-02,-2.620296078961962261e-01
3.950000000000000000e+01,-4.219453960760930489e-01,1.893283963635252198e-01,1.000132600601987831e-01,1.043249820780311615e-01,8.518798829291596153e-02,-7.022888167072238236e-07,2.046046225897008280e-03,3.893863588199163867e-03,-4.957181625947110204e-01,-6.723544664831329447e-03,-1.573326659388482596e-02,-2.620358304535577165e-01
3.975000000000000000e+01,-4.087955264929282184e-01,1.996756384568090792e-01,1.000133645896215256e-01,1.056268328866565853e-01,8.069123230825341053e-02,2.114763748894642402e-06,2.181895723847304246e-03,1.853709122040526815e-03,-5.284724212292767342e-01,-7.190152391404924098e-03,-1.359975768972046181e-02,-2.620379394834310705e-01
4.000000000000000000e+01,-3.956295815465076249e-01,2.095302642800878357e-01,1.000137419532167865e-01,1.047351898433629414e-01,7.728091258312498602e-02,3.611104369516366216e-06,2.202613753334163680e-03,1.310073828030975578e-04,-5.612269829381306696e-01,-6.636982736929158792e-03,-1.006458761379439883e-02,-2.620348613718148645e-01
4.025000000000000000e+01,-3.826864689603552971e-01,2.190284966465473604e-01,1.000142035813731956e-01,1.022252703882531727e-01,7.493513201744533836e-02,3.532541179394088896e-06,2.115203903878598232e-03,-1.091871945624171315e-03,-5.939808291868647894e-01,-5.098274913442520269e-03,-5.628730415758266548e-03,-2.620272239953677085e-01
4.050000000000000000e+01,-3.701236877414377791e-01,2.282927057462688369e-01,1.000145752303945312e-01,9.880272305508398800e-02,7.346317852426693940e-02,2.338370937180579647e-06,1.937547410714053880e-03,-1.709841549725426343e-03,-6.267333351776017691e-01,-2.871095337879837981e-03,-1.058529392905709814e-03,-2.620172475925358069e-01
4.075000000000000000e+01,-3.580084589150134278e-01,2.374125805221618812e-01,1.000147745787092618e-01,9.518417370216783469e-02,7.254758629763631561e-02,9.420338355766940842e-07,1.696872184023173313e-03,-1.729079205219277238e-03,-6.594844360876247480e-01,-4.778091659919089036e-04,2.793480694657688671e-03,-2.620077930813614620e-01
4.100000000000000000e+01,-3.463248324126252387e-01,2.464341125971973856e-01,1.000148305089851447e-01,9.196693623963617115e-02,7.182386939620329092e-02,1.082703040064899734e-07,1.425548256823017937e-03,-1.275179735696290112e-03,-6.922345265165552597e-01,1.454864644072351382e-03,5.215668371157357146e-03,-2.620011012933659567e-01
4.125000000000000000e+01,-3.349959018333392158e-01,2.553600574032753312e-01,1.000148299719795519e-01,8.952256599428148887e-02,7.097975909220068103e-02,-1.890659688456468143e-08,1.154979315068275928e-03,-5.695883590508812530e-04,-7.249841732366115732e-01,2.374412556215272849e-03,5.842411118607350982e-03,-2.619979817201469330e-01
4.150000000000000000e+01,-3.239160621081716429e-01,2.641625783573372521e-01,1.000148378856651338e-01,8.794503152877590491e-02,6.984609006916747687e-02,1.411720243688592866e-07,9.091520707207136672e-04,1.226247741202985948e-04,-7.577338338546039109e-01,1.988622892992621474e-03,4.771467104848354547e-03,-2.619978541390434179e-01
4.175000000000000000e+01,-3.129852069771162926e-01,2.728050766098845115e-01,1.000148572935476293e-01,8.707035225357064034e-02,6.844954809891783121e-02,1.191894534875767002e-07,6.997037984820079224e-04,5.616372071943173975e-04,-7.904837326915419293e-01,3.965597973080890130e-04,2.550306578510937519e-03,-2.619994183119441766e-01
4.200000000000000000e+01,-3.021359311467051167e-01,2.812668944649799885e-01,1.000148564516192273e-01,8.656421859114585282e-02,6.700544427666597913e-02,-1.437417327591348807e-07,5.240764361729573998e-04,5.998751902817073137e-04,-8.232338959634764031e-01,-1.891042363137101015e-03,2.595216850669412423e-05,-2.620013703682340100e-01
4.225000000000000000e+01,-2.913466111969025274e-01,2.895628648656073945e-01,1.000148233567646761e-01,8.605331589218873090e-02,6.584555178841930423e-02,-3.395658154074504046e-07,3.675180605240805395e-04,2.269764318229800599e-04,-8.559842368005265989e-01,-4.068010514377140216e-03,-1.903187188744130329e-03,-2.620027738379582805e-01
4.250000000000000000e+01,-2.806373085807647438e-01,2.977504233088510421e-01,1.000147837579196120e-01,8.526158134762663876e-02,6.529737245349270802e-02,-2.538082843225560655e-07,2.085902502006150346e-04,-4.228824394477591819e-04,-8.887346056317499965e-01,-5.266540649315745379e-03,-2.559373823941981253e-03,-2.620031582960930527e-01
4.275000000000000000e+01,-2.700506064868823941e-01,3.059203263033666298e-01,1.000147641121848785e-01,8.410978417167658261e-02,6.555003619263780057e-02,-8.746360172733004278e-08,2.675997491524521199e-05,-1.106747083330700135e-03,-9.214848301127405161e-01,-4.844389987995241335e-03,-1.694789777184862404e-03,-2.620026213336864029e-01
4.300000000000000000e+01,-2.596241458884967490e-01,3.141721475696920285e-01,1.000147486583433803e-01,8.274736144378196101e-02,6.655125634255126821e-02,-2.262417786517528999e-07,-1.900711690325720819e-04,-1.544216827439157504e-03,-9.542348136245522028e-01,-2.632615135820345030e-03,4.324039712387958635e-04,-2.620019407469872941e-01
4.325000000000000000e+01,-2.493642259990510868e-01,3.225811077027611606e-01,1.000146916300904409e-01,8.150658877208175057e-02,6.797467327001241455e-02,-6.951116916550761984e-07,-4.403701286143690331e-04,-1.504820028908348617e-03,-9.869846719255730427e-01,9.497135214215647039e-04,3.145160333920038465e-03,-2.620023518627641046e-01
4.350000000000000000e+01,-2.392294439363610858e-01,3.311665697757700255e-01,1.000145810673209457e-01,8.079442380629649201e-02,6.927713421262750304e-02,-9.760250043189613945e-07,-7.078137567557185898e-04,-8.847168899728746023e-04,-1.019734767713335044e+00,4.975011089863809639e-03,5.574724908093678898e-03,-2.620047716235126001e-01
4.375000000000000000e+01,-2.291299837126710426e-01,3.398731214104278031e-01,1.000144797633217980e-01,8.095842211263974686e-02,6.983578320044039889e-02,-5.204076129797464987e-07,-9.647412626993006517e-04,2.532870231616095552e-04,-1.052485525861868831e+00,8.279883161281736265e-03,6.954704355645653473e-03,-2.620088790248025767e-01
4.400000000000000000e+01,-2.189428638478451705e-01,3.485719003905520252e-01,1.000144805657878638e-01,8.217236786977252794e-02,6.912477941395735181e-02,5.406354076235409392e-07,-1.179387519813855211e-03,1.692540598840360086e-03,-1.085237108171011711e+00,9.853857337820778883e-03,6.879308401999716278e-03,-2.620129083681278503e-01
4.425000000000000000e+01,-2.085380135856428063e-01,3.570834140662036416e-01,1.000146075576731491e-01,8.438049690785942580e-02,6.687276340774962746e-02,1.333228663261096320e-06,-1.324808855734696880e-03,3.127063263591839566e-03,-1.117989208098542520e+00,9.207192356595259725e-03,5.430064777808362927e-03,-2.620146037044164822e-01
4.450000000000000000e+01,-1.978064385232008726e-01,3.652156282015572297e-01,1.000147673446364766e-01,8.731794583502977547e-02,6.314419009793181825e-02,1.019034199522183714e-06,-1.386729673673925195e-03,4.257661919752401235e-03,-1.150741173132980188e+00,6.569570191680256140e-03,3.122194956975782049e-03,-2.620127379498996545e-01
4.475000000000000000e+01,-1.866813329111554898e-01,3.728053727214876156e-01,1.000148127966397210e-01,9.059691859458936236e-02,5.831237809168805103e-02,-3.652493861522234817e-07,-1.367736544098353650e-03,4.886235907165375862e-03,-1.183492386842661448e+00,2.823545020627469138e-03,6.927527456845883336e-04,-2.620079694012949489e-01
4.500000000000000000e+01,-1.751459598926389527e-01,3.797495795117498130e-01,1.000146630196454278e-01,9.382408399727364123e-02,5.293199873851345966e-02,-1.914298786297691078e-06,-1.286365098401297561e-03,4.973480139421952023e-03,-1.216242611351595171e+00,-8.220109004575764213e-04,-1.182384993980102952e-03,-2.620023389439908867e-01
