time_total,x,y,z,vx,vy,vz,roll,pitch,yaw,roll_rate,pitch_rate,yaw_rate
e-01,9.991005645652822897e-02,9.230434500494520689e-02,9.586977075779959390e-02,3.719120024531041391e-04,5.510377757735151864e-04,-1.072548193386459008e-02,2.630841872113641067e+00,-1.390114192794226870e-02,1.458431405233621622e-02,2.733189819940334275e-01
2.500000000000000000e-01,4.146087075204558103e-01,-2.668178948352176172e-01,9.994839027037749624e-02,1.043901486037729226e-01,9.092673277991397685e-02,2.521284379216228561e-04,3.214454405289652369e-03,-1.056084337552819219e-02,2.664983261558534711e+00,-2.253982025002497849e-02,1.979749098297025299e-03,2.734034530825933396e-01
5.000000000000000000e-01,4.284695994731839153e-01,-2.555686470730569315e-01,9.997406007392814487e-02,1.167908898793771771e-01,8.976030991711064777e-02,1.663627787257174857e-04,5.350809512413125593e-03,-8.426322445796856006e-03,2.699143979164246421e+00,-2.213598465835054166e-02,-1.729561240445990147e-02,2.734986186009416009e-01
7.500000000000000000e-01,4.437417391847016668e-01,-2.442171096803714414e-01,9.999091925297787231e-02,1.265356765769136416e-01,9.235602082722683959e-02,1.104037307732518816e-04,6.251721527122813295e-03,-4.263516175532977223e-03,2.733330817538219382e+00,-1.832055891063333677e-02,-3.616775543749570221e-02,2.735860254797558011e-01
1.000000000000000000e+00,4.598983225079783521e-01,-2.323343083933913089e-01,1.000027888905846568e-01,1.306957845425115172e-01,9.802301880954422675e-02,8.513992975332070545e-05,6.072986069296151118e-03,1.539973061071134297e-03,2.767533439941793016e+00,-1.464467293325576007e-02,-4.897245740053590701e-02,2.736514520945748097e-01
1.250000000000000000e+00,4.760984267460735553e-01,-2.195884845989902190e-01,1.000130569905733763e-01,1.272576084580562816e-01,1.059603133980192846e-01,8.136654172800364892e-05,5.351469845494241651e-03,8.168129621488946779e-03,2.801738763860671444e+00,-1.173371577064497885e-02,-5.266653136285077280e-02,2.736843737151137268e-01
1.500000000000000000e+00,4.913363097517934319e-01,-2.057444108237743985e-01,1.000231839518844756e-01,1.155950695552132312e-01,1.154212225108282169e-01,7.926474346203765285e-05,4.553111360009695976e-03,1.454386695854763614e-02,2.835940041155467384e+00,-8.482119947864326728e-03,-4.679655115342323812e-02,2.736737244835140692e-01
1.750000000000000000e+00,5.046236066159847100e-01,-1.906612016206482574e-01,1.000321613431994078e-01,9.654821654797428321e-02,1.256206682786556728e-01,6.161022660740688556e-05,3.862736164026682722e-03,1.957900206444980820e-02,2.870134125565263261e+00,-3.822017873133896383e-03,-3.288322808214418774e-02,2.736156366758467628e-01
2.000000000000000000e+00,5.151608865489542000e-01,-1.743049169991793823e-01,1.000376919209274018e-01,7.220252460980475240e-02,1.356296192310567916e-01,2.573606714690602202e-05,3.220464347540919793e-03,2.242101264591045071e-02,2.904316810891789391e+00,2.153991930328375600e-03,-1.371989816261054949e-02,2.735254115527029350e-01
2.250000000000000000e+00,5.224680384500108854e-01,-1.567655906073696925e-01,1.000382026932384455e-01,4.547346741112109209e-02,1.444195132112576496e-01,-1.549675424210040161e-05,2.484097996453015367e-03,2.262879401774519836e-02,2.938484772956415636e+00,8.152764463482738144e-03,7.233821704522601370e-03,2.734363177654476340e-01
2.500000000000000000e+00,5.264549875141292246e-01,-1.382577361662915560e-01,1.000342395674697210e-01,1.958418731986718772e-02,1.510664071999617275e-01,-4.341739383208087391e-05,1.581005976910885647e-03,2.024416714301983250e-02,2.972640794574841205e+00,1.243218871406974457e-02,2.639389084550016612e-02,2.733816107191041067e-01
2.750000000000000000e+00,5.274244852364387004e-01,-1.190905084314094337e-01,1.000283434889983891e-01,-2.484833849324416880e-03,1.550074277186384575e-01,-4.643808901548160915e-05,5.708143670421667341e-04,1.575869134097751187e-02,3.006794234528246790e+00,1.372744807416851828e-02,4.059206177586964504e-02,2.733742031947668516e-01
3.000000000000000000e+00,5.260087551712172571e-01,-9.960995825655630243e-02,1.000236104710895968e-01,-1.849130895510833067e-02,1.562133213283014022e-01,-2.716279037122931226e-05,-3.853463417669532320e-04,9.997440982558138817e-03,3.040955059361703405e+00,1.182707803605993931e-02,4.759537580158230280e-02,2.734007837142662378e-01
3.250000000000000000e+00,5.230523278665242248e-01,-8.013017929018693974e-02,1.000219984660997430e-01,-2.728802408645202016e-02,1.551919713271536216e-01,4.041449652224081166e-07,-1.104899263592930368e-03,3.952234454818574078e-03,3.075127200460125110e+00,7.592724674061621104e-03,4.650205251415986257e-02,2.734337589239173028e-01
3.500000000000000000e+00,5.194629626618609830e-01,-6.087537300318335287e-02,1.000234857448683012e-01,-2.897510400842449180e-02,1.528226411528537110e-01,2.045305429697762860e-05,-1.460288208717169540e-03,-1.400800989646067574e-03,3.109307125948073569e+00,2.532203667329317471e-03,3.789739477230092551e-02,2.734502363382307344e-01
3.750000000000000000e+00,5.160584882194374501e-01,-4.195004396941999503e-02,1.000270864562569084e-01,-2.481946017418080325e-02,1.500900373021135936e-01,1.686794240091813650e-04,-1.421774698385545573e-03,-5.266411938950947731e-03,-3.139065833323130050e+00,-1.070810116293762111e-03,2.348511300340251975e-02,4.250049879529340657e-01
4.000000000000000000e+00,5.134378378806614407e-01,-2.334341205265644606e-02,1.000381080543991941e-01,-1.696618072486270196e-02,1.478187288262575450e-01,1.663134839377599400e-05,-1.043006939682601664e-03,-7.158710274259278902e-03,-3.105202456896225538e+00,-4.291477658300003190e-03,6.788148984262480472e-03,2.699813576031682705e-01
4.250000000000000000e+00,5.118984543063549442e-01,-4.963903381067395933e-03,1.000375525209476341e-01,-7.996370052217859417e-03,1.464690348902592254e-01,-1.539995783210696361e-05,-4.467767550352804112e-04,-6.955612146464603372e-03,-3.071263342849085642e+00,-4.592551476994233446e-03,-9.656875322348342991e-03,2.724917049657258339e-01
4.500000000000000000e+00,5.114138132618527566e-01,1.331139459310675191e-02,1.000352458721433802e-01,-4.332399463388698739e-04,1.460934812639309577e-01,-1.910299350925585303e-05,2.248090291319025603e-04,-4.906969659804361061e-03,-3.037153650750362477e+00,-2.968383865578067774e-03,-2.272170971278698534e-02,2.731645757235842131e-01
4.750000000000000000e+00,5.116708535228922106e-01,3.158694685733295232e-02,1.000332091935074164e-01,3.712125854798902381e-03,1.463742012532659731e-01,-1.245258741871691333e-05,8.386826080547543248e-04,-1.561704822984049095e-03,-3.002995476255898133e+00,-2.430078806428179997e-04,-3.030128539614005204e-02,2.733558892868430679e-01
5.000000000000000000e+00,5.121569070372520294e-01,4.991116792302764671e-02,1.000323486676775869e-01,3.270230388787776117e-03,1.467692842809900922e-01,-1.574049365341853725e-06,1.296010238350465450e-03,2.343972827074076483e-03,-2.968821183054718649e+00,2.539163063134160757e-03,-3.142931530469733614e-02,2.734181943550909044e-01
5.250000000000000000e+00,5.122767275085481353e-01,6.826044475059371563e-02,1.000327260706073279e-01,-1.934673050775164490e-03,1.467015374352338974e-01,6.300417059760028269e-06,1.541788137078009199e-03,6.025553490879464145e-03,-2.934641399338536516e+00,4.403772478044193014e-03,-2.637538561645320911e-02,2.734374590337741440e-01
5.500000000000000000e+00,5.114760267554094852e-01,8.654670372183360938e-02,1.000336013023805926e-01,-1.112551703570423961e-02,1.457389594803181754e-01,6.249709578905500536e-06,1.566035101139109150e-03,8.788626687530221027e-03,-2.900461588302316152e+00,4.674769806194589879e-03,-1.650231933878735374e-02,2.734346976949235120e-01
5.750000000000000000e+00,5.093484508149004331e-01,1.046447361812984783e-01,1.000339594334754695e-01,-2.278416907463485033e-02,1.437264280200072908e-01,-1.147870927120465180e-06,1.399550141495098897e-03,1.014168244769660283e-02,-2.866284740292892597e+00,3.107917815641826186e-03,-3.927582840900000448e-03,2.734200762017467423e-01
6.000000000000000000e+00,5.057078052405477031e-01,1.224313779809946823e-01,1.000331966741677681e-01,-3.498099396207524775e-02,1.408434194975263509e-01,-1.049690027941914503e-05,1.105749143887842451e-03,9.864458329655701602e-03,-2.832111307095178443e+00,-8.237607115028591125e-05,8.931455262608668788e-03,2.734034753518885252e-01
6.250000000000000000e+00,5.006152802784160638e-01,1.398266441077328226e-01,1.000314952304718064e-01,-4.575122628585855111e-02,1.375805950902478370e-01,-1.540938809655533452e-05,7.691850434768399960e-04,8.023059318521775715e-03,-2.797939719875882858e+00,-4.295230929781741758e-03,1.982532711449985774e-02,2.733923791746422083e-01
6.500000000000000000e+00,4.943606124477644137e-01,1.568271654579425078e-01,1.000296683905621264e-01,-5.344500931751396816e-02,1.346453754390188051e-01,-1.261856631097156347e-05,4.815815814518777712e-04,4.934985798741358017e-03,-2.763767889019074442e+00,-8.687641807980284528e-03,2.705008293918492387e-02,2.733887057578857638e-01
6.750000000000000000e+00,4.874045275189405335e-01,1.735244534321057075e-01,1.000286241367552981e-01,-5.699168538565512615e-02,1.328198626724990394e-01,-3.735129798474789837e-06,3.270847476851321788e-04,1.097857160807118749e-03,-2.729594818201579898e+00,-1.234938896234731402e-02,2.966000874936308707e-02,2.733890657337704200e-01
7.000000000000000000e+00,4.802956771840370398e-01,1.901039353570854462e-01,1.000288134996949879e-01,-5.604441565925668417e-02,1.328009354854338131e-01,6.094888902600403693e-06,3.690643531515820901e-04,-2.898191803308456695e-03,-2.695421306290872732e+00,-1.446370590313625533e-02,2.749329069770035591e-02,2.733884389012115057e-01
7.250000000000000000e+00,4.735776209130398429e-01,2.068244305836024755e-01,1.000299854624954882e-01,-5.100048292252708226e-02,1.350511571680510226e-01,1.136957400073940140e-05,6.406071558513184647e-04,-6.454823617000040627e-03,-2.661249322965725916e+00,-1.442221209508813724e-02,2.104792569597323595e-02,2.733846972145974052e-01
7.500000000000000000e+00,4.677003525767278735e-01,2.239809115361587888e-01,1.000313470962264223e-01,-4.291633724656247068e-02,1.396822320708925314e-01,9.222784396413296771e-06,1.139896409650885747e-03,-9.033575900909383838e-03,-2.627080464433479978e+00,-1.188861265639633465e-02,1.128721071908596676e-02,2.733811793519396738e-01
7.750000000000000000e+00,4.629476039479507032e-01,2.418555573726675900e-01,1.000320028900582581e-01,-3.334791398345415825e-02,1.463843046559938355e-01,8.115426828987858275e-07,1.830487592262644309e-03,-1.020481432139631710e-02,-2.592914394536903533e+00,-6.831158957931275470e-03,-5.407734847883403657e-04,2.733859598320531048e-01
8.000000000000000000e+00,4.593873220347984843e-01,2.606633513117876388e-01,1.000314426449591121e-01,-2.414524341977497199e-02,1.544085709824718766e-01,-9.199627559091953576e-06,2.645643934983110939e-03,-9.683416704643770662e-03,-2.558748158466511491e+00,4.469864704443850191e-04,-1.302021451483902775e-02,2.734081833107186443e-01
8.250000000000000000e+00,4.568496337006317520e-01,2.804992611596274776e-01,1.000298640136201012e-01,-1.722143514456220617e-02,1.626090324002023024e-01,-1.461930323131892010e-05,3.495692137075314971e-03,-7.360114994526311197e-03,-2.524576854587645691e+00,9.265919087050718261e-03,-2.462897364183911156e-02,2.734529414248611512e-01
8.500000000000000000e+00,4.549346504288447890e-01,3.012947982232204724e-01,1.000281868760205251e-01,-1.430850207276401255e-02,1.695496250649683734e-01,-1.054279844021275979e-05,4.277656897810038460e-03,-3.333041527864881275e-03,-2.490395589369291951e+00,1.853639155104263442e-02,-3.380074227848051810e-02,2.735166711472795109e-01
8.750000000000000000e+00,4.530509757794643488e-01,3.227924315538616140e-01,1.000277016158240551e-01,-1.671304593934611754e-02,1.736805581309045776e-01,3.759591166043079148e-06,4.886770065405951838e-03,2.065815074667414972e-03,-2.456202064078055525e+00,2.679010096504351804e-02,-3.905638871976433585e-02,2.735852868828964057e-01
9.000000000000000000e+00,4.504835948736841678e-01,3.445462632518209167e-01,1.000294135499849441e-01,-2.509466499731323463e-02,1.735776981305483802e-01,2.307852701472502393e-05,5.229441660146042468e-03,8.264661272616918158e-03,-2.421998665155205899e+00,3.233338015735581772e-02,-3.923849277505851024e-02,2.736370278629584041e-01
9.250000000000000000e+00,4.464860742187247711e-01,3.659554671610169563e-01,1.000333254693554358e-01,-3.930370892067443916e-02,1.682200800268497665e-01,3.720302434538742348e-05,5.236870224427534089e-03,1.448601480941914127e-02,-2.387792783292864929e+00,3.355091938191949452e-02,-3.381583125346471902e-02,2.736505445353150101e-01
9.500000000000000000e+00,4.403867837937179841e-01,3.863324054821640208e-01,1.000380691035075570e-01,-5.832315776201282831e-02,1.572578524190807459e-01,3.544823673064709225e-05,4.877819218386618069e-03,1.983436025762237015e-02,-2.353594581934619789e+00,2.931970958720088796e-02,-2.315841340051717073e-02,2.736157500287771938e-01
9.750000000000000000e+00,4.316934928230620194e-01,4.050001529658571742e-01,1.000412749910191412e-01,-8.035286180018981483e-02,1.412058236401968203e-01,1.339368905478028556e-05,4.168396332427927627e-03,2.343500289756952210e-02,-2.319412669442164177e+00,1.942428274772344671e-02,-8.656199179628325940e-03,2.735417722019216624e-01
1.000000000000000000e+01,4.201773283703051920e-01,4.214057708969017879e-01,1.000407180389458195e-01,-1.030496280721361069e-01,1.214966478732125987e-01,-2.219887724754729543e-05,3.176181385397407273e-03,2.460174015621218596e-02,-2.285249625099571524e+00,4.827890946673652275e-03,7.414820760758923657e-03,2.734558334838395055e-01
1.025000000000000000e+01,4.059177846637254672e-01,4.352285373641878730e-01,1.000357081145847177e-01,-1.238982974103621237e-01,1.003484947882795075e-01,-5.474555512950831884e-05,2.016131425397927820e-03,2.299486553316496332e-02,-2.251100057470974747e+00,-1.232663373660820329e-02,2.229489226394173670e-02,2.733911711125117106e-01
1.050000000000000000e+01,3.892962445202906574e-01,4.464591567137603523e-01,1.000278221598036310e-01,-1.406484638503980866e-01,8.044276860037358201e-02,-6.647612032700606825e-05,8.368708292822289079e-04,1.872617499152345877e-02,-2.216952905272360219e+00,-2.903898808206426332e-02,3.332642268946103131e-02,2.733695818626963869e-01
1.075000000000000000e+01,3.709356600966045581e-01,4.554286624845867437e-01,1.000203117501704680e-01,-1.517234516517278475e-01,6.445818241942492810e-02,-4.971461420261386391e-05,-2.015313979449400946e-04,1.237735792152094838e-02,-2.182797178120209125e+00,-4.204514343898107381e-02,3.856059841952918371e-02,2.733893349278187501e-01
1.100000000000000000e+01,3.515961826496890041e-01,4.627745810539538041e-01,1.000163566131321430e-01,-1.565057638424811048e-01,5.455260554159986619e-02,-1.295863760205463673e-05,-9.542805130934120007e-04,4.919841999522462511e-03,-2.148627861413185069e+00,-4.853748063273110452e-02,3.720515217037887595e-02,2.734270268973413298e-01
1.125000000000000000e+01,3.320470157975086156e-01,4.693451218257582158e-01,1.000172070628539134e-01,-1.554306843875242206e-01,5.190685264960113315e-02,2.340383306030373959e-05,-1.317391627410194549e-03,-2.450069100922605807e-03,-2.114448242055671390e+00,-4.682255993178709164e-02,2.978818386618321476e-02,2.734530495637400027e-01
1.150000000000000000e+01,3.129403464837495208e-01,4.760562184257825513e-01,1.000214596232137931e-01,-1.498675170201919926e-01,5.643625726281110977e-02,3.967409157745267940e-05,-1.246695686622728647e-03,-8.525947122800506608e-03,-2.080267065520879477e+00,-3.674679109303655850e-02,1.800568863677833725e-02,2.734509079243749308e-01
1.175000000000000000e+01,2.947124087428839023e-01,4.837274058321944792e-01,1.000260049122735362e-01,-1.418192591938007563e-01,6.674020858785918719e-02,2.938293988274924635e-05,-7.666643002515727539e-04,-1.231025706533674102e-02,-2.046092325538760637e+00,-1.978523476342277862e-02,4.309776573072327845e-03,2.734275502045863671e-01
1.200000000000000000e+01,2.775301179149178288e-01,4.929280487680899325e-01,1.000280498374102184e-01,-1.335116666243235939e-01,8.030810345042460607e-02,3.141163579642860536e-06,3.245167224227060964e-05,-1.319278831175740851e-02,-2.011925761740680052e+00,1.222557449112256917e-03,-8.644235279211341660e-03,2.734076799406467972e-01
1.225000000000000000e+01,2.612913097222455128e-01,5.038641801287784272e-01,1.000268731484387080e-01,-1.269627966311319134e-01,9.394557980098613981e-02,-1.884910777594832752e-05,1.008610351225548056e-03,-1.105470237852831245e-02,-1.977761699511387583e+00,2.261744913404272264e-02,-1.855208552311714276e-02,2.734158902761565368e-01
1.250000000000000000e+01,2.456751563649665349e-01,5.163286143168636100e-01,1.000241614410614932e-01,-1.236218333889251564e-01,1.043395870777476114e-01,-2.042975480850424381e-05,1.990827979103404390e-03,-6.282047419677707321e-03,-1.943590992759989922e+00,4.061392514512730118e-02,-2.389477299722696235e-02,2.734587384253297504e-01
1.275000000000000000e+01,2.302294243304507937e-01,5.297248565812555654e-01,1.000227424758486361e-01,-1.241450477283601445e-01,1.086539719781084989e-01,-7.436261080509155863e-08,2.807339100894956727e-03,3.085001525264440209e-04,-1.909407458884539110e+00,5.199438564208846286e-02,-2.417494306462831047e-02,2.735188026868406452e-01
1.300000000000000000e+01,2.144747829260913452e-01,5.431613144152083184e-01,1.000245910661898274e-01,-1.283440686732478520e-01,1.050437752810457620e-01,2.837274114734877653e-05,3.314478151028058157e-03,7.613711376293938286e-03,-1.875212553892031897e+00,5.468286136911148371e-02,-1.992775133888752617e-02,2.735646434575277897e-01
1.325000000000000000e+01,1.980043689281668906e-01,5.555993333505162557e-01,1.000294231382534010e-01,-1.353044459599954674e-01,9.299483090193694235e-02,4.492454489076006121e-05,3.421090665914783713e-03,1.443076864342101619e-02,-1.841015181407496204e+00,4.811559585420570329e-02,-1.252461757642829923e-02,2.735701522086408377e-01
1.350000000000000000e+01,1.805593444234316336e-01,5.660289316859139497e-01,1.000347731193546585e-01,-1.436382872772615782e-01,7.342839576644973054e-02,3.646221724500411514e-05,3.103815858843025129e-03,1.965647480519128534e-02,-1.806826689697007327e+00,3.335510027031245855e-02,-3.824941845496241267e-03,2.735308671574256945e-01
1.375000000000000000e+01,1.620674154522253885e-01,5.736411632880176192e-01,1.000374857232654152e-01,-1.518103760664604451e-01,4.855146188857319828e-02,5.233958888356896631e-06,2.410381495820455074e-03,2.246737579542218768e-02,-1.772654205140705708e+00,1.291951295949759354e-02,4.245612675354160787e-03,2.734669526838758857e-01
1.400000000000000000e+01,1.426396947966210027e-01,5.779664537162615412e-01,1.000356647054699705e-01,-1.584664847321838599e-01,2.147743704322524483e-02,-3.240844846984450452e-05,1.450408406487989571e-03,2.245152102984267900e-02,-1.738496481717808129e+00,-9.660854533286460100e-03,1.010227267097097044e-02,2.734111100736949518e-01
1.425000000000000000e+01,1.225301130458880533e-01,5.789541080599316381e-01,1.000298511077736541e-01,-1.626962197988608694e-01,-4.316116312590762352e-03,-5.607479362998644122e-05,3.754987004064160678e-04,1.966894415972106694e-02,-1.704344791261882541e+00,-3.049175389105232212e-02,1.281023296377952446e-02,2.733892493053786121e-01
1.450000000000000000e+01,1.020690939532672009e-01,5.769787848918082052e-01,1.000227102954421854e-01,-1.641793209853491808e-01,-2.559313480147894573e-02,-5.369455004800310785e-05,-6.475718359314304104e-04,1.462956102428738560e-02,-1.670188153829241129e+00,-4.604505366079700984e-02,1.223111337198087671e-02,2.734061101951867911e-01
1.475000000000000000e+01,8.158792762350029759e-02,5.727733886859702750e-01,1.000174618053274594e-01,-1.631915990141602490e-01,-3.991326430393329905e-02,-2.833426902449538574e-05,-1.465235097066871963e-03,8.192660268918834296e-03,-1.636019539952670909e+00,-5.381790307369763160e-02,8.978471870997092180e-03,2.734443662113612561e-01
1.500000000000000000e+01,6.135114044535252414e-02,5.673018623203144317e-01,1.000160652676186784e-01,-1.604796818677761971e-01,-4.602904551829811730e-02,4.554318498235922113e-06,-1.961582868643087924e-03,1.407590673389245203e-03,-1.601839283563031069e+00,-5.278196626977757488e-02,4.202738640734894962e-03,2.734768494500703917e-01
1.525000000000000000e+01,4.151100234061334826e-02,5.615966218211947414e-01,1.000182752809891107e-01,-1.570436160912926093e-01,-4.405379673110299682e-02,2.717085842200845627e-05,-2.074759373727224753e-03,-4.673787208113236273e-03,-1.567653933962094515e+00,-4.353507810029803859e-02,-7.312467507748428601e-04,2.734835178824652213e-01
1.550000000000000000e+01,2.209209252101002052e-02,5.565914023442766201e-01,1.000220631323596038e-01,-1.538848046470411290e-01,-3.537585121155859685e-02,2.991240216679326978e-05,-1.803291421192534461e-03,-9.177952072773040704e-03,-1.533471677597397109e+00,-2.813211594848018943e-02,-4.589198523432765943e-03,2.734625488322026676e-01
1.575000000000000000e+01,3.006283348163510828e-03,5.529800304170063852e-01,1.000250160390109416e-01,-1.517801175133575431e-01,-2.234541664995611659e-02,1.585194425039090148e-05,-1.202322418980854594e-03,-1.155094682907560275e-02,-1.499297388301095824e+00,-9.633520892185960111e-03,-6.551135446450011106e-03,2.734293755922664326e-01
1.600000000000000000e+01,-1.590852668313361140e-02,5.511254280546143969e-01,1.000257577446984486e-01,-1.511319921083689732e-01,-7.803818687936303969e-03,-2.997246086604389313e-06,-3.711907815710571430e-04,-1.163472352387906819e-02,-1.465130248386055101e+00,8.534766820543182933e-03,-6.370158959892207283e-03,2.734054082278101760e-01
1.625000000000000000e+01,-3.483750074295123567e-02,5.510323885970808133e-01,1.000245284908760635e-01,-1.519224470404836325e-01,5.446324749327451434e-03,-1.432348363028168618e-05,5.651622201655106268e-04,-9.665925459291567143e-03,-1.430965008074944311e+00,2.327458037089180642e-02,-4.376121030016749680e-03,2.734043963651679454e-01
1.650000000000000000e+01,-5.393909637780987254e-02,5.523845622547863821e-01,1.000226981782771779e-01,-1.537717310166152318e-01,1.512287601604273349e-02,-1.296791232913482235e-05,1.477777482585165402e-03,-6.200083426970360440e-03,-1.396795646852075468e+00,3.241138685755125953e-02,-1.333738118667287696e-03,2.734250324823710443e-01
1.675000000000000000e+01,-7.330815159884768173e-02,5.546333700035875891e-01,1.000216920172996848e-01,-1.560767450534171485e-01,1.980479916559739137e-02,-2.635054577174713947e-06,2.254710587859630813e-03,-1.979809553471828173e-03,-1.362618933119972731e+00,3.506189604451800251e-02,1.799681852324909025e-03,2.734535072694007640e-01
1.700000000000000000e+01,-9.295918196796545963e-02,5.571169800227380176e-01,1.000221045797010100e-01,-1.581868235195660055e-01,1.907320243097709866e-02,8.262316432985616820e-06,2.817916307454382437e-03,2.222718395732803560e-03,-1.328435815895271599e+00,3.169718257651055193e-02,4.148537726117834147e-03,2.734730393838029627e-01
1.725000000000000000e+01,-1.128314436352576278e-01,5.591831728350683539e-01,1.000235183798706684e-01,-1.595687628388286761e-01,1.344189213438847647e-02,1.284721284421360562e-05,3.132885282518808011e-03,5.754210904466641394e-03,-1.294250233022631091e+00,2.390242058195388153e-02,5.150409638298603966e-03,2.734735172911305634e-01
1.750000000000000000e+01,-1.328116253153173720e-01,5.602917085543992481e-01,1.000249872143225693e-01,-1.599199193722523615e-01,4.114247829082278221e-03,9.644260486882240036e-06,3.209291087848358762e-03,8.188970779898226138e-03,-1.260066552070046697e+00,1.391129246720930815e-02,4.683038858828530472e-03,2.734555359593070500e-01
1.775000000000000000e+01,-1.527659184942110615e-01,5.600788724575954669e-01,1.000257244994249978e-01,-1.592055411404236231e-01,-7.361487620351142742e-03,2.111376719921465286e-06,3.092964176476387887e-03,9.378483138407937847e-03,-1.225887410708294656e+00,4.045686955793583763e-03,3.057198864478998922e-03,2.734277289345489192e-01
1.800000000000000000e+01,-1.725716746347882025e-01,5.583770763552142746e-01,1.000255148537846084e-01,-1.576190956934779008e-01,-1.945161975424706396e-02,-4.777384094077203132e-06,2.851585945775479431e-03,9.437673334068448841e-03,-1.191713040980868499e+00,-3.796294508719007428e-03,8.869151691292971032e-04,2.734006244514558537e-01
1.825000000000000000e+01,-1.921401187794095355e-01,5.551929976566829517e-01,1.000246711216607187e-01,-1.554855077312875256e-01,-3.093155895156842611e-02,-7.894906105133713486e-06,2.557871142071752556e-03,8.678224681918707273e-03,-1.157541978987307596e+00,-8.489622656077847052e-03,-1.116618284683109979e-03,2.733814469200062658e-01
1.850000000000000000e+01,-2.114250713754662059e-01,5.506562115369822985e-01,1.000237009746630795e-01,-1.531410699540085296e-01,-4.106100502582031575e-02,-7.128495890587401825e-06,2.274283319548115172e-03,7.509775134760626920e-03,-1.123372290684616415e+00,-9.808865831429485968e-03,-2.363009912420857735e-03,2.733723442431325590e-01
1.875000000000000000e+01,-2.304171801643241368e-01,5.449549057057441193e-01,1.000229818660001296e-01,-1.508270916916545079e-01,-4.961978912364611860e-02,-4.313927484991448322e-06,2.042513369340333632e-03,6.334369763890413882e-03,-1.089202471825262641e+00,-8.330886318144846425e-03,-2.548892797351209015e-03,2.733716469726721887e-01
1.900000000000000000e+01,-2.491274201712514458e-01,5.382754670827027965e-01,1.000226364825464592e-01,-1.486269156171799721e-01,-5.681933421817791235e-02,-1.411828777863530046e-06,1.879387757977417969e-03,5.458432677761695766e-03,-1.055031722512356884e+00,-5.161531688004240837e-03,-1.725339676442272418e-03,2.733761698461797396e-01
1.925000000000000000e+01,-2.675663777370942409e-01,5.307589731032750224e-01,1.000226002437051148e-01,-1.464602870493868780e-01,-6.313218246676817469e-02,5.906755325699730075e-07,1.779088330697353683e-03,5.040707963709033755e-03,-1.020859802187431109e+00,-1.568678045775715900e-03,-2.483989592399402351e-04,2.733828668607045653e-01
1.950000000000000000e+01,-2.857263514264923865e-01,5.224812237795413150e-01,1.000227500093180816e-01,-1.441298908321610173e-01,-6.909651283128538657e-02,1.631437769214654093e-06,1.720070025872457364e-03,5.085101160244127720e-03,-9.866868062417336604e-01,1.378018346313046767e-03,1.368964023656008000e-03,2.733894200397891661e-01
1.975000000000000000e+01,-3.035715162660318489e-01,5.134557505021821733e-01,1.000229816761934176e-01,-1.413981277966835093e-01,-7.515129906892664691e-02,1.964625906943043664e-06,1.674185260753092638e-03,5.475638115146396444e-03,-9.525130330955793312e-01,3.064583619521369165e-03,2.651456668944954069e-03,2.733942791146374840e-01
2.000000000000000000e+01,-3.210379863838512815e-01,5.036531869362128599e-01,1.000232189975811953e-01,-1.380634682830318705e-01,-8.154162321207419906e-02,1.757545652646315271e-06,1.615365283699787304e-03,6.039478196170800124e-03,-9.183389049385415337e-01,3.422205847579410515e-03,3.332255134007799761e-03,2.733966991663521195e-01
2.025000000000000000e+01,-3.380418155108628198e-01,4.930270644849932826e-01,1.000234014526825976e-01,-1.340081657278019978e-01,-8.830762457244474561e-02,1.127159716720417581e-06,1.525698338221888675e-03,6.616411353214171447e-03,-8.841648587659056702e-01,2.835794314156530205e-03,3.436123889508409333e-03,2.733968218432216712e-01
2.050000000000000000e+01,-3.544901900586986399e-01,4.815362344989347343e-01,1.000234900884763578e-01,-1.292020200475779423e-01,-9.534276591448649640e-02,3.168306666931950279e-07,1.397708963652983041e-03,7.112224451656868479e-03,-8.499912121598183212e-01,1.916571567006350452e-03,3.242123551681532021e-03,2.733955264759179160e-01
2.075000000000000000e+01,-3.702903370662694038e-01,4.691573600148947754e-01,1.000234851903825800e-01,-1.236655689649180101e-01,-1.024864209800178394e-01,-3.157404365759731268e-07,1.232839903627545083e-03,7.519468636227131381e-03,-8.158180842591108428e-01,1.226704212671872419e-03,3.138686700152674459e-03,2.733939387501400087e-01
2.100000000000000000e+01,-3.853522664679347454e-01,4.558859102179368961e-01,1.000234286668479217e-01,-1.174134637145457793e-01,-1.096087505605821688e-01,-4.966585927074686814e-07,1.037270477091838984e-03,7.900687172788719084e-03,-7.816454284166727273e-01,1.055854154532146361e-03,3.426524646184586978e-03,2.733928369685402759e-01
2.125000000000000000e+01,-3.995847703417297891e-01,4.417289591009851413e-01,1.000233814071827404e-01,-1.104080131054234470e-01,-1.166541207224264798e-01,-2.037641496033725200e-07,8.169630408547089162e-04,8.342186094560841494e-03,-7.474731498986124656e-01,1.325346970108111496e-03,4.147267470076060163e-03,2.733923172729911810e-01
2.150000000000000000e+01,-4.128878006271129997e-01,4.266961147898837847e-01,1.000233888986545722e-01,-1.025500929461187760e-01,-1.236290979303080739e-01,3.096634921593975679e-07,5.739767389097117593e-04,8.896494555908724886e-03,-7.133012282010070537e-01,1.646002656960957999e-03,5.009335248053005396e-03,2.733918927679324651e-01
2.175000000000000000e+01,-4.251469298132982133e-01,4.107951235901624587e-01,1.000234503820423004e-01,-9.372041507586197084e-02,-1.305446086359985658e-01,5.778141620347760167e-07,3.055588417572395856e-04,9.535542773107849590e-03,-6.791297692772354511e-01,1.500046078389404231e-03,5.449847214405736939e-03,2.733909489447511887e-01
2.200000000000000000e+01,-4.362359129091187282e-01,3.940361948719682261e-01,1.000234990431604770e-01,-8.386334811264363476e-02,-1.373405711513795147e-01,4.134805445816400370e-08,6.471446904987168925e-06,1.013320698343139585e-02,-6.449589458957578625e-01,4.752222907733114326e-04,4.823490012115367459e-03,2.733893412553567992e-01
2.225000000000000000e+01,-4.460310508472361546e-01,3.764449368800315554e-01,1.000234055395382432e-01,-7.308547003959178778e-02,-1.438287186416004892e-01,-1.685415973395174345e-06,-3.262269039302451525e-04,1.048636398349274586e-02,-6.107888241521025607e-01,-1.537038527401665645e-03,2.661311669110009992e-03,2.733878486828816845e-01
2.250000000000000000e+01,-4.544367051615125774e-01,3.580795942325810111e-01,1.000230260723262987e-01,-6.172939605302522198e-02,-1.496830708855888259e-01,-4.397852866202598188e-06,-6.877327799164540453e-04,1.037077492716254740e-02,-5.766191403729410414e-01,-4.253759390018492514e-03,-1.089873618151126523e-03,2.733881291913398681e-01
2.275000000000000000e+01,-4.614163549706324363e-01,3.390456400750048171e-01,1.000222964874376841e-01,-5.038543134194594514e-02,-1.544899313772656047e-01,-7.053349900431783562e-06,-1.061592378629412636e-03,9.615855022293237978e-03,-5.424491796477429739e-01,-7.057824269717883313e-03,-5.940333368655878292e-03,2.733919206812307490e-01
2.300000000000000000e+01,-4.670198351591547392e-01,3.195007407731531024e-01,1.000213211403357255e-01,-3.982012996850180231e-02,-1.578466719435706600e-01,-8.138577339981392230e-06,-1.419210466082244807e-03,8.174617237862304847e-03,-5.082779289477882267e-01,-9.183881190221749452e-03,-1.090589720958079836e-02,2.733996944180666633e-01
2.325000000000000000e+01,-4.713964402316248026e-01,2.996457875438378604e-01,1.000203714453742343e-01,-3.082760868961666526e-02,-1.594790583858905764e-01,-6.666817874377819571e-06,-1.723621017440915950e-03,6.164591522624230865e-03,-4.741045379646566804e-01,-9.969426876508489035e-03,-1.473947340711884851e-02,2.734096059836352288e-01
2.350000000000000000e+01,-4.747861827756895137e-01,2.797021988619800004e-01,1.000197543675397926e-01,-2.403791757212046451e-02,-1.593376850829107128e-01,-3.101096422721531662e-06,-1.936971998076555219e-03,3.863044014716348739e-03,-4.399288610864676707e-01,-9.082835951874512412e-03,-1.628734341292073853e-02,2.734177684013692766e-01
2.375000000000000000e+01,-4.774872087356051842e-01,2.598804640046774028e-01,1.000196223574476989e-01,-1.973669311809091512e-02,-1.576389034175398052e-01,7.183202194716644101e-07,-2.029870369457818530e-03,1.653475076342511259e-03,-4.057516899323091453e-01,-6.646904893200993557e-03,-1.486060377128762752e-02,2.734201214678786962e-01
2.400000000000000000e+01,-4.798045611784552134e-01,2.403482072120706192e-01,1.000198728640143281e-01,-1.775359911365214510e-02,-1.548330358402121854e-01,2.826600571508957348e-06,-1.989954609591161345e-03,-6.413025504411717080e-05,-3.715744264660946206e-01,-3.213781586269445507e-03,-1.049741928087546440e-02,2.734148718984943938e-01
2.425000000000000000e+01,-4.819918354447524367e-01,2.212066879587884227e-01,1.000202337791352980e-01,-1.746117285221264470e-02,-1.515064900307800666e-01,2.621172688268119831e-06,-1.827072279108220591e-03,-9.748527198939132632e-04,-3.373983494300792918e-01,3.990814998631504068e-04,-4.022873093911670701e-03,2.734037563083634992e-01
2.450000000000000000e+01,-4.842006052809370575e-01,2.024823605938831927e-01,1.000204757031642744e-01,-1.789513193613359587e-02,-1.482460366223056492e-01,1.259763218572460202e-06,-1.573245320654496253e-03,-9.335592596833563453e-04,-3.032239700835254737e-01,3.353695831495923617e-03,3.120729767267741133e-03,2.733910718394713113e-01
2.475000000000000000e+01,-4.864515883980013444e-01,1.841356850587636818e-01,1.000205727968965785e-01,-1.797186405430782619e-02,-1.455054197212551081e-01,5.411260431363849254e-07,-1.276973958845286630e-03,-9.042126232748491332e-06,-2.690509314499558435e-01,5.034243248797766121e-03,9.225928022516509050e-03,2.733811154446800784e-01
2.500000000000000000e+01,-4.886365075843028816e-01,1.660843131019393293e-01,1.000206725205256553e-01,-1.675008905278056043e-02,-1.435129923798613427e-01,1.234621465063676808e-06,-9.929735906695998961e-04,1.524411563317007662e-03,-2.348784772753431116e-01,5.211665904389223107e-03,1.275361926009361581e-02,2.733759313944434943e-01
2.525000000000000000e+01,-4.905519129276452173e-01,1.482337082576555831e-01,1.000209053124970077e-01,-1.367005681841366657e-02,-1.422455329686521663e-01,2.378424433236236614e-06,-7.697286309385873056e-04,3.245804705368550164e-03,-2.007060626718987495e-01,4.085548352005408806e-03,1.273105466813722990e-02,2.733749449712138957e-01
2.550000000000000000e+01,-4.919580036333975337e-01,1.305063945650008217e-01,1.000212133145808591e-01,-8.708069454368527751e-03,-1.414729825217178327e-01,2.218169089303482370e-06,-6.379311854456035363e-04,4.682265239208276142e-03,-1.665336000677686557e-01,2.199798529409523803e-03,9.017176960782434525e-03,2.733764296183092690e-01
2.575000000000000000e+01,-4.926488611359084446e-01,1.128618015849056078e-01,1.000213648180267589e-01,-2.403983684395206034e-03,-1.408581835145520655e-01,-2.817204765695903927e-08,-6.027661521499202892e-04,5.418363696063520883e-03,-1.323612010829526009e-01,2.642971671844061648e-04,2.377421042151730678e-03,2.733792631180240740e-01
2.600000000000000000e+01,-4.925170475178538565e-01,9.530172241477484485e-02,1.000211552277186638e-01,4.251229442619635854e-03,-1.400805464599616801e-01,-3.184217279708436378e-06,-6.421308157796285073e-04,5.196189251783143309e-03,-9.818875341258284650e-02,-1.063496028891928059e-03,-5.648729037100251593e-03,2.733833719657317030e-01
2.625000000000000000e+01,-4.915960044566961007e-01,7.786078382820256494e-02,1.000206198036619476e-01,1.004833886197793041e-02,-1.389464763999851415e-01,-4.902806526598734607e-06,-7.114578033129479286e-04,3.984363521035614274e-03,-6.401582246054578207e-02,-1.376067641573849301e-03,-1.306729224137753026e-02,2.733886481498347676e-01
2.650000000000000000e+01,-4.900680926243145552e-01,6.058581273964533387e-02,1.000200544659907292e-01,1.386414270263006988e-02,-1.374535059571760642e-01,-3.687320628576104497e-06,-7.542092147399320420e-04,1.999400270103986622e-03,-2.984204048355669492e-02,-6.377662672122378024e-04,-1.788010061593706818e-02,2.733936888466115822e-01
2.675000000000000000e+01,-4.882336849523969402e-01,4.351134033675419649e-02,1.000197961969951643e-01,1.496765832843827831e-02,-1.357883577737118153e-01,-4.116213998787154952e-07,-7.157346765935022415e-04,-3.285826220995430010e-04,4.332373365945747269e-03,8.051723062755418697e-04,-1.857321869575921311e-02,2.733960123717470991e-01
2.700000000000000000e+01,-4.864459815520486563e-01,2.663975164802061951e-02,1.000199339270151366e-01,1.325271562364725882e-02,-1.342584353457239310e-01,2.163867627880916523e-06,-5.573703928253253941e-04,-2.442123487209751746e-03,3.850654296013029942e-02,2.333162184948644243e-03,-1.452566763038017246e-02,2.733940544235197168e-01
2.725000000000000000e+01,-4.850250501781299683e-01,9.933323893000920585e-03,1.000202121445904757e-01,9.333825136395201144e-03,-1.331764659689550212e-01,1.734633585769676654e-06,-2.675638488133700818e-04,-3.778127192170650968e-03,7.267956356173584098e-02,3.251775772426659678e-03,-6.223166171609614133e-03,2.733893410518113964e-01
2.750000000000000000e+01,-4.841707075073229949e-01,-6.678133425073287492e-03,1.000202491485989581e-01,4.472264827067670527e-03,-1.327332366709926270e-01,-1.258478449014887413e-06,1.325862526717804923e-04,-3.897952923961315545e-03,1.068514190416277737e-01,3.021359650758372473e-03,4.798468318841630359e-03,2.733865442309056926e-01
2.775000000000000000e+01,-4.838953755325899331e-01,-2.327514687618950986e-02,1.000199151074840642e-01,3.408550342270033813e-04,-1.328985071769130111e-01,-3.553522597698576093e-06,5.908434626378992029e-04,-2.594450666789742226e-03,1.410233700979417193e-01,1.445713523599669644e-03,1.628294552661501207e-02,2.733905740217839053e-01
2.800000000000000000e+01,-4.839942160868211940e-01,-3.991774270513028661e-02,1.000195404640711050e-01,-1.322144703605394574e-03,-1.333830668237830919e-01,-1.629151180611879176e-06,1.032413068668630498e-03,5.104194384798954658e-05,1.751972742160424756e-01,-1.240889110951832368e-03,2.577489403844764396e-02,2.734024831883102302e-01
2.825000000000000000e+01,-4.840614348840530656e-01,-5.661477034187182428e-02,1.000197294008743354e-01,9.101366704157844937e-04,-1.336774544306852386e-01,5.026443099280298046e-06,1.374075335242901357e-03,3.675958484867211922e-03,2.093741361498287490e-01,-4.416073628729379717e-03,3.119020724802109082e-02,2.734174842788353876e-01
2.850000000000000000e+01,-4.835508613114409826e-01,-7.330276953561379316e-02,1.000208733889765694e-01,7.833696154697315089e-03,-1.331606592249224841e-01,1.271749306136107821e-05,1.541045656456595464e-03,7.705210564223515662e-03,2.435529276725872383e-01,-7.227168325208905772e-03,3.128095833350490185e-02,2.734272055571940752e-01
2.875000000000000000e+01,-4.818687053617847771e-01,-8.984158373635423023e-02,1.000227301104825300e-01,1.942357590999929315e-02,-1.312521811436932473e-01,1.566123905501369057e-05,1.482962977716740247e-03,1.146327827266983498e-02,2.777306968000043397e-01,-8.816375529400361649e-03,2.588325153452850774e-02,2.734251301195285699e-01
2.900000000000000000e+01,-4.784794223163116866e-01,-1.060297191618367052e-01,1.000244182169753582e-01,3.481174729372252946e-02,-1.275688770064704880e-01,1.003289742908871230e-05,1.185470668724584922e-03,1.430305143205031632e-02,3.119041323328399229e-01,-8.549833636513523918e-03,1.590995257414334202e-02,2.734115099919219860e-01
2.925000000000000000e+01,-4.730033502197142359e-01,-1.216374291339156477e-01,1.000248833704793089e-01,5.243195188359291159e-02,-1.220466981716264859e-01,-3.004025624204186340e-06,6.748073561990972687e-04,1.572422411493708955e-02,3.460716726350553940e-01,-6.191424155808010650e-03,3.119035771724541946e-03,2.733941183846703149e-01
2.950000000000000000e+01,-4.652872567509625523e-01,-1.364509843736317063e-01,1.000235467049553351e-01,7.029558818741624138e-02,-1.149960931487818971e-01,-1.750434799743619973e-05,1.441913889348185850e-05,1.545941844984314445e-02,3.802347665534348553e-01,-1.979916536360580050e-03,-1.026938371478084908e-02,2.733840031510408330e-01
2.975000000000000000e+01,-4.554350909415504356e-01,-1.503186517627329299e-01,1.000207091030013568e-01,8.633895295273338877e-02,-1.070756527924653090e-01,-2.611411893615959759e-05,-7.055795474749429995e-04,1.351447074124896910e-02,4.143973846718910781e-01,3.408075409952479509e-03,-2.201833989981188955e-02,2.733888459010721528e-01
3.000000000000000000e+01,-4.437945022984384758e-01,-1.631882012142735205e-01,1.000174422594548446e-01,9.877192452162529557e-02,-9.918776616664737311e-02,-2.440267540620234186e-05,-1.383682854748550161e-03,1.015838180668819993e-02,4.485639991978875862e-01,9.000734902282751804e-03,-3.029265699530422212e-02,2.734081519932439197e-01
3.025000000000000000e+01,-4.309033288043794818e-01,-1.751274512675060901e-01,1.000150296623296409e-01,1.063619615370561960e-01,-9.231845343777200785e-02,-1.339060875261332782e-05,-1.923678093866364831e-03,5.867461450977489758e-03,4.827372215179612236e-01,1.374479365706831810e-02,-3.397184338097962442e-02,2.734332689830755725e-01
3.050000000000000000e+01,-4.174075569153939402e-01,-1.863230557902693374e-01,1.000142996015552788e-01,1.086041374516288349e-01,-8.735657999620591307e-02,1.213666124933499616e-06,-2.249429238068543450e-03,1.236520439708890893e-03,5.169164701316132371e-01,1.673550730995818081e-02,-3.279876355196088139e-02,2.734521359009663422e-01
3.075000000000000000e+01,-4.039667771526261886e-01,-1.970574917836379614e-01,1.000152613513046046e-01,1.057544422379689264e-01,-8.493150456769323065e-02,1.609722801479234849e-05,-2.419247454143429697e-03,-3.124742634853713667e-03,5.509152306305892255e-01,2.953506475193159835e-03,-3.641012780498593948e-02,2.423490551312298125e-01
3.100000000000000000e+01,-3.912888212838794844e-01,-2.074728622824072721e-01,1.000235412826153691e-01,9.524880645631308984e-02,-7.984116805065689937e-02,1.397991440922245017e-04,-1.715077787776209117e-02,-6.998916955396902208e-03,5.521490822369085061e-01,-1.329941196657633551e-01,-1.166718608737056517e-01,-1.338719071405140293e-01
3.125000000000000000e+01,-3.809226121523200947e-01,-2.161639082447675275e-01,1.000551221722390804e-01,6.875614852187085513e-02,-5.653877090115747017e-02,3.199742535555665673e-04,-3.797855346645292313e-02,-1.043287990308010282e-02,5.276770945118728351e-01,-1.047812917319557585e-01,-8.993723846301239500e-02,-2.355777054452497521e-01
3.150000000000000000e+01,-3.747605611224146260e-01,-2.207817404389591787e-01,1.000835256828476599e-01,2.990449931151956467e-02,-1.696306607440787109e-02,6.698737054378664079e-05,-4.725631355012522433e-02,-1.290606427466876351e-02,4.961851842378394162e-01,-4.413113079247724460e-03,-1.802399035759238988e-02,-2.633044242643294286e-01
3.175000000000000000e+01,-3.736785492091713734e-01,-2.201326933070659186e-01,1.000645498897704821e-01,-1.061476555926412629e-02,2.511875858744346685e-02,-3.240377130466538954e-04,-4.149051059733006169e-02,-1.352356692008967881e-02,4.625945870227037293e-01,8.053713374414050996e-02,4.469383963331452492e-02,-2.710320064433042186e-01
3.200000000000000000e+01,-3.772410970696792321e-01,-2.147855049579530939e-01,1.000177253890901785e-01,-4.350013599389039587e-02,5.700267762453306575e-02,-3.560682951708322411e-04,-2.690431743548256371e-02,-1.179537476265351756e-02,4.283672302411822286e-01,1.068268477014735485e-01,7.365560359395349754e-02,-2.730822946207770996e-01
3.225000000000000000e+01,-3.841667541676695441e-01,-2.064122387079669885e-01,9.998666003068099051e-02,-6.457592206175304106e-02,7.400792622495445949e-02,-1.363878329487490577e-04,-1.219594805379484864e-02,-8.066969121337006637e-03,3.940462521626879600e-01,7.917638185856568089e-02,7.122656588394093991e-02,-2.735307105130753702e-01
3.250000000000000000e+01,-3.929777785355245689e-01,-1.967248591539877134e-01,9.998169365042845758e-02,-7.441490467737148229e-02,7.943018832637527282e-02,2.853681849397648600e-05,-3.112471792239199491e-03,-3.310448192282152997e-03,3.597943871641469671e-01,2.866439045854305215e-02,5.265244005981643827e-02,-2.735967419841195403e-01
3.275000000000000000e+01,-4.024486745723534487e-01,-1.867307400618712643e-01,9.998895796274670511e-02,-7.596389847230038128e-02,8.027552879122742957e-02,7.178603681139051772e-05,-7.119542666510490000e-04,1.396896186465549283e-03,3.255901402023231306e-01,-1.314171140864891368e-02,3.277519184387270995e-02,-2.735948062123259028e-01
3.300000000000000000e+01,-4.117473558435913450e-01,-1.765818301711482019e-01,9.999787688704041277e-02,-7.227031408795880907e-02,8.261377491609610269e-02,6.847840431756180236e-05,-2.631954860683065767e-03,5.304414770971151855e-03,2.913845919485255065e-01,-3.016111906793764175e-02,1.928904268922038839e-02,-2.735720789818755216e-01
3.325000000000000000e+01,-4.203611202735530461e-01,-1.658833188707883877e-01,1.000057264551474090e-01,-6.534947280962524752e-02,8.904626700312628929e-02,5.618380119743152670e-05,-5.534392426037372005e-03,8.118841809447673724e-03,2.571710158009277158e-01,-2.393948770873209619e-02,1.255463190030317415e-02,-2.735295266863611019e-01
3.350000000000000000e+01,-4.279583191676897824e-01,-1.541476145517921559e-01,1.000114483260021447e-01,-5.618540160677236439e-02,9.875391588967143142e-02,3.476708161207406729e-05,-7.060229755754845321e-03,9.870439852849511447e-03,2.229695600718273052e-01,-6.295008783002029040e-03,9.080520537862625877e-03,-2.734788894661671632e-01
3.375000000000000000e+01,-4.342938793909794648e-01,-1.411247982790004019e-01,1.000142687761534643e-01,-4.530306564386171048e-02,1.091437402925640732e-01,1.209319054643152762e-05,-6.540252456974163242e-03,1.069469810180589779e-02,1.887929000050682371e-01,1.016081650580753261e-02,5.312207927232430807e-03,-2.734407346807526396e-01
3.400000000000000000e+01,-4.391901058398763324e-01,-1.268999271501765891e-01,1.000148352891058329e-01,-3.332080395694334701e-02,1.177134114297191114e-01,-5.947275076715517967e-07,-4.618445056572368854e-03,1.069189443619099171e-02,1.546346504708467073e-01,1.821402901569752625e-02,-2.600321036560114475e-04,-2.734265705698964988e-01
3.425000000000000000e+01,-4.425662940536906342e-01,-1.117986549093511750e-01,1.000145008896141802e-01,-2.116523814880674065e-02,1.231783814497231094e-01,-3.562269049729065007e-06,-2.405606525849585033e-03,9.919404367469826858e-03,1.204791455303436121e-01,1.727737094465426476e-02,-6.945073997233751698e-03,-2.734305242335581254e-01
3.450000000000000000e+01,-4.444716609781835803e-01,-9.621594096155137998e-02,1.000140852808927838e-01,-9.939657914984877107e-03,1.256240190941722012e-01,-2.879455147520449814e-06,-7.577180591013183471e-04,8.469702954086139046e-03,8.631512920504047504e-02,1.103300948707730024e-02,-1.287944901415147281e-02,-2.734384059242671583e-01
3.475000000000000000e+01,-4.450883806834691203e-01,-8.047353068103173246e-02,1.000138182254325242e-01,-6.181761230548458389e-04,1.259938107482166669e-01,-1.317932856830811506e-06,2.754628870283851847e-05,6.545840629957724692e-03,5.214113583698751220e-02,4.040134721979150856e-03,-1.627777576189592262e-02,-2.734411384587701610e-01
3.500000000000000000e+01,-4.446961643252643759e-01,-6.475731321410820029e-02,1.000138001463247300e-01,6.235661551111352716e-03,1.254076004712969539e-01,1.064614706010772274e-06,1.233120404330885868e-04,4.469505797380049494e-03,1.796173350062693630e-02,-6.783634670516053679e-04,-1.626585091270731781e-02,-2.734386935129479168e-01
3.525000000000000000e+01,-4.436106040865526734e-01,-4.912954359538534294e-02,1.000140969416384445e-01,1.059962099810727275e-02,1.246809046740398746e-01,3.483935666406772964e-06,-1.011884566021424830e-04,2.611979323368073154e-03,-1.621862875908203563e-02,-2.342858208229557041e-03,-1.310670289794028942e-02,-2.734350793012526593e-01
3.550000000000000000e+01,-4.421169032670290155e-01,-3.358010808353969340e-02,1.000146218571228846e-01,1.294434003762989088e-02,1.241710640472663274e-01,4.591799392001475678e-06,-3.325802835469097649e-04,1.285488454930857087e-03,-5.039830779302707092e-02,-1.800293836864737566e-03,-7.951456017278585656e-03,-2.734330061514318455e-01
3.575000000000000000e+01,-4.404190800082268265e-01,-1.807930509175012176e-02,1.000151800552996212e-01,1.404992880061192197e-02,1.238754219609667639e-01,4.154757984214697932e-06,-4.306532275115805097e-04,6.486870843469835042e-04,-8.457749976728738683e-02,-4.370722521200925905e-04,-2.363987679527360282e-03,-2.734327775952553052e-01
3.600000000000000000e+01,-4.386167377141661494e-01,-2.610428058734732062e-03,1.000156312742909170e-01,1.476354526412777465e-02,1.236271891789069433e-01,3.085107663544764438e-06,-4.111433544136888709e-04,6.656344579978373723e-04,-1.187566345205744583e-01,6.619986247030857154e-04,2.162904250093276599e-03,-2.734336555555573200e-01
3.625000000000000000e+01,-4.367118620092638182e-01,1.282121581763281427e-02,1.000159569913396107e-01,1.577182175171085513e-02,1.232622787897414834e-01,2.216753165923261612e-06,-3.599696340375472051e-04,1.128336177354797264e-03,-1.529358747390531792e-01,1.020041358466918001e-03,4.569962796512584517e-03,-2.734348405514106517e-01
3.650000000000000000e+01,-4.346400798306261359e-01,2.819505318175096614e-02,1.000161933406463616e-01,1.744152375814315287e-02,1.227050740456152450e-01,1.596049198726481528e-06,-3.512903067448879327e-04,1.726794689573738851e-03,-1.871152752958960552e-01,6.407062484210303841e-04,4.426615519440858446e-03,-2.734355448362599805e-01
3.675000000000000000e+01,-4.323157981916253001e-01,4.348791037372508328e-02,1.000163470344401506e-01,1.975616672315227279e-02,1.219850330014773943e-01,8.413047570284225020e-07,-4.097483273916516385e-04,2.138533515404168750e-03,-2.212948183148358838e-01,-2.758715158981760824e-04,1.968564704722992973e-03,-2.734350480168020181e-01
3.700000000000000000e+01,-4.296787145207628389e-01,5.868630073951391912e-02,1.000163902588954573e-01,2.235320929921114780e-02,1.212212560139650092e-01,-1.270468005414024976e-07,-5.181769623055088991e-04,2.112012782384699913e-03,-2.554743211189360319e-01,-1.534397521442001184e-03,-1.989625081290585882e-03,-2.734330640289213687e-01
3.725000000000000000e+01,-4.267298362308031834e-01,7.379631109771270236e-02,1.000163226687777462e-01,2.464828870671160327e-02,1.206022666663530279e-01,-8.299423055765333222e-07,-6.479686639175914363e-04,1.528014891355844668e-03,-2.896535023047178692e-01,-2.972698508736801998e-03,-6.236175068157363485e-03,-2.734299321681082362e-01
3.750000000000000000e+01,-4.235477804243359401e-01,8.885094676611772491e-02,1.000162177020070126e-01,2.601891779044085418e-02,1.203643070654500657e-01,-6.898668645954541321e-07,-7.861669044385624899e-04,4.318573117032188549e-04,-3.238321524133054297e-01,-4.370839331746088560e-03,-9.415954537952374304e-03,-2.734263408114587790e-01
3.775000000000000000e+01,-4.202803226738143216e-01,1.039139718636917786e-01,1.000161869336779474e-01,2.600888199860399916e-02,1.207547431251320136e-01,2.447537872778072099e-07,-9.444497151188109389e-04,-9.665491011539253290e-04,-3.580101795458094927e-01,-5.363069983230253981e-03,-1.033272144812725710e-02,-2.734230211523226983e-01
3.800000000000000000e+01,-4.171115484661010453e-01,1.190774826601588010e-01,1.000162781082693242e-01,2.450701477754028967e-02,1.219682837611187343e-01,1.064148951556642858e-06,-1.149590747529323194e-03,-2.326476156835665179e-03,-3.921875558933137218e-01,-5.454649108223359744e-03,-8.255853050526692702e-03,-2.734209851299455041e-01
3.825000000000000000e+01,-4.142108810555166776e-01,1.344498631895794383e-01,1.000164017885970813e-01,2.185351734394083006e-02,1.240601176627824237e-01,6.701003754272468419e-07,-1.424500614418794907e-03,-3.242831740017031433e-03,-4.263644204454932751e-01,-4.169516799261920384e-03,-3.159968056904271638e-03,-2.734221353117978759e-01
3.850000000000000000e+01,-4.116755528951792642e-01,1.501326345381019389e-01,1.000163839310508201e-01,1.883774318215233889e-02,1.268605263057050736e-01,-1.038561511064572424e-06,-1.770940780839113564e-03,-3.337079712030473384e-03,-4.605414019503061285e-01,-1.271709490495713047e-03,4.185841877872824822e-03,-2.734292619465854557e-01
3.875000000000000000e+01,-4.094812024197518885e-01,1.661886858600193362e-01,1.000161424266082927e-01,1.657488756182973894e-02,1.299273396971840633e-01,-2.548564013886573131e-06,-2.161404087441479854e-03,-2.354760764323813454e-03,-4.947198136596052676e-01,3.044497931192992682e-03,1.233744181620952118e-02,-2.734445925634381713e-01
3.900000000000000000e+01,-4.074548172702038840e-01,1.826088126194344852e-01,1.000158508735389806e-01,1.628121578788916529e-02,1.325680865650853413e-01,-1.577818112956705301e-06,-2.542166496089003427e-03,-2.446332350277610475e-04,-5.289012622127814423e-01,8.094044721989702290e-03,1.949978562871165777e-02,-2.734673418597555195e-01
3.925000000000000000e+01,-4.052797021992569637e-01,1.992862961019317980e-01,1.000159105868380499e-01,1.899869734779960698e-02,1.339434748135482633e-01,2.917385316491466624e-06,-2.845102069595742324e-03,2.804930819507510647e-03,-5.630866407027886877e-01,1.281529187056696349e-02,2.397665781223034046e-02,-2.734921127606919078e-01
3.950000000000000000e+01,-4.025343972185923547e-01,2.160089328282139842e-01,1.000166792735701499e-01,2.533867279919003318e-02,1.332359208137068318e-01,9.164399727393447064e-06,-3.003716876953810809e-03,6.386725786963889234e-03,-5.972751082825813462e-01,1.603304526686465115e-02,2.461537246003585311e-02,-2.735100849436143400e-01
3.975000000000000000e+01,-3.987586405590274885e-01,2.324742145562505302e-01,1.000181245547869524e-01,3.531260817951107495e-02,1.298423640521881306e-01,1.306296630032697193e-05,-2.968739006924870152e-03,9.951026894619911106e-03,-6.314639015371049657e-01,1.678727653754293406e-02,2.111253830699613351e-02,-2.735131720509267894e-01
4.000000000000000000e+01,-3.935322091311431181e-01,2.483273375325364962e-01,1.000196876175500071e-01,4.829578361269317582e-02,1.235388059052942439e-01,1.082189889711666546e-05,-2.719646618738355733e-03,1.291952859375459541e-02,-6.656493733685510117e-01,1.462121748111836969e-02,1.409165485716426351e-02,-2.734988773590928401e-01
4.025000000000000000e+01,-3.865489568423799427e-01,2.632152933508745130e-01,1.000205219501537485e-01,6.313409743039870292e-02,1.145689494037902961e-01,1.899731185437530358e-06,-2.269957262306209703e-03,1.480814862357435376e-02,-6.998287940472971425e-01,9.736933814819020983e-03,4.935362483046698556e-03,-2.734724915526505762e-01
4.050000000000000000e+01,-3.776695807153783169e-01,2.768454922090114456e-01,1.000199871698424919e-01,7.836634466062764037e-02,1.036291220349400827e-01,-1.010624362727911501e-05,-1.665533424627243381e-03,1.532769727473488539e-02,-7.340018317549196203e-01,2.969655499225098624e-03,-4.572027826486052549e-03,-2.734447457334024389e-01
4.075000000000000000e+01,-3.669421050331678757e-01,2.890356692896911550e-01,1.000180626906460035e-01,9.250548336266595228e-02,9.174985743980783315e-02,-1.948065104407371005e-05,-9.764891933076241207e-04,1.443803164396572844e-02,-7.681707603835663534e-01,-4.411144502157780291e-03,-1.268415607252561944e-02,-2.734261518852514894e-01
4.100000000000000000e+01,-3.545871182287791967e-01,2.997437219811710518e-01,1.000153881347131540e-01,1.043102276117812283e-01,8.010238970732654062e-02,-2.190275773346110489e-05,-2.845105183660718261e-04,1.234455478685536449e-02,-8.023392577123061864e-01,-1.101317742514581338e-02,-1.808913309419858326e-02,-2.734216238060399040e-01
4.125000000000000000e+01,-3.409531188484852815e-01,3.090710284611830616e-01,1.000129065517350313e-01,1.129853676288908038e-01,6.977760412642491916e-02,-1.692062157727382718e-05,3.316266944346512343e-04,9.441719647464182422e-03,-8.365105620814461407e-01,-1.565209865446403822e-02,-2.015871783184616794e-02,-2.734286977886737358e-01
4.150000000000000000e+01,-3.264536594422879356e-01,3.172392375457800395e-01,1.000113625663906075e-01,1.182724753429665043e-01,6.159016829019803296e-02,-7.782242133241861845e-06,8.091857209267570112e-04,6.221661129202772471e-03,-8.706860951951077565e-01,-1.760781355633845441e-02,-1.899920040480674796e-02,-2.734400572366736948e-01
4.175000000000000000e+01,-3.115007739273899512e-01,3.245466165893694521e-01,1.000109782905757444e-01,1.204240346646219123e-01,5.595070500867250357e-02,9.305502166970012511e-07,1.110567386140045090e-03,3.172994669360002049e-03,-9.048652398077465797e-01,-1.674447864701734609e-02,-1.531914253819197103e-02,-2.734482395683282552e-01
4.200000000000000000e+01,-2.964480928079927802e-01,3.313141492784505426e-01,1.000114676246976059e-01,1.200830609961795886e-01,5.282833510565033280e-02,5.991234935948023530e-06,1.226875886583098270e-03,6.934566735615760443e-04,-9.390461673128288611e-01,-1.348281992364411958e-02,-1.018159585260878727e-02,-2.734494123987213920e-01
4.225000000000000000e+01,-2.815529764223134723e-01,3.378328427973386061e-01,1.000123091999898933e-01,1.181084812265518896e-01,5.180253797043107844e-02,6.829278310644433124e-06,1.175868425626802952e-03,-9.678579412467758604e-04,-9.732270319227160904e-01,-8.658454460118468823e-03,-4.727576910153366563e-03,-2.734443071031774086e-01
4.250000000000000000e+01,-2.669615426819655912e-01,3.443222783410984644e-01,1.000130615469885659e-01,1.153908709579120895e-01,5.218439827068326042e-02,5.015289586475361870e-06,9.954081293074741599e-04,-1.733168265905620864e-03,-1.007406809670851056e+00,-3.320616230547168788e-03,5.783794924271859006e-05,-2.734365164990408270e-01
4.275000000000000000e+01,-2.527152554660323514e-01,3.509071659658186682e-01,1.000135358839023131e-01,1.126960768081788772e-01,5.317657000020951236e-02,2.725494523701620821e-06,7.342662502488006516e-04,-1.686231625754632630e-03,-1.041585452847651361e+00,1.482393202891152482e-03,3.500791885848166581e-03,-2.734298077186095854e-01
4.300000000000000000e+01,-2.387738531066465331e-01,3.576145519949125440e-01,1.000137757210309702e-01,1.105613268763561835e-01,5.403792862056649993e-02,1.359397174055440612e-06,4.423282870992171459e-04,-1.036397135727515914e-03,-1.075763501023417890e+00,4.906341910888887582e-03,5.311732391542999844e-03,-2.734261756942912847e-01
4.325000000000000000e+01,-2.250472160177136860e-01,3.643901106955382829e-01,1.000139180221248647e-01,1.092547244222459024e-01,5.421996167162216468e-02,1.062410894861427540e-06,1.620609170691869507e-04,-6.310276925515951067e-05,-1.109941541622065708e+00,6.488187763818497461e-03,5.585783240268131326e-03,-2.734254489095529483e-01
4.350000000000000000e+01,-2.114282203967466911e-01,3.711280607823185806e-01,1.000140578972926603e-01,1.087967224600970007e-01,5.344602240942832733e-02,1.174177512350252012e-06,-7.734499591812644720e-05,9.517510190115797747e-04,-1.144119867045219063e+00,6.265880995441345386e-03,4.734636444019111809e-03,-2.734261772205289209e-01
