time_total,x,y,z,vx,vy,vz,roll,pitch,yaw,roll_rate,pitch_rate,yaw_rate
1e-02,9.990584584491411790e-02,3.223771803301692107e-02,-1.382980795540043606e-01,3.744532406836065231e-04,-9.445447692050805595e-04,4.587437205600784426e-03,1.576763024473042951e-01,1.408757119361184716e-02,3.243182521109799678e-03,2.994766110555626137e-01
2.500000000000000000e-01,-4.773208399044570616e-01,-4.262528530445392622e-02,9.994489705997842977e-02,3.759242377336086821e-02,-1.364831741312427793e-01,2.612598833619640486e-04,1.073249727491630600e-03,4.575113183755169510e-03,1.951185753253937560e-01,1.530739826493167366e-02,1.773193201465633620e-03,2.994514941351184567e-01
5.000000000000000000e-01,-4.722617177347842587e-01,-5.968309674447865726e-02,9.997215134128574487e-02,4.317227106117188518e-02,-1.366998649629785068e-01,1.817443325433348422e-04,2.455561884271177751e-03,4.269703093945793546e-03,2.325548333509982191e-01,6.843550202237294079e-03,-2.026163004094833943e-03,2.994324793680103181e-01
7.500000000000000000e-01,-4.665160862487056637e-01,-7.683932709602495081e-02,9.999095493089027453e-02,4.848376192591315886e-02,-1.377858594687527416e-01,1.242864179857495642e-04,2.549824961272387225e-03,3.697804284579816157e-03,2.699838175107769356e-01,-2.276494407099344253e-03,-6.296722221089309443e-03,2.994265704191278465e-01
1.000000000000000000e+00,-4.601579237055218874e-01,-9.411334712415209136e-02,1.000037794302178484e-01,5.290249753504742275e-02,-1.384230931437129275e-01,8.494691227553326945e-05,1.667537330812937559e-03,2.913407930487740913e-03,3.074094428676525936e-01,-6.508277073517311842e-03,-9.385494943752891242e-03,2.994306865417089014e-01
1.250000000000000000e+00,-4.533332444979857323e-01,-1.113997209805853705e-01,1.000126297539094822e-01,5.593272570154077944e-02,-1.379918943335891601e-01,5.931638136263395596e-05,5.321150584611739412e-04,1.958698386851229038e-03,3.448359841778035340e-01,-5.041323751081826406e-03,-1.051887080826331526e-02,2.994383973508283892e-01
1.500000000000000000e+00,-4.462326949435354018e-01,-1.285721517487531662e-01,1.000188615049209528e-01,5.736049747547187355e-02,-1.367234070686644543e-01,4.199048481467775924e-05,-2.434386552241652715e-04,8.777391372383520777e-04,3.822650356399011629e-01,-3.061491468626365529e-04,-9.779737109588520702e-03,2.994440972156865444e-01
1.750000000000000000e+00,-4.390537652620682407e-01,-1.455708686791083450e-01,1.000232702529678525e-01,5.727456261614966709e-02,-1.353538688321717365e-01,2.964329296872277185e-05,-4.117075341904537331e-04,-2.454488667095898924e-04,4.196955790204205394e-01,4.435155604643791286e-03,-7.678331453361227077e-03,2.994456482019896559e-01
2.000000000000000000e+00,-4.319665220995339561e-01,-1.624339445727290832e-01,1.000263764297510266e-01,5.600302412850647477e-02,-1.346358930647044982e-01,2.084956640290075021e-05,-6.648218461344741824e-05,-1.265077258683823362e-03,4.571259214894465295e-01,6.911252311480861610e-03,-4.722493363725913454e-03,2.994444438596796099e-01
2.250000000000000000e+00,-4.250891465113582623e-01,-1.792742209000374176e-01,1.000285510554078522e-01,5.402970279835259820e-02,-1.349850435762458278e-01,1.445639104782562971e-05,5.340825620316838477e-04,-1.989814163387077211e-03,4.945553850126918061e-01,6.475114798584629544e-03,-1.231520125398481583e-03,2.994433227389053376e-01
2.500000000000000000e+00,-4.184730171404553722e-01,-1.962273567807514829e-01,1.000300226139349408e-01,5.192749853488748402e-02,-1.363661271308033718e-01,9.433095773145329006e-06,1.148372184460670848e-03,-2.230316327759103694e-03,5.319845272936603031e-01,3.755080770736625179e-03,2.601954166327342596e-03,2.994446303192088155e-01
2.750000000000000000e+00,-4.120947901959858273e-01,-2.133992583910846452e-01,1.000309357156122791e-01,5.031042393421115977e-02,-1.383748826061607373e-01,5.515845998797426440e-06,1.647071453985016198e-03,-1.853458136832813411e-03,5.694143362015938736e-01,-9.941914803979678885e-05,6.549455920173819119e-03,2.994496012535654006e-01
3.000000000000000000e+00,-4.058541958570404118e-01,-2.308304659146141191e-01,1.000314527102697248e-01,4.978681091922712576e-02,-1.404057680988136381e-01,3.136791427193947788e-06,2.012858619017806380e-03,-8.189691168818428665e-04,6.068455483382561022e-01,-4.057256924456153525e-03,1.024015957006473541e-02,2.994583824006657458e-01
3.250000000000000000e+00,-3.995784660887948814e-01,-2.484816290578764630e-01,1.000317946369246869e-01,5.089914686816111172e-02,-1.418097459239985869e-01,2.667445044367483545e-06,2.284728202611662450e-03,8.124798959614302216e-04,6.442785489987811198e-01,-7.486774204098569502e-03,1.318068948587370823e-02,2.994699010914157467e-01
3.500000000000000000e+00,-3.930351894802965318e-01,-2.662353513094860014e-01,1.000321891273185104e-01,5.405134810833383402e-02,-1.419974132315759696e-01,3.807486399894440822e-06,2.498316459578801656e-03,2.895362855846264800e-03,6.817134453544129169e-01,-1.010925005065538632e-02,1.487399394434648150e-02,2.994817450858172636e-01
3.750000000000000000e+00,-3.859543073678884384e-01,-2.839074375314690757e-01,1.000327778478411755e-01,5.943834148049612076e-02,-1.404915559170621109e-01,5.544628005499969749e-06,2.654749623725517500e-03,5.226675458596960824e-03,7.191499056226087205e-01,-1.179979777064522374e-02,1.496086844614797663e-02,2.994906244585084920e-01
4.000000000000000000e+00,-3.780576997996850097e-01,-3.012629152144274958e-01,1.000335503227493400e-01,6.699736659728537658e-02,-1.369567754569106233e-01,6.553375817608997693e-06,2.723299627375135555e-03,7.572611066009413139e-03,7.565869118371071345e-01,-1.241410980091808315e-02,1.331773911589335252e-02,2.994935014284559327e-01
4.250000000000000000e+00,-3.690926279390120412e-01,-3.180356956119821943e-01,1.000343389151464590e-01,7.639542884067244966e-02,-1.312308889574503035e-01,5.721970688429391486e-06,2.664197494931125256e-03,9.689629739334792990e-03,7.940228414524346245e-01,-1.173936739652124174e-02,1.008647616877084326e-02,2.994888630624207848e-01
4.500000000000000000e+00,-3.588640852032981554e-01,-3.339527469037147367e-01,1.000348752315024653e-01,8.705799393255564400e-02,-1.233648161511762820e-01,2.586955354844134830e-06,2.453200457805120201e-03,1.134260465471071191e-02,8.314560224398523935e-01,-9.573638703403200903e-03,5.649529816029268819e-03,2.994774844533616420e-01
4.750000000000000000e+00,-3.472610449566371771e-01,-3.487632097669675635e-01,1.000348894241219061e-01,9.823558704052899604e-02,-1.136586282622091826e-01,-2.418351759955534507e-06,2.095505878497213453e-03,1.232610596550167380e-02,8.688854811482988882e-01,-5.874034187280293903e-03,5.751174131173150857e-04,2.994623291038241431e-01
5.000000000000000000e+00,-3.342723918608033751e-01,-3.622705569392018488e-01,1.000342251714102515e-01,1.090994961330945950e-01,-1.026710981666293238e-01,-7.967474126654122788e-06,1.626073338011009171e-03,1.249240730878524615e-02,9.063114338561802930e-01,-8.915640667814895897e-04,-4.454354861994583130e-03,2.994476018220913471e-01
5.250000000000000000e+00,-3.199896644212517072e-01,-3.743630637316486265e-01,1.000329323338765425e-01,1.188541951684069925e-01,-9.118203518080036929e-02,-1.219974352661154252e-05,1.100375803811163688e-03,1.178325954674894725e-02,9.437352363842158587e-01,4.777297502644648787e-03,-8.732711651297598091e-03,2.994372401344361223e-01
5.500000000000000000e+00,-3.045955028848473245e-01,-3.850359917988713798e-01,1.000312892008543980e-01,1.268506767047415662e-01,-8.009930343617024939e-02,-1.346119504320242974e-05,5.817943263150234575e-04,1.025586533230617159e-02,9.811588195463446516e-01,1.025829107180868151e-02,-1.164252861922170611e-02,2.994333654750618301e-01
5.750000000000000000e+00,-2.883388886062882017e-01,-3.943990311522073688e-01,1.000297195226790142e-01,1.326817277157096020e-01,-7.032071252483065860e-02,-1.117107246171007918e-05,1.303458052832109091e-04,8.090874455639501459e-03,1.018583894442000037e+00,1.457805844000126423e-02,-1.277724199432925256e-02,2.994353982551151150e-01
6.000000000000000000e+00,-2.715007098359961679e-01,-4.026649825119649750e-01,1.000286215459014749e-01,1.362396429175121437e-01,-6.257826890089723815e-02,-6.280143299558369904e-06,-2.053643955014554867e-04,5.573632448994573531e-03,1.056011305066767436e+00,1.690401163117657632e-02,-1.204043420293212166e-02,2.994404247271010844e-01
6.250000000000000000e+00,-2.543553823057530527e-01,-4.101198410684587792e-01,1.000281920575432637e-01,1.377216579040136946e-01,-5.730215779583822805e-02,-8.832038225175417512e-07,-3.931302968463703455e-04,3.048265720331368861e-03,1.093440823828360164e+00,1.677029793860629336e-02,-9.683098396070257546e-03,2.994447994186640316e-01
6.500000000000000000e+00,-2.371354551013728218e-01,-4.170791395717118322e-01,1.000283508624671969e-01,1.375790913850236385e-01,-5.454023797011344626e-02,2.898998531731443837e-06,-4.198340235584054492e-04,8.539006316027838474e-04,1.130871466122251867e+00,1.421561410312385809e-02,-6.254311491960345103e-03,2.994461420003537988e-01
6.750000000000000000e+00,-2.200057406882074962e-01,-4.238391392634526245e-01,1.000288155675514851e-01,1.364201887966020044e-01,-5.395569533136872209e-02,4.059913950874970501e-06,-2.921516559017116755e-04,-7.407881510463606772e-04,1.168302131198986071e+00,9.785999206996524175e-03,-2.471066002101786688e-03,2.994444998101777888e-01
7.000000000000000000e+00,-2.030514103945059434e-01,-4.306329998783719470e-01,1.000292760203347203e-01,1.348891320756671897e-01,-5.490483099811443307e-02,3.089032598633765160e-06,-3.499432809958172790e-05,-1.587177242628059299e-03,1.205732200169459700e+00,4.399061981222262413e-03,9.561848002498715823e-04,2.994419418160503832e-01
7.250000000000000000e+00,-1.862812017060656022e-01,-4.376008821131441295e-01,1.000295519076974671e-01,1.335499341328357514e-01,-5.657531204587110812e-02,1.384353838774520658e-06,3.126748834002847084e-04,-1.677415756008711605e-03,1.243161763127411223e+00,-8.907858019882664360e-04,3.488999549781806458e-03,2.994409344476161028e-01
7.500000000000000000e+00,-1.696433539401899226e-01,-4.447793582804738244e-01,1.000296396496156842e-01,1.328015956039163281e-01,-5.814926766525962271e-02,2.128281738858548203e-07,7.044318231242492536e-04,-1.131627010930188896e-03,1.280591396923130842e+00,-5.157915289677118993e-03,4.868011403669454847e-03,2.994426763876827380e-01
7.750000000000000000e+00,-1.530491769754764309e-01,-4.521105704350041332e-01,1.000296434783463917e-01,1.328408134405882624e-01,-5.894999392454383647e-02,1.393783061954209340e-09,1.094287996334344665e-03,-1.562802416481056745e-04,1.318021701824953373e+00,-7.826521917883985310e-03,5.133300244387357068e-03,2.994464903462225602e-01
8.000000000000000000e+00,-1.363980261832235252e-01,-4.594666975296494149e-01,1.000296647426939939e-01,1.336742112112389302e-01,-5.853714815474329175e-02,3.675381799073472314e-07,1.444118891100288488e-03,1.013990070390567494e-03,1.355452923285430655e+00,-8.785392279177579866e-03,4.559073806499437838e-03,2.994505084994584787e-01
8.250000000000000000e+00,-1.195981330198523235e-01,-4.666818520153216965e-01,1.000297338487695781e-01,1.351682396151930032e-01,-5.673129268775393974e-02,6.749924404942478488e-07,1.728781633078516674e-03,2.174783622214075413e-03,1.392884867504944779e+00,-8.364353131578565470e-03,3.530877227940140261e-03,2.994529801640345434e-01
8.500000000000000000e+00,-1.025798706875858390e-01,-4.735824840753364295e-01,1.000298161030794969e-01,1.371159124367871962e-01,-5.356994188862521100e-02,5.710348807807189686e-07,1.937702697789683804e-03,3.194567983459651109e-03,1.430317086776915048e+00,-7.180310166636794285e-03,2.410553813924253257e-03,2.994532478435814049e-01
8.750000000000000000e+00,-8.530081933569988450e-02,-4.800090004623596696e-01,1.000298611730649490e-01,1.392980408469000064e-01,-4.921761983099284810e-02,1.315021581089500092e-07,2.072804399390173850e-03,4.030419206750061011e-03,1.467749150020761117e+00,-5.902568418748995079e-03,1.435599104122942549e-03,2.994518619341179910e-01
9.000000000000000000e+00,-6.774446531454560161e-02,-4.858250582675157081e-01,1.000298454636060763e-01,1.415226991708783133e-01,-4.386532078932156575e-02,-3.491658048475961398e-07,2.143777640305375050e-03,4.714130390140243432e-03,1.505180817713432706e+00,-5.016915764595301398e-03,6.840665948127034246e-04,2.994499725680741520e-01
9.250000000000000000e+00,-4.991572119938043200e-02,-4.909156060013696865e-01,1.000297805233020532e-01,1.436376696106863859e-01,-3.765553038538033831e-02,-6.394139527156188249e-07,2.162478744668881476e-03,5.315502785512565311e-03,1.542612055069837451e+00,-4.671372452198466196e-03,1.088466285527714167e-04,2.994485278502441172e-01
9.500000000000000000e+00,-3.183634852071008658e-02,-4.951786099817093723e-01,1.000296942650869825e-01,1.455220766005393407e-01,-3.065698531094927098e-02,-7.105059118349096470e-07,2.138366500307479091e-03,5.897107459648886184e-03,1.580042928879193287e+00,-4.658325145676737652e-03,-3.830751561382422289e-04,2.994477616539380493e-01
9.750000000000000000e+00,-1.354205339767329715e-02,-4.985171533676471811e-01,1.000296053924185635e-01,1.470707452395754178e-01,-2.289281439193710521e-02,-7.208004870235526135e-07,2.076376348300865583e-03,6.477385807513419413e-03,1.617473478016953292e+00,-4.537140169718538972e-03,-8.477016478769540918e-04,2.994471712578093969e-01
1.000000000000000000e+01,4.918771921427202501e-03,-5.008376311887211552e-01,1.000295057859198894e-01,1.481852710864061951e-01,-1.440427592063985539e-02,-9.176243059245217247e-07,1.977655945041952718e-03,7.015578909289983331e-03,1.654903636049696258e+00,-3.848254930436769035e-03,-1.257178191132565358e-03,2.994459154360993303e-01
1.025000000000000000e+01,2.348609783604216697e-02,-5.020565141678176024e-01,1.000293582819054838e-01,1.487796586114367992e-01,-5.318118029411654686e-03,-1.493016644518165166e-06,1.842510754524186081e-03,7.423844405335454193e-03,1.692333247904951321e+00,-2.335574146419596916e-03,-1.509872527178647518e-03,2.994433930606538175e-01
1.050000000000000000e+01,4.209090828785676253e-02,-5.021139097124015516e-01,1.000291141843685921e-01,1.487987843146121869e-01,4.116025476256542602e-03,-2.422693313236137008e-06,1.674103641106507645e-03,7.602010362684877981e-03,1.729762172257924391e+00,-9.159648483435057283e-05,-1.490922932463219913e-03,2.994396827207652101e-01
1.075000000000000000e+01,6.066046035349823007e-02,-5.009885693512723392e-01,1.000287467569945382e-01,1.482393801845397763e-01,1.354031078669077140e-02,-3.391739136117349372e-06,1.481192137981257595e-03,7.482182584099154009e-03,1.767190406030593852e+00,2.431919033505528915e-03,-1.152871577803699825e-03,2.994355761486858225e-01
1.100000000000000000e+01,7.912557576144182980e-02,-4.987074839845272445e-01,1.000282814224759259e-01,1.471597005326353569e-01,2.255720420143194141e-02,-3.926737612898714334e-06,1.278557470150937974e-03,7.066511515877439871e-03,1.804618141989612345e+00,4.557182557582481822e-03,-5.751452314732833542e-04,2.994321704307943421e-01
1.125000000000000000e+01,9.742780253643523736e-02,-4.953444261568987761e-01,1.000277968355780533e-01,1.456673875511198812e-01,3.083174359781996540e-02,-3.698539688251675733e-06,1.084651183275307535e-03,6.443072396427925418e-03,1.842045710701934347e+00,5.615178898995729605e-03,3.204468881311674060e-05,2.994302904032831170e-01
1.150000000000000000e+01,1.155235221047295757e-01,-4.910054135209568349e-01,1.000273893969044620e-01,1.438842393846221923e-01,3.819199072569286896e-02,-2.758469373529060702e-06,9.170545980537094660e-04,5.771681311226706593e-03,1.879473445399227671e+00,5.200458136846464532e-03,3.911396109876324871e-04,2.994301372823506835e-01
1.175000000000000000e+01,1.333826506010705459e-01,-4.858038530906136354e-01,1.000271258872005437e-01,1.418979292957559812e-01,4.468914046052987338e-02,-1.481935249415475820e-06,7.872379109344997995e-04,5.241596301123091148e-03,1.916901565632886717e+00,3.352135706473130007e-03,2.695909156369773706e-04,2.994313515433971173e-01
1.200000000000000000e+01,1.509814449690191351e-01,-4.798323522262185059e-01,1.000270209852632264e-01,1.397192570307161374e-01,5.059008299061432817e-02,-2.719476066472025170e-07,6.965023252028793759e-04,5.013180914606210105e-03,1.954330143827897048e+00,5.891955407028102564e-04,-4.023568618168141828e-04,2.994333156674144902e-01
1.225000000000000000e+01,1.682914319255947866e-01,-4.731402249748998257e-01,1.000270507774596723e-01,1.372650197524831472e-01,5.629747307586676491e-02,6.646637211944334176e-07,6.347400242362448040e-04,5.162116353281872086e-03,1.991759131703215946e+00,-2.221268576791214384e-03,-1.460027996165779015e-03,2.994353760800969044e-01
1.250000000000000000e+01,1.852686195542838643e-01,-4.657246818871467742e-01,1.000271754283317410e-01,1.343795595519201025e-01,6.221779977124827776e-02,1.239693824508238198e-06,5.828185483362304008e-04,5.645041062128212245e-03,2.029188380711156814e+00,-4.123427135425384270e-03,-2.516368941148154799e-03,2.994368837797821148e-01
1.275000000000000000e+01,2.018479576879107229e-01,-4.575397729308827710e-01,1.000273386619384836e-01,1.308945564731146260e-01,6.861728542289438626e-02,1.250860110230737804e-06,5.182445231571746521e-04,6.299240220118997036e-03,2.066617642905308028e+00,-4.373572501322186938e-03,-3.064190358254675981e-03,2.994372608562564375e-01
1.300000000000000000e+01,2.179469748815361096e-01,-4.485216200244789841e-01,1.000274489678227574e-01,1.267116209430147189e-01,7.551155445246221509e-02,3.734475340889971168e-07,4.226518230069989932e-04,6.878416453763607462e-03,2.104046617417572040e+00,-2.682355912256963962e-03,-2.640087115195797075e-03,2.994362875389745549e-01
1.325000000000000000e+01,2.334798204662468790e-01,-4.386231786942511035e-01,1.000273849841659124e-01,1.218814320280565411e-01,8.262576404137539354e-02,-1.472200253913920418e-06,2.889526423012905311e-04,7.115424776053698268e-03,2.141475096701582093e+00,6.793536356558263142e-04,-9.968197694141278133e-04,2.994344390668280953e-01
1.350000000000000000e+01,2.483794045395785466e-01,-4.278484587709000531e-01,1.000270551416234110e-01,1.166507905482314922e-01,8.944070914245756676e-02,-3.709713502427347063e-06,1.259302517756863003e-04,6.794851339420476290e-03,2.178903146286502057e+00,4.941182421275267835e-03,1.774330574800155134e-03,2.994328217315429530e-01
1.375000000000000000e+01,2.626221213718109015e-01,-4.162758565132385069e-01,1.000264819698391400e-01,1.114561685835658289e-01,9.531463507558518566e-02,-5.179664542648447826e-06,-4.131926145019958619e-05,5.815765799819137653e-03,2.216331146290878795e+00,9.036819454064331028e-03,5.214410515184665813e-03,2.994324897210936531e-01
1.400000000000000000e+01,2.762478519873184934e-01,-4.040630352352458932e-01,1.000258344996179383e-01,1.068569511333656019e-01,9.964846204129930440e-02,-4.846560859863601655e-06,-1.755555558577809284e-04,4.228201151441687324e-03,2.253759578167525479e+00,1.188525887387895108e-02,8.574633279394472743e-03,2.994335513761468559e-01
1.425000000000000000e+01,2.893682152380178119e-01,-3.914307196894353247e-01,1.000253548657823871e-01,1.034189914604330129e-01,1.020503149210162108e-01,-2.657343566410094617e-06,-2.353457215928123623e-04,2.234374772245626296e-03,2.291188653433780420e+00,1.266782398644017947e-02,1.098273187902537411e-02,2.994348774375980571e-01
1.450000000000000000e+01,3.021583823596176721e-01,-3.786283476688225291e-01,1.000252094295358690e-01,1.015740812183112546e-01,1.024563117919281424e-01,2.009036045449621019e-07,-1.849296142482727062e-04,1.547099920601827268e-04,2.328618072610208589e+00,1.102901930167369919e-02,1.165517590402270938e-02,2.994349015921763391e-01
1.475000000000000000e+01,3.148315957448246105e-01,-3.658892007215299724e-01,1.000253694882293209e-01,1.014893372520794257e-01,1.011769613565972337e-01,1.997214692675884913e-06,-3.627448862107702563e-06,-1.633323704439343339e-03,2.366047173169715467e+00,7.157950186807286383e-03,1.010272579567610129e-02,2.994331107819072635e-01
1.500000000000000000e+01,3.275998680435718291e-01,-3.533852697759352623e-01,1.000256219434986493e-01,1.029804302965400820e-01,9.885770564518146786e-02,1.693785161265214537e-06,3.074490451518429885e-04,-2.770373992179628406e-03,2.403475451225315584e+00,1.741260416721580537e-03,6.280558835735298995e-03,2.994310870938803881e-01
1.525000000000000000e+01,3.406281256523333578e-01,-3.411922082141527479e-01,1.000257204042297593e-01,1.054943804595997875e-01,9.636262734136354091e-02,-1.914965658737826392e-07,7.229636814542060759e-04,-2.989167893232873990e-03,2.440903117674292577e+00,-4.193037706644140925e-03,6.465359877500561746e-04,2.994320625127376845e-01
1.550000000000000000e+01,3.539913947482815626e-01,-3.292724356143450493e-01,1.000255771886894851e-01,1.081731869561546877e-01,9.460750579731896925e-02,-1.824417611096723000e-06,1.195831928696079304e-03,-2.172643102825148713e-03,2.478331240375183153e+00,-9.502694991916036185e-03,-5.891786797769605136e-03,2.994389314143149350e-01
1.575000000000000000e+01,3.676448957212432034e-01,-3.174804071640101033e-01,1.000253520906311672e-01,1.099915870457569556e-01,9.437921757022510461e-02,-1.346170447213595633e-06,1.664230023930959260e-03,-3.842740617776812108e-04,2.515761252530116288e+00,-1.318049454970637510e-02,-1.213994029951290070e-02,2.994518790493790883e-01
1.600000000000000000e+01,3.814148897149683970e-01,-3.055891703833099604e-01,1.000253559356114458e-01,1.099442151026886888e-01,9.618126882731051208e-02,1.650722055039483796e-06,2.061870675142709469e-03,2.136748783211950969e-03,2.553194046090324854e+00,-1.457234856248742355e-02,-1.686294468877536437e-02,2.994673174402389115e-01
1.625000000000000000e+01,3.950140637887584738e-01,-2.933326446769877749e-01,1.000258193559150494e-01,1.072434772167051437e-01,1.001394223317530890e-01,5.570136571488238297e-06,2.329615226049490916e-03,5.016271520510740510e-03,2.590629213346268056e+00,-1.351455494384336785e-02,-1.906433559188224283e-02,2.994791608813885953e-01
1.650000000000000000e+01,4.080799271551988627e-01,-2.804546251928306533e-01,1.000266855712914627e-01,1.014836337463341231e-01,1.059877114882509935e-01,7.702813645151521932e-06,2.426152796703626678e-03,7.814952084305808871e-03,2.628064979576974380e+00,-1.035612830301449114e-02,-1.823046210499239608e-02,2.994819449890434027e-01
1.675000000000000000e+01,4.202293274618733587e-01,-2.667541579503131532e-01,1.000275840540482825e-01,9.273148694482208354e-02,1.131363264983892003e-01,6.028187370645991237e-06,2.335560472108333743e-03,1.011308897065310401e-02,2.665498957276513536e+00,-5.859528343932109487e-03,-1.447377030669782030e-02,2.994739326558489845e-01
1.700000000000000000e+01,4.311181453192478030e-01,-2.521180224398580361e-01,1.000280210043549833e-01,8.151951704092885720e-02,1.208034407181792780e-01,6.678989517216749281e-07,2.070108427379933717e-03,1.159226005533059260e-02,2.702929312607355250e+00,-1.005398892630671864e-03,-8.530473663643785981e-03,2.994581982001097709e-01
1.725000000000000000e+01,4.404936196375627278e-01,-2.365343325628627147e-01,1.000276672260724531e-01,6.873995153358503085e-02,1.281781607315290450e-01,-6.070145138659578377e-06,1.667621956745626291e-03,1.209558628906412005e-02,2.740355649301846608e+00,3.246617855249879416e-03,-1.605360474314524626e-03,2.994409515014170853e-01
1.750000000000000000e+01,4.482281429525804550e-01,-2.200858786327806460e-01,1.000265518116209978e-01,5.546236387024412740e-02,1.345754919278440986e-01,-1.109994186962894268e-05,1.183878336657961244e-03,1.165311219335725401e-02,2.777779097168940670e+00,6.177398786539144322e-03,4.901620163231970237e-03,2.994281869420967745e-01
1.775000000000000000e+01,4.543275083941546999e-01,-2.029265721270225864e-01,1.000250374570073597e-01,4.271651535327836147e-02,1.395481589544988188e-01,-1.240543691896658840e-05,6.816413007458593971e-04,1.046692706800897085e-02,2.815201612784108853e+00,7.452059805513469755e-03,9.719731628753025890e-03,2.994227877968562157e-01
1.800000000000000000e+01,4.589125048523329808e-01,-1.852479943468507417e-01,1.000236077519054689e-01,3.129106767596450539e-02,1.429330149817043538e-01,-1.005002113231217179e-05,2.187286531926792364e-04,8.859988938898361033e-03,2.852624981620150546e+00,7.155376837374521036e-03,1.200228906562277389e-02,2.994237488779589174e-01
1.825000000000000000e+01,4.621789798089825374e-01,-1.672446970591015269e-01,1.000226194767199067e-01,2.159511419354377681e-02,1.448277966132265060e-01,-5.769278664441906909e-06,-1.622711432808205496e-04,7.200686990999352437e-03,2.890050122051534220e+00,5.717912716175148173e-03,1.152021252060000424e-02,2.994276347449247866e-01
1.850000000000000000e+01,4.643464778254057790e-01,-1.490862431265601862e-01,1.000221754973691923e-01,1.361423693754541461e-02,1.455119880207830230e-01,-1.634894471927178321e-06,-4.404473440831065774e-04,5.820157684387245074e-03,2.927476997399897751e+00,3.761061725678742362e-03,8.708498138550761422e-03,2.994309716607084781e-01
1.875000000000000000e+01,4.656081016824036301e-01,-1.309013348791082665e-01,1.000221666317219066e-01,6.969939056098908153e-03,1.453386960093871472e-01,1.137302557997657809e-06,-6.179375216480033741e-04,4.940453615367770661e-03,2.964905006061082204e+00,1.908224490229636213e-03,4.554959359735838258e-03,2.994319570671774566e-01
1.900000000000000000e+01,4.660937327246818529e-01,-1.127755926909280448e-01,1.000224069892177436e-01,1.066424367931454679e-03,1.446295530372203320e-01,2.456075756325466286e-06,-7.161550317065797479e-04,4.628989853950306321e-03,3.002333470623646416e+00,6.144293503270167401e-04,3.563944303478581554e-04,2.994307014831490421e-01
1.925000000000000000e+01,4.658553123178586497e-01,-9.476069430439376662e-02,1.000227423930989817e-01,-4.712430446003644698e-03,1.436009819625040096e-01,2.767213179545826766e-06,-7.679269766672947202e-04,4.789022518473110349e-03,3.039761920972677611e+00,5.849487285299772416e-05,-2.602859124022941558e-03,2.994283897480563006e-01
1.950000000000000000e+01,4.648773210702372705e-01,-7.688969154166089282e-02,1.000230684404589815e-01,-1.080563996548854558e-02,1.423391644228484409e-01,2.342583279237099596e-06,-8.074368263441107857e-04,5.188318042594675973e-03,3.077190131313795263e+00,1.234833521089108725e-04,-3.375821823285863731e-03,2.994263315807321746e-01
1.975000000000000000e+01,4.631091856668457241e-01,-5.919210777591666500e-02,1.000232919129816211e-01,-1.732787586278830907e-02,1.408259228155789855e-01,1.137721154131431141e-06,-8.602948741788736574e-04,5.519882416548175554e-03,3.114618069805956679e+00,4.670425801646409161e-04,-1.602010699565133535e-03,2.994255444046372561e-01
2.000000000000000000e+01,4.605106019193393463e-01,-4.170316100301276613e-02,1.000283785368795281e-01,-2.401212125213078932e-02,1.390015211839045473e-01,1.177019508513696769e-04,-9.355046307655758182e-04,5.481462251720305504e-03,-3.130264720149930291e+00,6.261607706898977051e-04,2.376457089535969572e-03,2.905662249036838340e-01
2.025000000000000000e+01,4.570973842252220587e-01,-2.446401846374613234e-02,1.000319705566954376e-01,-3.025564429907579012e-02,1.368454441022951551e-01,-1.171244462953294538e-05,-1.021959070471376583e-03,4.853624490198685422e-03,-3.093477938835520469e+00,3.331746878085246454e-04,7.631376322602516360e-03,2.968993404973584438e-01
2.050000000000000000e+01,4.529744574400354495e-01,-7.511878949118939303e-03,1.000295316036562826e-01,-3.527119044823683741e-02,1.344403555683370277e-01,-2.146327268891989388e-05,-1.096382770714859249e-03,3.560062132936296208e-03,-3.056220913746296119e+00,-6.367792879637564334e-04,1.278544098438992929e-02,2.987598073124406728e-01
2.075000000000000000e+01,4.483466235304084946e-01,9.133867350001873345e-03,1.000271386253436257e-01,-3.828542067089669293e-02,1.319890573543349432e-01,-1.631858352165407351e-05,-1.117493993826567484e-03,1.695142719899627934e-03,-3.018837063085967554e+00,-2.167455335511563833e-03,1.644223416263037099e-02,2.992601414354374989e-01
2.100000000000000000e+01,4.435023559489985612e-01,2.548675608166612455e-02,1.000255301733198043e-01,-3.875833375601885067e-02,1.298038347301226358e-01,-9.689062339857456516e-06,-1.042868494662300884e-03,-4.924631141221446273e-04,-2.981419017499872481e+00,-3.890702934034624607e-03,1.749994757086084304e-02,2.993948119083201798e-01
2.125000000000000000e+01,4.387730721267553702e-01,4.160294284598327341e-02,1.000246856142385093e-01,-3.655116964931159201e-02,1.282388860751410009e-01,-4.371704104533518593e-06,-8.394398649597586406e-04,-2.650012727663029425e-03,-2.943992339123589819e+00,-5.298197544554594275e-03,1.542247684989942434e-02,2.994281977610309675e-01
2.150000000000000000e+01,4.344766898294898372e-01,5.758059044878727217e-02,1.000243341914031636e-01,-3.200744782857521675e-02,1.275975675246970031e-01,-1.873886561951367315e-06,-4.924651158765926996e-04,-4.394042132773810089e-03,-2.906564680435012260e+00,-5.891324132228429461e-03,1.035715409726366970e-02,2.994319470174734987e-01
2.175000000000000000e+01,4.308578326929078384e-01,7.354739661178524845e-02,1.000240909697937275e-01,-2.592821603906816930e-02,1.280399121656790040e-01,-2.439592142968145938e-06,-1.084079711212283856e-05,-5.388484000237209366e-03,-2.869138302811323094e+00,-5.327019984848635481e-03,3.080106211732994842e-03,2.994284346897082005e-01
2.200000000000000000e+01,4.280376508376729228e-01,8.963799560592870808e-02,1.000236473160681511e-01,-1.944968187198224674e-02,1.295160639332248731e-01,-4.676484032092834519e-06,5.722886982242110943e-04,-5.409581815477377577e-03,-2.831713065390750739e+00,-3.516444148771552015e-03,-5.202079766920771758e-03,2.994275630327134508e-01
2.225000000000000000e+01,4.259836701499543632e-01,1.059657496513930902e-01,1.000229430192494523e-01,-1.385385726765611322e-02,1.317436945804008885e-01,-6.231603647312785521e-06,1.203619907532610432e-03,-4.384582128136808171e-03,-2.794287418309390869e+00,-6.526403445123134381e-04,-1.312961805845963038e-02,2.994343345798672895e-01
2.250000000000000000e+01,4.245053239933954670e-01,1.225949530148142674e-01,1.000221991301682017e-01,-1.035538211498737184e-02,1.342354500672361672e-01,-5.187274204523856312e-06,1.817535089835904888e-03,-2.399016267225539348e-03,-2.756859371029912076e+00,2.832224079748338081e-03,-1.946725874143322502e-02,2.994492408223675683e-01
2.275000000000000000e+01,4.232752701609925894e-01,1.395194144249839174e-01,1.000217806121719288e-01,-9.908176822476841283e-03,1.363701624175813754e-01,-1.233604134973636099e-06,2.346098808135866839e-03,3.244753116832618952e-04,-2.719427592959626772e+00,6.359376586455553308e-03,-2.331602068547262985e-02,2.994683883345278796e-01
2.300000000000000000e+01,4.218716932759880023e-01,1.566519686470218553e-01,1.000219699549528968e-01,-1.306562661598567252e-02,1.374925075804998564e-01,4.119716394526095223e-06,2.729295524845083698e-03,3.466957963672324776e-03,-2.681992222443112972e+00,9.316160497021613515e-03,-2.422368562179080115e-02,2.994852314740992227e-01
2.325000000000000000e+01,4.198335677501826568e-01,1.738272357634610410e-01,1.000227833894763163e-01,-1.991222876209088749e-02,1.370217020029717292e-01,8.353314437842543556e-06,2.923697342452553135e-03,6.662793957869225098e-03,-2.644554989054987093e+00,1.116277828397434224e-02,-2.219552532153978852e-02,2.994934783084632346e-01
2.350000000000000000e+01,4.167196689127043441e-01,1.908175131397940039e-01,1.000239272880035779e-01,-3.006871469607529102e-02,1.345503353710410244e-01,9.237951965582951401e-06,2.908231168067684606e-03,9.548816326337115218e-03,-2.607118590649867063e+00,1.151784605607320509e-02,-1.763360254169578020e-02,2.994898186123723383e-01
2.375000000000000000e+01,4.121626825390740101e-01,2.073595207379071159e-01,1.000249102999107992e-01,-4.276093769334080724e-02,1.299178095328753779e-01,5.927384567330152921e-06,2.686421159263552468e-03,1.180758087110811774e-02,-2.569685628814456280e+00,1.021842240634086851e-02,-1.124039265687321910e-02,2.994752660813363443e-01
2.400000000000000000e+01,4.059114284015674090e-01,2.231880599889986549e-01,1.000252510726502564e-01,-5.693666888482664529e-02,1.232472560905199244e-01,-6.321570499841251302e-07,2.285173791124603046e-03,1.320258835475812513e-02,-2.532257590430140315e+00,7.354761935439315008e-03,-3.911937238896002686e-03,2.994546459363971458e-01
2.425000000000000000e+01,3.978563565880499087e-01,2.380715465556033639e-01,1.000246848987541431e-01,-7.141239922127044781e-02,1.149393239914908854e-01,-8.092489046372078166e-06,1.750653125106804058e-03,1.360476200597561872e-02,-2.494834309313580079e+00,3.276853792341414412e-03,3.372309664240567047e-03,2.994345684000879193e-01
2.450000000000000000e+01,3.880357566783270151e-01,2.518438622049140041e-01,1.000232792142424637e-01,-8.503159351350859929e-02,1.056211878409226146e-01,-1.369736521489965799e-05,1.142018656016394271e-03,1.300861327054114204e-02,-2.457414110585770750e+00,-1.436461139212829186e-03,9.667707059049793911e-03,2.994207861119358993e-01
2.475000000000000000e+01,3.766225018984911688e-01,2.644271544591528800e-01,1.000214076117948714e-01,-9.681476405737908519e-02,9.605543316597317527e-02,-1.546369010935751172e-05,5.238639581105099382e-04,1.153479860311025507e-02,-2.419994543294752276e+00,-6.055769791967080366e-03,1.419236291244210107e-02,2.994160334504805121e-01
2.500000000000000000e+01,3.638936819206547990e-01,2.758412881813960826e-01,1.000195923576196189e-01,-1.060807015394800157e-01,8.702128373976734943e-02,-1.302864024396964652e-05,-4.177341308850567080e-05,9.415371656383758614e-03,-2.382573360463379863e+00,-9.825579074638410987e-03,1.645008162149430575e-02,2.994192505537049409e-01
2.525000000000000000e+01,3.501880060890315560e-01,2.861977214118112123e-01,1.000182870910003852e-01,-1.125196881878538085e-01,7.918827160525636344e-02,-7.736118778966453229e-06,-5.029152625287320894e-04,6.960551772276454309e-03,-2.345149310314890378e+00,-1.211334740526727981e-02,1.631699569966437238e-02,2.994265038281694880e-01
2.550000000000000000e+01,3.358578994714895294e-01,2.956784188307144401e-01,1.000177041928093785e-01,-1.162059208613968886e-01,7.300672233590739524e-02,-1.891895069313662706e-06,-8.237296220541993159e-04,4.510848166493926746e-03,-2.307722409503234040e+00,-1.254384715681699375e-02,1.405894437657204642e-02,2.994331035973376021e-01
2.575000000000000000e+01,3.212241198727252556e-01,3.045034122705898572e-01,1.000177691912864653e-01,-1.175476975107445088e-01,6.863752618046103926e-02,2.409014984222718708e-06,-9.883625222700293152e-04,2.383552221451238143e-03,-2.270293637124510155e+00,-1.107769426531124424e-02,1.026494710587009043e-02,2.994358040840118251e-01
2.600000000000000000e+01,3.065400464762404464e-01,3.128929386604264451e-01,1.000182131527636159e-01,-1.171871607592591819e-01,6.593518009154707149e-02,4.214821991389014824e-06,-1.001926723490222581e-03,8.251185225406373978e-04,-2.232864277637314654e+00,-8.010423842569657296e-03,5.711775091150050714e-03,2.994339712676997722e-01
2.625000000000000000e+01,2.919705825689397627e-01,3.210310487769027499e-01,1.000187371410848902e-01,-1.158719706223629714e-01,6.448561655770704282e-02,3.916475178686527893e-06,-8.884763469107027694e-04,-2.067941304558181713e-05,-2.195435287742620201e+00,-3.896872192967235516e-03,1.199160496013670137e-03,2.994292646313237993e-01
2.650000000000000000e+01,2.775874670410926615e-01,3.290369605032547606e-01,1.000191515569056333e-01,-1.143255290007663544e-01,6.368822063831411362e-02,2.714691493680363526e-06,-6.863172436071856208e-04,-1.239375457670666744e-04,-2.158006989870322467e+00,5.700838403006015451e-04,-2.598086489909730290e-03,2.994242581205162623e-01
2.675000000000000000e+01,2.633795850293166874e-01,3.369485370467345531e-01,1.000194237982318102e-01,-1.131393881000094526e-01,6.286352132894509892e-02,1.787384037382785665e-06,-4.414973438697624222e-04,4.397808944427131130e-04,-2.120579168381218960e+00,4.688634078335119325e-03,-5.227311212826533417e-03,2.994209345449864723e-01
2.700000000000000000e+01,2.492744084908687097e-01,3.447197596239708339e-01,1.000196312630689949e-01,-1.127032430493252746e-01,6.136591621558067783e-02,1.672965913455401787e-06,-2.006377366326366537e-04,1.512067206659380115e-03,-2.083151417870867661e+00,7.855806222528995131e-03,-6.493796528754963021e-03,2.994198614271683101e-01
2.725000000000000000e+01,2.351654146052558347e-01,3.522316160923518735e-01,1.000198678044154771e-01,-1.131779893762762390e-01,5.868340932345020994e-02,2.142838504037810666e-06,-4.307765152918799802e-06,2.881881147930798887e-03,-2.045723494522144303e+00,9.642876304045516073e-03,-6.445041790965777562e-03,2.994203053757611976e-01
2.750000000000000000e+01,2.209402152197154356e-01,3.593138749871503945e-01,1.000201644130306183e-01,-1.145089160628823960e-01,5.451112477835478448e-02,2.511121086312143947e-06,1.180757136750897659e-04,4.318082656969913363e-03,-2.008295477230416459e+00,9.841989417500413354e-03,-5.322678789236958731e-03,2.994209937638485086e-01
2.775000000000000000e+01,2.065048797728138430e-01,3.657738706315557531e-01,1.000204636464247232e-01,-1.164706673581725888e-01,4.879005569148463228e-02,2.129785808981456337e-06,1.512321004122418400e-04,5.601144131514662616e-03,-1.970867688953962693e+00,8.489811003420852029e-03,-3.498307665452895458e-03,2.994209796365276954e-01
2.800000000000000000e+01,1.918011830281677321e-01,3.714276228385159362e-01,1.000206524784544582e-01,-1.187328006236861022e-01,4.170656561556265046e-02,7.898302838931077213e-07,9.470645068242662418e-05,6.551982719317556506e-03,-1.933440466556193504e+00,5.865746267627059210e-03,-1.401856664467140317e-03,2.994201390589777967e-01
2.825000000000000000e+01,1.768149979438470298e-01,3.761283290931171086e-01,1.000206282765638971e-01,-1.209335106302261154e-01,3.365258791076444073e-02,-1.160458808285356526e-06,-3.857235884366613560e-05,7.055287441433860315e-03,-1.896013933700023246e+00,2.453769030442482044e-03,5.530638437392703050e-04,2.994191025518472826e-01
2.850000000000000000e+01,1.615756370275504006e-01,3.797876256233961301e-01,1.000203584041999411e-01,-1.227487973699233625e-01,2.515239993194983564e-02,-3.016857222630262298e-06,-2.254664878145999250e-04,7.073511698745554681e-03,-1.858587907823022967e+00,-1.140828673577663679e-03,2.039621542324211723e-03,2.994187417620655656e-01
2.875000000000000000e+01,1.461898737960916350e-01,3.823751187809099061e-01,1.000219445820776654e-01,-1.221329778036148589e-01,1.629851179920627918e-02,4.308920366714851511e-05,-8.051665902516432632e-03,6.512258935436192851e-03,-1.838980267379594746e+00,3.186208826638018549e-02,1.470091045449970768e-01,-5.299727558934488186e-02
2.900000000000000000e+01,1.319218914360303918e-01,3.836351909459172482e-01,1.000405148757837342e-01,-1.023649848966350778e-01,3.295047139093800447e-03,2.626632804973227995e-04,-3.033276415490074665e-02,4.889867266964617078e-03,-1.859786746565820659e+00,3.270224377722517201e-02,1.710463001769939873e-01,-2.331373208102778816e-01
2.925000000000000000e+01,1.217665176596778864e-01,3.828961000873213338e-01,1.000752144421604151e-01,-5.843908389200133668e-02,-1.521238836603153871e-02,2.034494567607071885e-04,-4.558991582957607619e-02,2.358884684162464856e-03,-1.892722984488883764e+00,-7.472005976959911720e-04,6.626240028634938772e-02,-2.811008913979446966e-01
2.950000000000000000e+01,1.179196028024562526e-01,3.796796346497693930e-01,1.000742270841389753e-01,-4.887187776539153594e-03,-3.539460721745413263e-02,-2.139247733838993144e-04,-4.490074154976490123e-02,-1.196320514755582544e-04,-1.928876940994006750e+00,-3.801874313526678456e-02,-5.404035674048056348e-02,-2.941704095190572632e-01
2.975000000000000000e+01,1.204055698464968627e-01,3.741265646736016137e-01,1.000318132759279582e-01,4.067013221479860025e-02,-5.192481581401490326e-02,-3.845945284863235892e-04,-3.177951278250260025e-02,-1.533128365938373492e-03,-1.965946262834820990e+00,-5.574431508178886996e-02,-1.186209789611193388e-01,-2.978594236665439432e-01
3.000000000000000000e+01,1.274817777032397070e-01,3.669358586719320692e-01,9.999385976135612142e-02,6.840765371428279840e-02,-6.157624306525750352e-02,-1.950371098366425579e-04,-1.517292100437207629e-02,-1.598030501870772004e-03,-2.003290790989206815e+00,-4.860947038302771556e-02,-1.144526727185581627e-01,-2.989668118686269471e-01
3.025000000000000000e+01,1.368486210596052688e-01,3.589874462996167082e-01,9.998427921977240396e-02,7.866333618426771257e-02,-6.456627058152814014e-02,1.320785428362770866e-05,-2.719367069426879054e-03,-8.298007671926207422e-04,-2.040705558507269313e+00,-2.639356970835970290e-02,-6.803976784644812092e-02,-2.993374042829156645e-01
3.050000000000000000e+01,1.467214017080283595e-01,3.509571323333537940e-01,9.999103653688125315e-02,7.823139206395635092e-02,-6.356388422332946708e-02,7.069190370309674841e-05,2.559220710119807646e-03,-5.719504315707052498e-05,-2.078134597324228672e+00,-3.792200416007706059e-03,-1.589068075377091105e-02,-2.994550996406623034e-01
3.075000000000000000e+01,1.562841529335464441e-01,3.431369957225794409e-01,9.999897512563937774e-02,7.494813538497335781e-02,-6.169029963513245063e-02,5.365351774267750258e-05,1.963770300661839274e-03,1.322235464117800779e-04,-2.115568209960711599e+00,8.910238255340020841e-03,1.720181052787853396e-02,-2.994709382498402239e-01
3.100000000000000000e+01,1.655489635836222273e-01,3.354914511864876547e-01,1.000046443536733581e-01,7.391906016517499345e-02,-6.092428497271911575e-02,3.973813353519079004e-05,-1.173138160886684402e-03,-3.440044972739503379e-04,-2.153001302322867794e+00,9.746892111811570475e-03,2.522884765355944137e-02,-2.994622550364683389e-01
3.125000000000000000e+01,1.749223210470017276e-01,3.278435700096261618e-01,1.000091129902037634e-01,7.652098530777456942e-02,-6.161875433964190962e-02,3.168210672914782380e-05,-3.856339853990826266e-03,-1.156291971947687094e-03,-2.190432013090452212e+00,3.314987033171519493e-03,1.603887354259212958e-02,-2.994611923582528035e-01
3.150000000000000000e+01,1.847953179013326619e-01,3.200532066160441391e-01,1.000123337233681797e-01,8.150382742629033728e-02,-6.300782642305034764e-02,1.978331262255040901e-05,-4.687331972385109374e-03,-1.848277219583330851e-03,-2.227863878090374783e+00,-3.753475991605078905e-03,1.843948416276026221e-03,-2.994673960406513125e-01
3.175000000000000000e+01,1.953316621036610412e-01,3.120991636172149586e-01,1.000140852061490310e-01,8.679595050635235953e-02,-6.410969435143076822e-02,9.505819928817940733e-06,-3.851007387538680441e-03,-2.095995633451668526e-03,-2.265299420826835330e+00,-6.804863169768024696e-03,-8.350150996180329827e-03,-2.994732609997518002e-01
3.200000000000000000e+01,2.064613975365780507e-01,3.040564666519653403e-01,1.000149502333472357e-01,9.086748937613878252e-02,-6.442964321889345369e-02,5.397065929624812089e-06,-2.349658414436179947e-03,-1.811552437649906026e-03,-2.302736809504537074e+00,-4.810102341016874589e-03,-1.159424697647983352e-02,-2.994766051533429563e-01
3.225000000000000000e+01,2.179882878890865849e-01,2.960163554723931889e-01,1.000155638942692021e-01,9.320006600530732210e-02,-6.417293137121708735e-02,4.659991932740932985e-06,-1.158006292914532743e-03,-1.091710054095556669e-03,-2.340173347583498931e+00,3.531498439589999378e-04,-9.748948089156328489e-03,-2.994790646741164464e-01
3.250000000000000000e+01,2.297051018496696073e-01,2.880097016153342349e-01,1.000161214281194422e-01,9.403053022328189403e-02,-6.402336030834812619e-02,4.245107686666429804e-06,-7.391757867152030839e-04,-9.640800694660097119e-05,-2.377608742781651241e+00,5.787327339469584483e-03,-6.459197123753056269e-03,-2.994821308409663096e-01
3.275000000000000000e+01,2.414539362033937542e-01,2.799728605047352992e-01,1.000166240950068480e-01,9.381519705952891253e-02,-6.473918464060195166e-02,3.851405064355225114e-06,-1.008713958936741269e-03,1.049801287127844884e-03,-2.415044423858513145e+00,9.283406443425063284e-03,-4.543116126082934712e-03,-2.994858879594721746e-01
3.300000000000000000e+01,2.531238776660152401e-01,2.717616385192072603e-01,1.000170943274198143e-01,9.280866227392234324e-02,-6.681894438965939320e-02,3.699702344372696563e-06,-1.581768438680682815e-03,2.286518506874853258e-03,-2.452481360211527406e+00,1.008418466384197222e-02,-4.867860736184941028e-03,-2.994894778966777360e-01
3.325000000000000000e+01,2.646141248798755674e-01,2.631947183937478618e-01,1.000175445527392154e-01,9.093179876206894385e-02,-7.036652421937897306e-02,3.467407183903816286e-06,-2.068647249847917376e-03,3.585508931906697481e-03,-2.489919122015125108e+00,8.685363761588221071e-03,-6.630502990183420424e-03,-2.994919427715907467e-01
3.350000000000000000e+01,2.757980565367749159e-01,2.541011053882693549e-01,1.000179462426960680e-01,8.789154611072615142e-02,-7.514442689012885979e-02,2.926034863680175889e-06,-2.256155920150627707e-03,4.898952412970184779e-03,-2.527356443659966256e+00,6.137679196688339278e-03,-8.334685722898568794e-03,-2.994927316505637815e-01
3.375000000000000000e+01,2.865108441736193279e-01,2.443536207589686038e-01,1.000182611071912947e-01,8.340759275801222505e-02,-8.072258975836237027e-02,2.088330837721822769e-06,-2.133680447765209671e-03,6.127959180530040233e-03,-2.564792280318462403e+00,3.383107180997226970e-03,-8.727725250573947421e-03,-2.994916318113416409e-01
3.400000000000000000e+01,2.965643511865198034e-01,2.338830943086929182e-01,1.000184476134818173e-01,7.740436484342508305e-02,-8.662501739295955239e-02,8.549763873164557111e-07,-1.814867102809575913e-03,7.129287297605596194e-03,-2.602226424084217893e+00,9.357108528830836809e-04,-7.292856460051369734e-03,-2.994885516361300293e-01
3.425000000000000000e+01,3.057792735177421450e-01,2.226775537508849934e-01,1.000184464748716529e-01,7.009245590129876968e-02,-9.242084153537509505e-02,-8.952327160503691406e-07,-1.435407160341120028e-03,7.753520524166523410e-03,-2.639659356051242245e+00,-1.077415667865966277e-03,-4.265994372178421278e-03,-2.994836757693675744e-01
3.450000000000000000e+01,3.140197969384452281e-01,2.107739170867110601e-01,1.000182046744626657e-01,6.193532961209881338e-02,-9.775824002292082815e-02,-2.900221355984606613e-06,-1.085774621196015054e-03,7.893727011419821374e-03,-2.677091691798711537e+00,-2.692435042425139757e-03,-3.672265083655016152e-04,-2.994778333065249987e-01
3.475000000000000000e+01,3.212187164122379257e-01,1.982476794932728492e-01,1.000177319808779330e-01,5.354085643721603199e-02,-1.023690152340438891e-01,-4.473668016367516650e-06,-7.962575268933346027e-04,7.522906340375528321e-03,-2.714523815355885272e+00,-3.908598573607644129e-03,3.531027042127302465e-03,-2.994724570746952752e-01
3.500000000000000000e+01,3.273868787166551164e-01,1.852023392188897333e-01,1.000171284845805808e-01,4.552759892837799499e-02,-1.060716675520230468e-01,-4.950365679670169695e-06,-5.586608304738592719e-04,6.707009005439741427e-03,-2.751955918693566705e+00,-4.626814809617857925e-03,6.661256954697274309e-03,-2.994689121188150449e-01
3.525000000000000000e+01,3.326064926504758157e-01,1.717578839578276784e-01,1.000165483588585785e-01,3.840509253834539088e-02,-1.087829891974246288e-01,-4.169717678551670056e-06,-3.573406989248406824e-04,5.591355685552103043e-03,-2.789388187146378151e+00,-4.720055059068004738e-03,8.506568806308525965e-03,-2.994677034024285645e-01
3.550000000000000000e+01,3.370116912631047623e-01,1.580376626021089137e-01,1.000161252995298150e-01,3.249089102657007344e-02,-1.105299049087676427e-01,-2.576492034229708061e-06,-1.889099597022354500e-04,4.367070154835865289e-03,-2.826820830626611603e+00,-4.150762680884829969e-03,8.856295013257799512e-03,-2.994682570411335565e-01
3.575000000000000000e+01,3.407616591891164948e-01,1.441545953184031614e-01,1.000159140880560876e-01,2.787373199779193816e-02,-1.114463565633634773e-01,-9.039026610536178791e-07,-6.431319652705749161e-05,3.228611509893414971e-03,-2.864253962034756906e+00,-3.044170404459728852e-03,7.802773857615449837e-03,-2.994694382979033453e-01
3.600000000000000000e+01,3.440121964849078839e-01,1.301992960712142489e-01,1.000158840346284661e-01,2.442330294397911106e-02,-1.117460930002996955e-01,2.746134514917975666e-07,1.180133360332584766e-06,2.333892128393997862e-03,-2.901687519740795640e+00,-1.672630418916420253e-03,5.695468589318088658e-03,-2.994703288736702551e-01
3.625000000000000000e+01,3.468912128425141184e-01,1.162330258508953301e-01,1.000159584406814517e-01,2.184047105780790102e-02,-1.116749404574080839e-01,7.975376781897468955e-07,7.351353259030111436e-08,1.776052633414912721e-03,-2.939121336269165052e+00,-3.650865839832296471e-04,3.056671772175090316e-03,-2.994706539470005646e-01
3.650000000000000000e+01,3.494824776578114855e-01,1.022871939355802923e-01,1.000160648675738478e-01,1.973566589708492316e-02,-1.114568925474425376e-01,8.495938983660135026e-07,-6.085959364395682192e-05,1.572043504299050183e-03,-2.976555268672530286e+00,6.067487998690941891e-04,4.654362447305384677e-04,-2.994706503080528659e-01
3.675000000000000000e+01,3.518200521766549072e-01,8.836903685835457989e-02,1.000161627982376067e-01,1.771779939753396343e-02,-1.112515060009578310e-01,7.084648383380023627e-07,-1.620201835225478773e-04,1.668892045701092812e-03,-3.013989260354783983e+00,1.111016865115170950e-03,-1.571699006496548277e-03,-2.994706412038075638e-01
3.700000000000000000e+01,3.538934273918123985e-01,7.447117289032467724e-02,1.000162401468525780e-01,1.547363558016373944e-02,-1.111350279252334983e-01,5.333373784174252492e-07,-2.780440311703413422e-04,1.964686508732845557e-03,-3.051423304732735708e+00,1.176085237893931658e-03,-2.733429830969187884e-03,-2.994707220727968466e-01
3.725000000000000000e+01,3.556609688087308263e-01,6.058178624933586998e-02,1.000162942087795964e-01,1.281972679444912111e-02,-1.111078699827687533e-01,3.293279534496653179e-07,-3.861454177258690423e-04,2.338378173337140545e-03,-3.088857380282656884e+00,9.497572014489754147e-04,-2.948947274007618184e-03,-2.994707486510637118e-01
3.750000000000000000e+01,3.570674498556309917e-01,4.669251741912411324e-02,1.000163182649087545e-01,9.716193400152709284e-03,-1.111213895484731429e-01,5.072608094201562150e-08,-4.720358332349403442e-04,2.680870451211655407e-03,-3.126291428276847473e+00,6.229863891945508969e-04,-2.395324606797797663e-03,-2.994705295717747795e-01
3.775000000000000000e+01,3.580607422009458030e-01,3.280246811861613210e-02,1.000242161911408245e-01,6.241743919928947372e-03,-1.111102438890810840e-01,4.847612279178375463e-05,-5.326949452751217470e-04,2.919716797623078848e-03,3.118870203081330228e+00,3.662864156494296522e-04,-1.423224791750876293e-03,-2.930913529718949251e-01
3.800000000000000000e+01,3.586035910557321960e-01,1.891827218729992890e-02,1.000246242015004894e-01,2.543049319550353109e-03,-1.110243598329901660e-01,-1.619938006116536524e-05,-5.712671081969224272e-04,3.030945467726219901e-03,3.081869328081588311e+00,2.135616570102794303e-04,-4.423300698796513836e-04,-2.977661135557238548e-01
3.825000000000000000e+01,3.586779454757594299e-01,5.051284007677465070e-03,1.000223126189138390e-01,-1.229097373705334648e-03,-1.108354396195112279e-01,-1.805628880536942852e-05,-5.957329686282237125e-04,3.036961995910849362e-03,3.044551233495073728e+00,1.907598454839519008e-04,2.225603481221092477e-04,-2.990138457245201109e-01
3.850000000000000000e+01,3.582821338747909645e-01,-8.784992382349999032e-03,1.000203322759361940e-01,-4.968483063863442413e-03,-1.105370799937648724e-01,-1.368767284307098231e-05,-6.162248975289826274e-04,2.988509517144119932e-03,3.007148497987738978e+00,2.274025121831807169e-04,4.243264367248898565e-04,-2.993466459023204629e-01
3.875000000000000000e+01,3.574234165212580860e-01,-2.257722981038171733e-02,1.000188815999787512e-01,-8.637432389405074601e-03,-1.101355477097703678e-01,-9.823728253722453416e-06,-6.395617252356600169e-04,2.941313686019760183e-03,2.969723183000943845e+00,2.471350217903566264e-04,2.176411911868434009e-04,-2.994353507619774146e-01
3.900000000000000000e+01,3.561095716331044714e-01,-3.631291420755976967e-02,1.000178475775527487e-01,-1.225982767889678346e-02,-1.096356234776503513e-01,-6.972956522205037482e-06,-6.680283163333686604e-04,2.934387482585447404e-03,2.932291836611251146e+00,2.095939357997510548e-04,-1.944869480027737289e-04,-2.994590126769434701e-01
3.925000000000000000e+01,3.543429546898276272e-01,-4.997954893383011604e-02,1.000171136248410447e-01,-1.589144737707511024e-02,-1.090325001338145888e-01,-4.959065855065124976e-06,-6.999612152416998185e-04,2.978386719150477851e-03,2.894858872798006022e+00,1.246131473306107183e-04,-5.699866298113985368e-04,-2.994653347070017069e-01
3.950000000000000000e+01,3.521188732056339532e-01,-6.356340642620537940e-02,1.000165883922696092e-01,-1.958382828132976955e-02,-1.083123382467874318e-01,-3.581614032582541632e-06,-7.315201167481977414e-04,3.057748295246204111e-03,2.857425482558473728e+00,3.463004202798235719e-05,-7.403300225906446139e-04,-2.994669519363912791e-01
