time_total,x,y,z,vx,vy,vz,roll,pitch,yaw,roll_rate,pitch_rate,yaw_rate
e-01,9.990196573242651756e-02,-1.455202959737967594e-01,-1.084460832334226271e-01,3.916271047851840794e-04,4.523814010324866963e-03,2.289037662348756847e-03,-4.556131429869710314e-01,2.267194583487479667e-02,2.600051675162413315e-04,3.310597762945993727e-01
2.500000000000000000e-01,-4.628666083698853573e-01,2.702757711630977555e-01,9.994324411752593396e-02,-1.445706957098454870e-01,-1.155564574507899345e-01,2.781839844867234151e-04,7.146275876125519899e-03,3.195489420814219116e-03,-4.142264457701236302e-01,1.976547732489616904e-02,-2.616426885665103577e-03,3.310169996731485709e-01
5.000000000000000000e-01,-4.808749453880614144e-01,2.552076347577207360e-01,9.997221601932015922e-02,-1.435283388537794691e-01,-1.255808429162228734e-01,1.919807238594011727e-04,8.851019201576619880e-03,3.939877223029629102e-03,-3.728443071241227535e-01,9.772299159248744316e-03,3.830226044527484507e-03,3.310077947495803641e-01
7.500000000000000000e-01,-4.986987937647087699e-01,2.387747827536296774e-01,9.999183942384420876e-02,-1.414360821199190099e-01,-1.370670530322361524e-01,1.279085063985419240e-04,9.017609721268311784e-03,5.124666986771228908e-03,-3.314667044643757610e-01,5.532322746559353291e-05,1.252752626992352687e-02,3.310271454994059281e-01
1.000000000000000000e+00,-5.161222293000398142e-01,2.208965964743889177e-01,1.000049287340327581e-01,-1.370069371695861182e-01,-1.484923149988419400e-01,8.648801260499575810e-05,8.046707875752701425e-03,6.895816048346297376e-03,-2.900922279500398049e-01,-5.162804922411696508e-03,1.822556514860351404e-02,3.310581555400915477e-01
1.250000000000000000e+00,-5.327922902861176313e-01,2.016486984486978440e-01,1.000140643838473703e-01,-1.294090067538326838e-01,-1.589221782757803958e-01,6.263118971345909820e-05,6.724799105738948034e-03,9.005375071312802376e-03,-2.487187892633380415e-01,-5.570980117605798046e-03,1.913557065905136315e-02,3.310812114018142904e-01
1.500000000000000000e+00,-5.482985036616669916e-01,1.811773015082166760e-01,1.000208455049899914e-01,-1.185327062815612759e-01,-1.681157282489724458e-01,4.709443198884405614e-05,5.666545356977722818e-03,1.105461175153578217e-02,-2.073438050260263399e-01,-3.363025283238252252e-03,1.629327552638186113e-02,3.310835358130325701e-01
1.750000000000000000e+00,-5.622563769064956585e-01,1.596279512741363427e-01,1.000258649873422417e-01,-1.048362041768930303e-01,-1.762480401692411158e-01,3.382938945349312713e-05,5.075937453892114849e-03,1.273024430123500042e-02,-1.659663873721626270e-01,-1.168817450569699986e-03,1.188862412653546134e-02,3.310645629825998970e-01
2.000000000000000000e+00,-5.743577496949682226e-01,1.371178913510265607e-01,1.000292963598339024e-01,-8.901953037278663439e-02,-1.835398398659227048e-01,2.173867988111975361e-05,4.812104916961205958e-03,1.391392605271963775e-02,-1.245887612760650659e-01,-5.769678648556087397e-04,7.745217568510430993e-03,3.310336257690059680e-01
2.250000000000000000e+00,-5.843821514870453093e-01,1.137479196289391675e-01,1.000313433664476448e-01,-7.175406583802559912e-02,-1.900170367027703144e-01,1.177585881308414147e-05,4.601673412037489766e-03,1.464987734965883179e-02,-8.321463224051268981e-02,-1.727494405836538412e-03,4.572555039859062948e-03,3.310025504532728147e-01
2.500000000000000000e+00,-5.921845720815396286e-01,8.963111188131824003e-02,1.000323170427971364e-01,-5.357747173135592178e-02,-1.954745750333391485e-01,4.479209468775047291e-06,4.232405261845689076e-03,1.503305683039386428e-02,-4.184642807000835824e-02,-3.748117193169206787e-03,2.024992021389831511e-03,3.309789991960772615e-01
2.750000000000000000e+00,-5.976807126081751242e-01,6.491521149927052814e-02,1.000325306041672385e-01,-3.494369854225168326e-02,-1.995935375004956047e-01,-5.994097365006807389e-07,3.640139225576827318e-03,1.510205648598248081e-02,-4.840219747796893190e-04,-5.494519324429485672e-03,-7.507147544645640476e-04,3.309643743812080152e-01
3.000000000000000000e+00,-6.008442177116525285e-01,3.978604482228646072e-02,1.000322012721910347e-01,-1.634581535679164449e-02,-2.021085376797568389e-01,-4.403880656691786647e-06,2.890035916823494727e-03,1.479513883233852557e-02,4.087470171499173882e-02,-6.132045183343687485e-03,-4.472400078365328623e-03,3.309560367147574844e-01
3.250000000000000000e+00,-6.017187052489402221e-01,1.445170913474356535e-02,1.000314425047442168e-01,1.583644714246691893e-03,-2.029382908644535022e-01,-7.517098073201546927e-06,2.104932096200668856e-03,1.398202875420741231e-02,8.223252002201743294e-02,-5.367405140230491721e-03,-9.272867185107312032e-03,3.309509802927160238e-01
3.500000000000000000e+00,-6.004370902728051185e-01,-1.088475942021574147e-02,1.000303557752469097e-01,1.806053299522939956e-02,-2.022393393253322236e-01,-9.535506771416107170e-06,1.397680772131264194e-03,1.254514917986003161e-02,1.235917472008506018e-01,-3.387755123864562810e-03,-1.457030071598408756e-02,3.309480558855432686e-01
3.750000000000000000e+00,-5.972355092956065370e-01,-3.605444712357091380e-02,1.000291478321619631e-01,3.224296028984238727e-02,-2.003853206017051358e-01,-9.338206263864530287e-06,8.382148968930200252e-04,1.046651601707465108e-02,1.649537037327591937e-01,-6.728599027780747793e-04,-1.924493135918923375e-02,3.309476296318464295e-01
4.000000000000000000e+00,-5.924499648059226020e-01,-6.094544197630171606e-02,1.000281510011861164e-01,4.340359509505592461e-02,-1.978949085557738519e-01,-6.248167828477214478e-06,4.552387206434658617e-04,7.881094690448731122e-03,2.063187079574377025e-01,2.182518503275298217e-03,-2.201824576611817810e-02,3.309497572865667259e-01
4.250000000000000000e+00,-5.864893948154062953e-01,-8.551476332742465047e-02,1.000276907560149198e-01,5.112291149013093589e-02,-1.953332715571007849e-01,-1.104037914308658841e-06,2.544958426369795966e-04,5.075892992504653367e-03,2.476862943225093816e-01,4.587788121303194681e-03,-2.189036872993393654e-02,3.309530216283307347e-01
4.500000000000000000e+00,-5.797868303011437519e-01,-1.097873378606922662e-01,1.000278888055913667e-01,5.543755803966244483e-02,-1.932064015803895973e-01,3.865920601479705457e-06,2.345109941775740353e-04,2.436075425926337822e-03,2.890554758102161226e-01,6.038757314425549465e-03,-1.849196146600672747e-02,3.309553385472254750e-01
4.750000000000000000e+00,-5.727378906779385659e-01,-1.338421830987494010e-01,1.000285712412673361e-01,5.689111688516843707e-02,-1.918644904292531317e-01,6.453615335709724426e-06,3.904066824487841046e-04,3.568008207998720795e-04,3.304251267776963097e-01,6.198783582438073710e-03,-1.224403647391474233e-02,3.309560036041157005e-01
5.000000000000000000e+00,-5.656406998083918225e-01,-1.577880131378336936e-01,1.000293783645150036e-01,5.646367410519854274e-02,-1.914314334830101716e-01,6.034283110658808580e-06,7.076273475820709334e-04,-8.518853656919771677e-04,3.717945453906596476e-01,4.985319079516846441e-03,-4.282191963434437559e-03,3.309568807306927929e-01
5.250000000000000000e+00,-5.586519512717152969e-01,-1.817326877313195643e-01,1.000300033510209269e-01,5.539246137073007559e-02,-1.917780983426108643e-01,3.935599779158153971e-06,1.153667419417701021e-03,-1.040217033122890246e-03,4.131639248217401916e-01,2.630697664398144557e-03,3.827112701887383853e-03,3.309612699697124238e-01
5.500000000000000000e+00,-5.517701710288651640e-01,-2.057528715982779033e-01,1.000303742765790288e-01,5.492760961953658400e-02,-1.925517525112953321e-01,2.278297544228239642e-06,1.675617037246620623e-03,-2.544108872591407228e-04,4.545342888914293833e-01,-3.286170510701337056e-04,1.049140000691435592e-02,3.309710972123175443e-01
5.750000000000000000e+00,-5.448503463005277547e-01,-2.298710597757279428e-01,1.000306408552784077e-01,5.608566205991475512e-02,-1.932611639650723689e-01,2.268550136602674674e-06,2.206764305614530592e-03,1.275408334668542238e-03,4.959067787059226462e-01,-3.161660658245941426e-03,1.450041506733000356e-02,3.309846979936165723e-01
6.000000000000000000e+00,-5.376460309497659296e-01,-2.540459655159325592e-01,1.000309912337262186e-01,5.946396351371928402e-02,-1.933996643015808981e-01,3.359521455212203974e-06,2.680195425740797451e-03,3.191310909066720925e-03,5.372817474770403834e-01,-5.138036295123793798e-03,1.532365382702050548e-02,3.309971212540715468e-01
6.250000000000000000e+00,-5.298681014965926916e-01,-2.781790311713764896e-01,1.000314608901278213e-01,6.516170391390481431e-02,-1.925736175057676247e-01,3.908047342637949321e-06,3.044041435095475208e-03,5.093388723818619533e-03,5.786583441571078179e-01,-5.752780307516424524e-03,1.321698977014685791e-02,3.310028809321506338e-01
6.500000000000000000e+00,-5.212454579884607808e-01,-3.021352651432857583e-01,1.000318901334439903e-01,7.282345786342403482e-02,-1.905981028965419710e-01,2.670826687663171576e-06,3.272688752374792402e-03,6.633760722550988490e-03,6.200348970736815346e-01,-4.901826876184980225e-03,9.112200082791692760e-03,3.309991853087833613e-01
6.750000000000000000e+00,-5.115731858902251572e-01,-3.257721703234808253e-01,1.000320517308914553e-01,8.178710612592461626e-02,-1.875289873875567448e-01,-1.624306603045930656e-07,3.370301013090624097e-03,7.594839782217453067e-03,6.614097898814745857e-01,-2.936678902361627552e-03,4.324885577719313895e-03,3.309874276021831374e-01
7.000000000000000000e+00,-5.007378882348615390e-01,-3.489678162881155177e-01,1.000318289698790553e-01,9.128984843890845802e-02,-1.836197508199086670e-01,-3.194174557558228786e-06,3.366035423918411519e-03,7.931556467615855088e-03,7.027822053818985060e-01,-5.658444129235312226e-04,1.694685949871819032e-04,3.309721741293619179e-01
7.250000000000000000e+00,-4.887167710465309955e-01,-3.716392463268701207e-01,1.000312975417178007e-01,1.006719374959376412e-01,-1.792163476453105531e-01,-4.957337377858863787e-06,3.303068290027741122e-03,7.766533576465183691e-03,7.441523179844251601e-01,1.374337370238701891e-03,-2.403434111170020104e-03,3.309586847903502882e-01
7.500000000000000000e+00,-4.755545390480839241e-01,-3.937455625080119037e-01,1.000306631702069793e-01,1.095218501965772584e-01,-1.746252771788216751e-01,-4.908280763173805943e-06,3.225167952569172984e-03,7.339916342238596986e-03,7.855209793903584758e-01,2.207493261710947660e-03,-3.041457889540640381e-03,3.309506907490519234e-01
7.750000000000000000e+00,-4.613280069858741728e-01,-4.152752730171688778e-01,1.000301295731471640e-01,1.177272448816503586e-01,-1.700008254787234163e-01,-3.526155372425006098e-06,3.164841112858528781e-03,6.928178308252205125e-03,8.268892360371882244e-01,1.666202647804052245e-03,-2.032699553459838514e-03,3.309494446169949922e-01
8.000000000000000000e+00,-4.461108756702032996e-01,-4.362230936922537050e-01,1.000298067428989218e-01,1.254265251990888397e-01,-1.652927086764382492e-01,-1.693748238232738869e-06,3.136223974938615565e-03,6.755170094037904645e-03,8.682579608527446480e-01,1.188141325242567776e-05,-1.514677811630112754e-04,3.309538939937144431e-01
8.250000000000000000e+00,-4.299497340339406559e-01,-4.565654221481458830e-01,1.000297023586998180e-01,1.328865778156887723e-01,-1.602758508649319846e-01,-1.125697108746476921e-07,3.134305214013359542e-03,6.921354088611600050e-03,9.096276512332366337e-01,-2.026300749000358673e-03,1.636739855126575355e-03,3.309613175429377829e-01
8.500000000000000000e+00,-4.128576238432302148e-01,-4.762446336027905680e-01,1.000297548994443231e-01,1.403537853342526065e-01,-1.546556263133319620e-01,7.779161158542974288e-07,3.140227230633187670e-03,7.372508101980260881e-03,9.509983222047886375e-01,-3.486407160111980059e-03,2.512975423935857964e-03,3.309680997141210002e-01
8.750000000000000000e+00,-3.948250607230721632e-01,-4.951696466603405233e-01,1.000298545260907002e-01,1.479311816787147182e-01,-1.482138697564215346e-01,6.206304980415960139e-07,3.130754891020576681e-03,7.918137506241262891e-03,9.923694909076143933e-01,-3.514668993680295471e-03,2.075706773299843509e-03,3.309707720584863511e-01
9.000000000000000000e+00,-3.758423736127560200e-01,-5.132345659474069066e-01,1.000298543486817376e-01,1.555230586013155170e-01,-1.409430915303827581e-01,-7.754468505579211541e-07,3.088887953371586767e-03,8.295281268987521328e-03,1.033740338947914283e+00,-1.701598094663200151e-03,4.583797968532185791e-04,3.309673078250024436e-01
9.250000000000000000e+00,-3.559235684076068607e-01,-5.303503959486498553e-01,1.000296158892138437e-01,1.628634107782924723e-01,-1.331156915402467167e-01,-3.035378815840988629e-06,3.012281408118087835e-03,8.259309967606589739e-03,1.075110069197376061e+00,1.707223458268537384e-03,-1.742039207757824096e-03,3.309580878331799814e-01
9.500000000000000000e+00,-3.351218096487963982e-01,-5.464791729060783920e-01,1.000290959145090364e-01,1.696146158946388594e-01,-1.252533913823351552e-01,-5.064207361889951748e-06,2.916734884236145062e-03,7.673921084068388750e-03,1.116478283731275889e+00,5.814228208610270829e-03,-3.697307330569715635e-03,3.309457945040281124e-01
9.750000000000000000e+00,-3.135300249292028441e-01,-5.616575273612919306e-01,1.000284070866782615e-01,1.754978948432455443e-01,-1.179948783810419038e-01,-5.620510211058813414e-06,2.833417176757675304e-03,6.571310145883707370e-03,1.157845132501436503e+00,9.306698703168842998e-03,-4.656402603410417576e-03,3.309341874960423091e-01
1.000000000000000000e+01,-2.912658265720999284e-01,-5.759988292675141119e-01,1.000277731910273332e-01,1.804061753989404104e-01,-1.118962249517773122e-01,-4.285237179296351781e-06,2.800365438546283028e-03,5.161674948421291799e-03,1.199211160398591769e+00,1.086294517989792006e-02,-4.218370044141116909e-03,3.309266549773957067e-01
1.025000000000000000e+01,-2.684458491010739412e-01,-5.896693092274931658e-01,1.000273895872921120e-01,1.844570192200260805e-01,-1.072258777218015324e-01,-1.866694168705526220e-06,2.850608626511965272e-03,3.786764332395419538e-03,1.240577057615261047e+00,9.596172973160684017e-03,-2.471832775999820587e-03,3.309255442433013394e-01
1.050000000000000000e+01,-2.451585730003044694e-01,-6.028419820177095545e-01,1.000273047079733163e-01,1.879656422896060497e-01,-1.038231883063590322e-01,3.055661521569760833e-07,3.000435693093760851e-03,2.830102422727162007e-03,1.281943580946964811e+00,5.382614908552465008e-03,4.517835509276562321e-05,3.309323163084396113e-01
1.075000000000000000e+01,-2.214453290252029471e-01,-6.156399819776278148e-01,1.000274346412788756e-01,1.913472780856952937e-01,-1.010727861997098853e-01,1.598703072899455990e-06,3.241451265587807183e-03,2.610634138451563713e-03,1.323311656016247895e+00,-1.044145720193640631e-03,2.543264568287831231e-03,3.309475782283889389e-01
1.100000000000000000e+01,-1.972963047368018197e-01,-6.280853084503967843e-01,1.000276950491103406e-01,1.949831845376753248e-01,-9.801161730215408874e-02,2.570235080679833049e-06,3.539059632564628497e-03,3.291868722235608002e-03,1.364682361462004279e+00,-8.270247127235171719e-03,4.258433431923047512e-03,3.309702388538413032e-01
1.125000000000000000e+01,-1.726631566703463461e-01,-6.400683560369386793e-01,1.000281100614016788e-01,1.990963797982148731e-01,-9.354338598599801213e-02,4.166514020963727276e-06,3.838182168843865417e-03,4.833370497970221509e-03,1.406056514432924454e+00,-1.459313163446497585e-02,4.704392453381697585e-03,3.309963418072438546e-01
1.150000000000000000e+01,-1.474842288928152334e-01,-6.513480943717047111e-01,1.000287732597012480e-01,2.036780737007464204e-01,-8.670111190693668979e-02,6.395227529683672058e-06,4.074899830382009563e-03,6.997748308233199196e-03,1.447433977677089922e+00,-1.849862839172758400e-02,3.813596854232122364e-03,3.310191214692634887e-01
1.175000000000000000e+01,-1.217143799964399142e-01,-6.615841756378320060e-01,1.000296848333440264e-01,2.084866648855514537e-01,-7.688405822113235366e-02,7.845159516547208666e-06,4.190969348427615870e-03,9.409091730213351226e-03,1.488813215348074648e+00,-1.907047708183654336e-02,1.927568940060937026e-03,3.310312265534954834e-01
1.200000000000000000e+01,-9.535030180330363037e-02,-6.703933907346797394e-01,1.000306226827941819e-01,2.131159480782315319e-01,-6.400458985406738688e-02,6.640756853612489618e-06,4.147330668445162356e-03,1.164394353484308683e-02,1.530191594926853416e+00,-1.620950086409011365e-02,-3.456467393908316190e-04,3.310282091678698468e-01
1.225000000000000000e+01,-6.844412992311428579e-02,-6.774165405974307275e-01,1.000311883656226364e-01,2.171072116289890219e-01,-4.850925261916168296e-02,2.041375899358437217e-06,3.933056231378677381e-03,1.332805041044967873e-02,1.571566422789639761e+00,-1.061038030162456125e-02,-2.344281583535691698e-03,3.310110069754792494e-01
1.250000000000000000e+01,-4.110218318250025149e-02,-6.823797181404097634e-01,1.000310175895857967e-01,2.200684714147059517e-01,-3.127575982103399099e-02,-4.709917345434231575e-06,3.567558777425926340e-03,1.421324802990986576e-02,1.612936132981257709e+00,-3.526763087042012954e-03,-3.556878795626542376e-03,3.309856176186262156e-01
1.275000000000000000e+01,-1.347028455656295275e-02,-6.851364598620702795e-01,1.000300033582028070e-01,2.217658173708273173e-01,-1.342084135533699180e-02,-1.099724042362079735e-05,3.095809088435825650e-03,1.421757489494769079e-02,1.654300910072410424e+00,3.581347031329550849e-03,-3.753249205747148220e-03,3.309601268676306551e-01
1.300000000000000000e+01,1.428922568203982134e-02,-6.856830151248658467e-01,1.000283715184127759e-01,2.221643195812871008e-01,3.926890128920571855e-03,-1.437924177478773178e-05,2.578191796678144104e-03,1.342421176657166218e-02,1.695662420591423469e+00,9.401710578963010101e-03,-3.013396299597755242e-03,3.309410300160267604e-01
1.325000000000000000e+01,4.202196267027440146e-02,-6.841460198150730587e-01,1.000265660433593828e-01,2.214133526365584803e-01,1.983354581128009969e-02,-1.390081963415466465e-05,2.077876932530219913e-03,1.204631681030465112e-02,1.737022911401962189e+00,1.303117957261780771e-02,-1.663914212198736075e-03,3.309310026631583357e-01
1.350000000000000000e+01,6.960106652325367960e-02,-6.807480459934656114e-01,1.000250341153345324e-01,2.197871777872940635e-01,3.370410648480821891e-02,-1.035289596955849086e-05,1.648884093975419877e-03,1.037172543517498116e-02,1.778384261553711765e+00,1.409797166452899687e-02,-1.576556428391617652e-04,3.309290064587047109e-01
1.375000000000000000e+01,9.693756004520755198e-02,-6.757603989449679771e-01,1.000240482415125226e-01,2.176016902657315344e-01,4.534354531767106206e-02,-5.529936832974559661e-06,1.327390475593557715e-03,8.702757226725610709e-03,1.819747469832438069e+00,1.274927554098993603e-02,1.059830240961767353e-03,3.309320509617457717e-01
1.400000000000000000e+01,1.239800471096832724e-01,-6.694536897341372139e-01,1.000236510085537184e-01,2.151309182631165329e-01,5.493570425461251350e-02,-1.152268109255390601e-06,1.127626879304792669e-03,7.303255888839709983e-03,1.861112691552587517e+00,9.542492969004053721e-03,1.661657986259633835e-03,3.309371892633850010e-01
1.425000000000000000e+01,1.507050775692990729e-01,-6.620555211788237138e-01,1.000237172817695780e-01,2.125433447156465372e-01,6.295645005165231844e-02,1.858732134036658084e-06,1.042409432858595539e-03,6.359838291235568250e-03,1.902479607098523040e+00,5.290138002042724281e-03,1.509474324171416939e-03,3.309426382039118431e-01
1.450000000000000000e+01,1.771015789819112285e-01,-6.537219607572249958e-01,1.000240659889547468e-01,2.098710557990211278e-01,7.004566702429956826e-02,3.462976451558769789e-06,1.047387161156101802e-03,5.959437030246881976e-03,1.943847800153116090e+00,8.998111884288909068e-04,6.778797073736320469e-04,3.309477621436927031e-01
1.475000000000000000e+01,2.031538636936095488e-01,-6.445262594465711592e-01,1.000245470712368689e-01,2.070167279477225786e-01,7.686402088950396172e-02,4.090199921383850195e-06,1.107631272867701071e-03,6.082235373794948191e-03,1.985216935741397126e+00,-2.768858982740082797e-03,-5.621370810938776949e-04,3.309523778019496376e-01
1.500000000000000000e+01,2.288278608303110362e-01,-6.344651662675960813e-01,1.000250651016219156e-01,2.037961057768601647e-01,8.395801892966539559e-02,4.109322660337390396e-06,1.185186324585548942e-03,6.608454288579680702e-03,2.026586725122684118e+00,-5.026900183277690712e-03,-1.795696149246637455e-03,3.309560789494235267e-01
1.525000000000000000e+01,2.540645051843371527e-01,-6.234804670407488869e-01,1.000255488215691935e-01,2.000071788663753958e-01,9.165349764106706099e-02,3.533065813376748473e-06,1.246430612672020950e-03,7.338416715784494559e-03,2.067956811002425344e+00,-5.462598892005635087e-03,-2.550322192243101044e-03,3.309580730558760453e-01
1.550000000000000000e+01,2.787827319995074826e-01,-6.114910648905207413e-01,1.000259093759892359e-01,1.955113945379606533e-01,9.999450896251110832e-02,2.126301723980296937e-06,1.268329976945677248e-03,8.026221816389478639e-03,2.109326732880788313e+00,-4.028697806628939344e-03,-2.412769001628466397e-03,3.309575874991559918e-01
1.575000000000000000e+01,3.028923513920546706e-01,-5.984290334231056052e-01,1.000260344573818683e-01,1.903071532545096145e-01,1.087406320846244084e-01,-1.765213745687105763e-07,1.242800574478891175e-03,8.426302075192203256e-03,2.150696043484944031e+00,-1.088987182560102263e-03,-1.162239093484743841e-03,3.309544882180532333e-01
1.600000000000000000e+01,3.263143959608442723e-01,-5.842718624790287363e-01,1.000258372897912806e-01,1.845731593494222555e-01,1.174285618701726708e-01,-2.879434987302253418e-06,1.178454556612394417e-03,8.348291822044275404e-03,2.192064507222256431e+00,2.609245276061720412e-03,1.111650836091621552e-03,3.309495837609677249e-01
1.625000000000000000e+01,3.490038209752726606e-01,-5.690631103199675911e-01,1.000253309806159036e-01,1.786616160197384007e-01,1.254918209923498451e-01,-4.951102160060567215e-06,1.099128007769965658e-03,7.710258454078224889e-03,2.233432219827014453e+00,6.062832994652912755e-03,3.951018203342144056e-03,3.309443083384048245e-01
1.650000000000000000e+01,3.709674753835361383e-01,-5.529154271391529818e-01,1.000246631768650640e-01,1.730308407308191743e-01,1.324169683648796503e-01,-5.398405151968080312e-06,1.038942453717978500e-03,6.576137602358435828e-03,2.274799529460970415e+00,8.236904393341560465e-03,6.574288811622646007e-03,3.309400029501328167e-01
1.675000000000000000e+01,3.922699609763024564e-01,-5.359935876377683872e-01,1.000240609821876903e-01,1.681232933407889596e-01,1.379003431810293667e-01,-4.021672310777614045e-06,1.034300603878911002e-03,5.162999549497021383e-03,2.316166808063471638e+00,8.341081624926378196e-03,8.041208497268975339e-03,3.309374415084362919e-01
1.700000000000000000e+01,4.130220030985231050e-01,-5.184802226469277242e-01,1.000237069906396020e-01,1.642144996259381484e-01,1.419624290275383061e-01,-1.666012604029073132e-06,1.114069383574742148e-03,3.809102990799061259e-03,2.357534285294752952e+00,6.079531525784459371e-03,7.514949899161573257e-03,3.309370994556054546e-01
1.725000000000000000e+01,4.333502527261968162e-01,-5.005321001114779733e-01,1.000236418055063942e-01,1.612744130086304073e-01,1.449822894635653114e-01,4.299727894386712005e-07,1.290005121816700275e-03,2.903836494907443503e-03,2.398902136937630658e+00,1.788720341480836166e-03,4.554545236063256737e-03,3.309398892149673643e-01
1.750000000000000000e+01,4.533531380803959010e-01,-4.822384250406206996e-01,1.000237876523062119e-01,1.588884442955606213e-01,1.476330851232850183e-01,1.759202229590027867e-06,1.549907700277798747e-03,2.792579570003447115e-03,2.440270767539047370e+00,-3.597136276259493490e-03,-6.550134676491263172e-04,3.309473472067974709e-01
1.775000000000000000e+01,4.730528661380806743e-01,-4.635932870761001467e-01,1.000240855466409118e-01,1.562763749087061060e-01,1.507270587371057902e-01,3.069329224134818965e-06,1.855798555306870665e-03,3.679027529597629718e-03,2.481640939984878891e+00,-8.760351816866868840e-03,-7.222386161159822376e-03,3.309604517965790138e-01
1.800000000000000000e+01,4.923570799283730759e-01,-4.444914926207342853e-01,1.000246126885892956e-01,1.524241621200684016e-01,1.550062268443731794e-01,5.529788591838735192e-06,2.148514161841458443e-03,5.551142739747719906e-03,2.523013402251936377e+00,-1.234251799510589429e-02,-1.367013158683730821e-02,3.309775606533498782e-01
1.825000000000000000e+01,5.110435445461839477e-01,-4.247511184566656883e-01,1.000255276248833008e-01,1.463118016379930941e-01,1.609341803729932852e-01,9.038939332937979648e-06,2.358618287771704729e-03,8.153243424655580787e-03,2.564388072878735603e+00,-1.332100893357630531e-02,-1.825035553824915988e-02,3.309933407247350190e-01
1.850000000000000000e+01,5.287770381740752867e-01,-4.041587726652376977e-01,1.000268331969822178e-01,1.371888606381642950e-01,1.685481950659665495e-01,1.127627148959733373e-05,2.421799875464066346e-03,1.101664446109261973e-02,2.605763391507327942e+00,-1.130985554908875076e-02,-1.939096348011162124e-02,3.310004959843793060e-01
1.875000000000000000e+01,5.451600297425078789e-01,-3.825268525716827850e-01,1.000281493602621780e-01,1.248276542738528672e-01,1.774172586438803600e-01,8.851115756380913079e-06,2.295418835466818581e-03,1.354719371966109365e-02,2.647136585788770535e+00,-6.693592308552121298e-03,-1.616117447732491608e-02,3.309940775068779262e-01
1.900000000000000000e+01,5.598094934821715718e-01,-3.597480679706455131e-01,1.000287554696065451e-01,1.096798759986925553e-01,1.867238305479773930e-01,1.632882749985138983e-07,1.972073914050853638e-03,1.515328909169569131e-02,2.688505046458763204e+00,-5.477980918089136097e-04,-8.624161962968878228e-03,3.309755755195954441e-01
1.925000000000000000e+01,5.724438002444133256e-01,-3.358324789226050378e-01,1.000279848779510455e-01,9.287923785857778169e-02,1.954526334512441954e-01,-1.226125164331387807e-05,1.486320821798942007e-03,1.538602938060653486e-02,2.729868053214337564e+00,5.639180413955967308e-03,2.040758300830773208e-03,3.309532465092853148e-01
1.950000000000000000e+01,5.829585775107406498e-01,-3.109165005508070512e-01,1.000257410458382790e-01,7.606825383179163791e-02,2.026383338661787437e-01,-2.234376112060293060e-05,9.120227674714330478e-04,1.405740205988863060e-02,2.771227553932093191e+00,1.036856688619481985e-02,1.371099571920988622e-02,3.309374866206811205e-01
1.975000000000000000e+01,5.914706388964069417e-01,-2.852407328885612769e-01,1.000227237950046671e-01,6.107367162056305532e-02,2.076051735983416024e-01,-2.420195229596248181e-05,3.500247983964943112e-04,1.130522392731326056e-02,2.812587187753884610e+00,1.254180766937327760e-02,2.377173640329873286e-02,3.309340791394902448e-01
2.000000000000000000e+01,5.983151136894211408e-01,-2.591020365033044337e-01,1.000201101268224091e-01,4.949954259064517914e-02,2.101319280719718963e-01,-1.650582788508889848e-05,-9.163448658532544178e-05,7.585100340990378297e-03,2.853950046530493001e+00,1.175771132496264589e-02,2.974280652424889787e-02,3.309404389162525773e-01
2.025000000000000000e+01,6.039916207828581740e-01,-2.327924841553616619e-01,1.000188501811916097e-01,4.233578156593781339e-02,2.104958243833246756e-01,-3.866699580102559947e-06,-3.206713246179561795e-04,3.587315462646217985e-03,2.895316771943047485e+00,8.407441960089691649e-03,2.991848851850095053e-02,3.309481509789488074e-01
2.050000000000000000e+01,6.090680686462645044e-01,-2.065414860560455257e-01,1.000190819092452998e-01,3.968331733291922264e-02,2.093835496784585137e-01,6.253354313291813753e-06,-2.813841462006587044e-04,9.562690741001219686e-05,2.936685483495722337e+00,3.541087823413956864e-03,2.384318480656019701e-02,3.309501877211876719e-01
2.075000000000000000e+01,6.140619733958628812e-01,-1.804763818547566179e-01,1.000201223787851590e-01,4.067211852627138774e-02,2.076956095523907475e-01,8.972423273330417274e-06,3.150999097909958085e-05,-2.179888604419932992e-03,2.978053665347486945e+00,-1.449718457640477610e-03,1.248526332099586522e-02,3.309471276301636511e-01
2.100000000000000000e+01,6.193258768846198192e-01,-1.546114365531961465e-01,1.000210574882900716e-01,4.360167807040923882e-02,2.063002204679102447e-01,5.488446157497735490e-06,5.693102519777543721e-04,-2.756835149205975281e-03,3.019420549648344387e+00,-5.233787736461313102e-03,-1.946007399662892656e-03,3.309470859498388484e-01
2.125000000000000000e+01,6.249600546834036541e-01,-1.289096786528451388e-01,1.000236852867227716e-01,4.610739688899275629e-02,2.036828024283763861e-01,7.017867345443858258e-05,-9.177769122263888801e-03,-1.666799695206162011e-03,3.045891088353672504e+00,2.340174709777051165e-01,-3.436351073791427124e-02,-1.997290812409564797e-02
2.150000000000000000e+01,6.306460111338698660e-01,-1.050761762329491256e-01,1.000699225659482938e-01,4.372340119348863685e-02,1.708987204411387129e-01,7.450229040114466706e-04,-4.795947376159151454e-02,-2.076256721988049923e-04,3.025675206584586885e+00,3.183543448146802235e-01,-4.744310231684913809e-02,-2.476461588035961392e-01
2.175000000000000000e+01,6.354997376015665278e-01,-8.835872476119362162e-02,1.001838201347179241e-01,3.277294602200031548e-02,9.287821248078567682e-02,8.011920972292224446e-04,-7.854717312634426629e-02,9.425312349358623554e-04,2.989951774125064077e+00,1.448777793554985593e-01,-3.116853024737070363e-02,-3.089240742853208710e-01
2.200000000000000000e+01,6.384335757645360765e-01,-8.313637850145111363e-02,1.002081144869260004e-01,1.371846756657708714e-02,-6.693378734970740346e-03,-4.581555743439783761e-04,-8.196138946503045419e-02,2.441266842021031121e-03,2.950007360418118285e+00,-8.115244808234436946e-02,-8.270201992720161311e-04,-3.260635208230725501e-01
2.225000000000000000e+01,6.386675230903611222e-01,-8.991836481782937429e-02,1.000890667184046318e-01,-9.492777651361998179e-03,-9.463787189361363983e-02,-1.203336997782304208e-03,-6.186506567174289428e-02,5.238334389997859400e-03,2.908962684823922729e+00,-2.165950616292068587e-01,2.234658366133909779e-02,-3.307194114240977756e-01
2.250000000000000000e+01,6.359771857086576885e-01,-1.057093153441067690e-01,9.995993435689505546e-02,-3.246755924169043156e-02,-1.500367588228610216e-01,-7.382011834925275573e-04,-3.317816355199795092e-02,9.219123736420696200e-03,2.867741736082494164e+00,-2.239728057963955576e-01,2.787702081485022437e-02,-3.318012660152072635e-01
2.275000000000000000e+01,6.305746915498372518e-01,-1.261254551511399313e-01,9.991594949596534214e-02,-5.278261027216222395e-02,-1.708551971119935398e-01,-3.777877062220670254e-05,-9.871369123187838032e-03,1.305079123376737607e-02,2.826509305827750396e+00,-1.444595835982601384e-01,2.006046782779262808e-02,-3.319709301578787075e-01
2.300000000000000000e+01,6.228231734623550508e-01,-1.474886825278656222e-01,9.993237820525402437e-02,-7.024248782300901439e-02,-1.684461915994234782e-01,2.139640993146340719e-04,1.604715252643219544e-03,1.505501877137412070e-02,2.785182254910465005e+00,-4.457282883403174828e-02,1.042769739561222493e-02,-3.318078023484129502e-01
2.325000000000000000e+01,6.130328075357082129e-01,-1.678689807704937531e-01,9.995741355220590096e-02,-8.559467435265014079e-02,-1.577098403880909661e-01,1.684990628676734836e-04,2.537247516674274398e-03,1.426392978968690425e-02,2.743743157741336258e+00,2.565130937950340154e-02,8.003119515018352129e-03,-3.314409487718859015e-01
2.350000000000000000e+01,6.014376345342072883e-01,-1.869917180613269725e-01,9.997408811384124461e-02,-9.915187270013953169e-02,-1.494920465771198970e-01,1.083621046300579173e-04,-1.689081709950933591e-03,1.091903946863847369e-02,2.702284822197123404e+00,4.976525070780999510e-02,1.418917565137707386e-02,-3.310678285957971978e-01
2.375000000000000000e+01,5.882935031752578592e-01,-2.055054828328607697e-01,9.998602142637025292e-02,-1.102901473760827811e-01,-1.479019115965886644e-01,8.632805429985045468e-05,-5.791602464890041255e-03,6.217428079825186929e-03,2.660881139921248195e+00,3.879412286533488047e-02,2.379369671937010128e-02,-3.308513644950240584e-01
2.400000000000000000e+01,5.739733362981032094e-01,-2.242015855941406621e-01,9.999563030825533994e-02,-1.179093030205775466e-01,-1.517523917168244751e-01,6.716025846787585993e-05,-7.048442742816825660e-03,1.633736087031286040e-03,2.619523035008305634e+00,1.448214157638881561e-02,2.971959426624599943e-02,-3.308051212469382829e-01
2.425000000000000000e+01,5.589706746504367052e-01,-2.435508244046774573e-01,1.000026936433463243e-01,-1.213087439092867537e-01,-1.577088466095430963e-01,4.736537567606384340e-05,-5.519023366418771698e-03,-1.719671407397339912e-03,2.578169178824498253e+00,-5.390810141581488940e-03,2.762732579489530008e-02,-3.308487471774196331e-01
2.450000000000000000e+01,5.438040555455668779e-01,-2.636194804998447383e-01,1.000077223507633145e-01,-1.208124694997617238e-01,-1.629430501008682641e-01,3.466610092291397033e-05,-2.826415002779781704e-03,-3.398337655044960087e-03,2.536801966858829527e+00,-1.352749544009996391e-02,1.790992135148290754e-02,-3.309062453824688221e-01
2.475000000000000000e+01,5.288810617007810855e-01,-2.842228437408260144e-01,1.000114735488364520e-01,-1.177880249698392001e-01,-1.662697949358785954e-01,2.583654488974460674e-05,-6.756127522256108161e-04,-3.560077250260071813e-03,2.495428166191488550e+00,-1.182674007906371096e-02,4.598097353364919565e-03,-3.309466801445701822e-01
2.500000000000000000e+01,5.143968107926439881e-01,-3.051263998178689874e-01,1.000141723420905904e-01,-1.141374689490349675e-01,-1.679139579466892018e-01,1.784849876762303737e-05,6.263801511623122984e-05,-2.684396736965836364e-03,2.454055643944766718e+00,-6.256628965395727091e-03,-7.361032987076692076e-03,-3.309716831167036633e-01
2.525000000000000000e+01,5.003117629571858238e-01,-3.261689134048526006e-01,1.000160261184299543e-01,-1.116100421959868721e-01,-1.686523596606285258e-01,1.260494916271297859e-05,-5.159313008894759502e-04,-1.279527933998493051e-03,2.412683990882869889e+00,-2.030248884707240315e-03,-1.459313020429082661e-02,-3.309902070627571691e-01
2.550000000000000000e+01,4.864067459673324656e-01,-3.472784804215305332e-01,1.000174457582908849e-01,-1.112967261209827918e-01,-1.690505887979387722e-01,1.053786820602554356e-05,-1.748939497276855246e-03,2.928758845707638090e-04,2.371309762169224733e+00,-1.299543248071724413e-03,-1.637790112142908233e-02,-3.310056304515653913e-01
2.575000000000000000e+01,4.723783309167560174e-01,-3.684206587848490311e-01,1.000186833298885025e-01,-1.134890747783358633e-01,-1.691477461958038053e-01,9.233100476885595166e-06,-2.929820519117445725e-03,1.853206563957993189e-03,2.329932051467999088e+00,-3.405905533575880832e-03,-1.420627516593162692e-02,-3.310168820276078172e-01
2.600000000000000000e+01,4.579293422357875731e-01,-3.895359863656187027e-01,1.000197130286989561e-01,-1.178661325103431134e-01,-1.685592825359008839e-01,7.196300245241017263e-06,-3.648698038213478087e-03,3.351771266034670772e-03,2.288552664351577004e+00,-6.453418897819480915e-03,-1.048114832350295102e-02,-3.310235044107590063e-01
2.625000000000000000e+01,4.428239422240566880e-01,-4.105050932977051814e-01,1.000204686775834212e-01,-1.238353139912880124e-01,-1.667656719997203940e-01,5.044657643169091430e-06,-3.858167330743107401e-03,4.797655707727169032e-03,2.247173672255875942e+00,-8.839171707920305543e-03,-7.227458894279030141e-03,-3.310271114257206659e-01
2.650000000000000000e+01,4.269006976003563159e-01,-4.311489377203164275e-01,1.000210024663285430e-01,-1.308379481375908926e-01,-1.633571336582017863e-01,3.709336588634500475e-06,-3.741598233029220979e-03,6.211206947268430728e-03,2.205795786072870968e+00,-9.972033486735920604e-03,-5.390827209513704074e-03,-3.310295327320186831e-01
2.675000000000000000e+01,4.100564223247153972e-01,-4.512501210710694877e-01,1.000214298680015407e-01,-1.385061046685029662e-01,-1.581249537467997457e-01,3.257156675086756489e-06,-3.526089752699254100e-03,7.606521589846337340e-03,2.164418464510780904e+00,-1.014020907228346292e-02,-4.839041187769892172e-03,-3.310312363932625956e-01
2.700000000000000000e+01,3.922211093198073040e-01,-4.705762473348184538e-01,1.000218324003596948e-01,-1.466593040929081160e-01,-1.510185368384953930e-01,3.207370846115761774e-06,-3.351898650529403206e-03,8.988238196583961739e-03,2.123040958960218827e+00,-9.936978353928475893e-03,-4.822095077437749990e-03,-3.310315216352829881e-01
2.725000000000000000e+01,3.733405040616697979e-01,-4.888938527088340646e-01,1.000222275469273558e-01,-1.552023723189808191e-01,-1.420550956347684246e-01,3.071257037681313531e-06,-3.238033722693812316e-03,1.034577013656809603e-02,2.081663219213814919e+00,-9.719700750338945011e-03,-4.529157782353953124e-03,-3.310294865244108320e-01
2.750000000000000000e+01,3.533733219269737935e-01,-5.059726699683929629e-01,1.000225793204524288e-01,-1.640067204846459292e-01,-1.312646366719842084e-01,2.472464382522529344e-06,-3.121637520503627201e-03,1.164027797948911924e-02,2.040286101771115579e+00,-9.385083334029433247e-03,-3.473085470203665821e-03,-3.310246381448709863e-01
2.775000000000000000e+01,3.323008689774454294e-01,-5.215874810689676844e-01,1.000228094457237260e-01,-1.728362440444110859e-01,-1.187050779121941874e-01,1.107381545236365656e-06,-2.922675843744916829e-03,1.279267508195192603e-02,1.998910931046278705e+00,-8.489794063033647906e-03,-1.611549526135689801e-03,-3.310170439572964196e-01
2.800000000000000000e+01,3.101416070760623644e-01,-5.355256327530886207e-01,1.000228095445620663e-01,-1.813407080746749223e-01,-1.045295295635226274e-01,-1.182152256309009172e-06,-2.593200287421862718e-03,1.368578344236037921e-02,1.957538789017956971e+00,-6.570738601329299301e-03,7.403158292996911633e-04,-3.310074036370863060e-01
2.825000000000000000e+01,2.869626214515503815e-01,-5.476037451428381608e-01,1.000224708855445566e-01,-1.891063265970394647e-01,-8.905691322032613377e-02,-4.220236292426036177e-06,-2.134376749432110448e-03,1.418840867330466507e-02,1.916169946130276802e+00,-3.467602193274759229e-03,3.093045651300709974e-03,-3.309971405230916486e-01
2.850000000000000000e+01,2.628825393283466538e-01,-5.576906943075802259e-01,1.000217373088762018e-01,-1.957357758854742502e-01,-7.279639430830121827e-02,-7.348331441115031769e-06,-1.586356731558293031e-03,1.419754345354673659e-02,1.874803705150660971e+00,5.059126142114530374e-04,4.966700298392023871e-03,-3.309882441266438491e-01
2.875000000000000000e+01,2.380642108334765916e-01,-5.657290584245667775e-01,1.000206617908102891e-01,-2.009273244864952235e-01,-5.639903750968709023e-02,-9.542298082586733501e-06,-1.006254282278807146e-03,1.368377469293447293e-02,1.833438689937937127e+00,4.607749478754559827e-03,6.026922363652400388e-03,-3.309826308170508158e-01
2.900000000000000000e+01,2.126988994083151008e-01,-5.717460039524044912e-01,1.000194244060463727e-01,-2.045291842806349625e-01,-4.054325106705886778e-02,-9.890747600665420505e-06,-4.480892613650841287e-04,1.272006630666358031e-02,1.792073385666169250e+00,7.905478727428761829e-03,6.160012316975491294e-03,-3.309812161700123601e-01
2.925000000000000000e+01,1.869860810510078630e-01,-5.758474177562293850e-01,1.000182794486008664e-01,-2.065553455071934830e-01,-2.579011561506748193e-02,-8.172756679016967763e-06,4.867467233037607355e-05,1.147816985098987566e-02,1.750706651022196914e+00,9.612232453292547663e-03,5.485739745787286854e-03,-3.309833134560322687e-01
2.950000000000000000e+01,1.611139376579789895e-01,-5.781947745275632933e-01,1.000174505121742968e-01,-2.071605918966722415e-01,-1.245991019582055361e-02,-5.051722339821076565e-06,4.622570062892050399e-04,1.018874067786736289e-02,1.709337995029545088e+00,9.391577617404932646e-03,4.308003938197152265e-03,-3.309869122049385881e-01
2.975000000000000000e+01,1.352451657254992723e-01,-5.789705679011029060e-01,1.000170403589367152e-01,-2.065839350444203248e-01,-5.767339896855815974e-04,-1.676530244201872704e-06,7.868514259233468089e-04,9.075884675007047861e-03,1.667967556851977839e+00,7.512967937992655505e-03,3.011407261389438973e-03,-3.309897665154661328e-01
3.000000000000000000e+01,1.095109100452003603e-01,-5.783426986999689046e-01,1.000170126374624185e-01,-2.050793250695458203e-01,1.009439840806660924e-02,9.676646116795124038e-07,1.029228319067965495e-03,8.287954976158706105e-03,1.626595862873118969e+00,4.793435845684549702e-03,1.929920299679370194e-03,-3.309905665080093429e-01
3.025000000000000000e+01,8.401291488882184355e-02,-5.764392054457032621e-01,1.000172401673060651e-01,-2.028569755147240639e-01,1.992614332471853017e-02,2.411664765711611130e-06,1.204846447744568720e-03,7.849165991499814504e-03,1.585223514517358101e+00,2.339906014761931365e-03,1.231151307494832755e-03,-3.309894316321241314e-01
3.050000000000000000e+01,5.883119418647438786e-02,-5.733416409493931054e-01,1.000175662807867849e-01,-2.000553306835143597e-01,2.926186710424636545e-02,2.597457933872216388e-06,1.333189523692524490e-03,7.649888594787658015e-03,1.543850949967274122e+00,1.180534552310637340e-03,8.617736888450222869e-04,-3.309875711498756479e-01
3.075000000000000000e+01,3.403266386089567191e-02,-5.690992471529432439e-01,1.000178409136687624e-01,-1.967526564914799936e-01,3.825927299301876139e-02,1.661074489418144341e-06,1.431978170519746310e-03,7.480154650598726078e-03,1.502478334466435417e+00,1.913729280004416219e-03,5.801413787405857152e-04,-3.309865459653152930e-01
3.100000000000000000e+01,9.676025042605672019e-03,-5.637589936387613632e-01,1.000179434760321423e-01,-1.930120056245919202e-01,4.679854084906187595e-02,-4.278257295723777283e-08,1.510937723576553449e-03,7.096297692837667120e-03,1.461105552661468243e+00,4.494523037989589173e-03,6.805033215711069549e-05,-3.309875890987531433e-01
3.125000000000000000e+01,-1.419010406716850886e-02,-5.574009780108691858e-01,1.000178210336855750e-01,-1.889396916044516761e-01,5.448822493220443347e-02,-1.784699924889531531e-06,1.566922465088351835e-03,6.300185993294270433e-03,1.419732280929726365e+00,8.226300216221480582e-03,-9.191822762249548520e-04,-3.309910894630711531e-01
3.150000000000000000e+01,-3.753580972421097922e-02,-5.501665041754073560e-01,1.000175310831716846e-01,-1.847308676883942513e-01,6.077071089195019982e-02,-2.599989203283977110e-06,1.582496454471940843e-03,5.007367255169264605e-03,1.378358166536875817e+00,1.195473437179915381e-02,-2.421690771047009007e-03,-3.309962099315811312e-01
3.175000000000000000e+01,-6.036206642702953568e-02,-5.422680104894780362e-01,1.000172364618136661e-01,-1.806790775158334805e-01,6.509770767032917183e-02,-1.875941228362297971e-06,1.529244214837474766e-03,3.284728486058182632e-03,1.336983110681646769e+00,1.439854881012712570e-02,-4.214458133862466170e-03,-3.310008718638289271e-01
3.200000000000000000e+01,-8.271110487540131451e-02,-5.339752365454953908e-01,1.000171190515988240e-01,-1.771387119627651774e-01,6.712480571509008009e-02,4.776418585878920819e-08,1.375490752412514067e-03,1.347497806793467989e-03,1.295607514252103964e+00,1.451799067493190869e-02,-5.844096703166624766e-03,-3.310025150791887083e-01
3.225000000000000000e+01,-1.046692641411723496e-01,-5.255789509858189712e-01,1.000172542653772756e-01,-1.744460643977067960e-01,6.686807973276735761e-02,1.919632381879937476e-06,1.096478969459001047e-03,-4.838237870334257144e-04,1.254232245073895857e+00,1.182046116840811470e-02,-6.757342812804175911e-03,-3.309996307651320580e-01
3.250000000000000000e+01,-1.263584056727213301e-01,-5.173402106282684043e-01,1.000175459726974497e-01,-1.728205980379117213e-01,6.477550673230951517e-02,2.438644393446765230e-06,6.840661780913575175e-04,-1.856455427072662302e-03,1.212858201660881763e+00,6.525152358335855121e-03,-6.485135844460712673e-03,-3.309932401579739891e-01
3.275000000000000000e+01,-1.479153927657303191e-01,-5.094376949791168396e-01,1.000177929872564375e-01,-1.722779328262819265e-01,6.168814374521654903e-02,1.336637225587782713e-06,1.529969982802457094e-04,-2.471204651968651224e-03,1.171485666157794148e+00,-4.565572504172837106e-04,-4.825249821170925733e-03,-3.309870565086698302e-01
3.300000000000000000e+01,-1.694632072817704727e-01,-5.019269609013353728e-01,1.000178525203975349e-01,-1.725863467769648274e-01,5.869494142018236854e-02,-2.709908035286669000e-07,-4.582841264712775070e-04,-2.160506524133174767e-03,1.130113905594539059e+00,-7.727463103378850139e-03,-1.960036797002512668e-03,-3.309856840340217321e-01
3.325000000000000000e+01,-1.910806833034508767e-01,-4.947230643341934964e-01,1.000177707719645537e-01,-1.732881485322656512e-01,5.691415637440754710e-02,-7.160415732961688154e-07,-1.092848083779724040e-03,-9.381624839199161634e-04,1.088741414508007876e+00,-1.375520602800202156e-02,1.541928925428300099e-03,-3.309916583482262475e-01
3.350000000000000000e+01,-2.127793386156863475e-01,-4.876123380918209183e-01,1.000177594759480565e-01,-1.737881202770018008e-01,5.725641735064079113e-02,7.849947919815803776e-07,-1.685490102536766613e-03,9.945648741185840209e-04,1.047366763247400412e+00,-1.727980394744852571e-02,4.858688140048113627e-03,-3.310033131085768909e-01
3.375000000000000000e+01,-2.344946042365085581e-01,-4.802915294268890189e-01,1.000180199435408007e-01,-1.734887415721159121e-01,6.023267196529313167e-02,3.313034744207948406e-06,-2.175555728173670690e-03,3.291432840361200717e-03,1.005989529417001371e+00,-1.766035336803518582e-02,7.152983526804099386e-03,-3.310152177490677250e-01
3.400000000000000000e+01,-2.560949612322841462e-01,-4.724250571819274547e-01,1.000185542051874460e-01,-1.719338505283619922e-01,6.586005552730331281e-02,4.851774846130206213e-06,-2.519231004383452616e-03,5.543335753609148972e-03,9.646106596613978068e-01,-1.504831176831377369e-02,7.840790066745680423e-03,-3.310211794353062897e-01
3.425000000000000000e+01,-2.774071493118017151e-01,-4.637061397819887132e-01,1.000191267697655845e-01,-1.689162241180918178e-01,7.369128153583369423e-02,3.880405439787127471e-06,-2.698151901820983536e-03,7.378181215375850983e-03,9.232319895519809361e-01,-1.032444852037814158e-02,6.793742854248074371e-03,-3.310178389106616104e-01
3.450000000000000000e+01,-2.982504926024638903e-01,-4.539066843035851617e-01,1.000194166527797746e-01,-1.645139828267478954e-01,8.295636125782931969e-02,5.958773978199653148e-07,-2.722049198666723954e-03,8.549802922529539315e-03,8.818552563373990294e-01,-4.816164496771572177e-03,4.394793513820714412e-03,-3.310063993290898732e-01
3.475000000000000000e+01,-3.184703676506922543e-01,-4.429045065864777864e-01,1.000192364304836601e-01,-1.590435570567551027e-01,9.277168110078823360e-02,-3.268168870800784788e-06,-2.624707442784470542e-03,8.989586319531339687e-03,8.404812751829101591e-01,1.112376007370453196e-04,1.416354224666991268e-03,-3.309914872686094411e-01
3.500000000000000000e+01,-3.379611434777359813e-01,-4.306834994414939222e-01,1.000186443699880162e-01,-1.529455209511269287e-01,1.023525111636260365e-01,-5.780917105942339083e-06,-2.454386432574645182e-03,8.805651777994446053e-03,7.991097542138018150e-01,3.453006740495901360e-03,-1.244704196269941394e-03,-3.309782791738858920e-01
3.525000000000000000e+01,-3.566726105734472352e-01,-4.173104359757918713e-01,1.000178789510839661e-01,-1.466435504416447044e-01,1.111673696650995330e-01,-6.096004720694923540e-06,-2.261472067772425740e-03,8.230787635238146632e-03,7.577397096780923436e-01,4.822188396040609851e-03,-2.883960560636683861e-03,-3.309700108312882971e-01
3.550000000000000000e+01,-3.745997752472166598e-01,-4.028985113406294838e-01,1.000171950321465386e-01,-1.404267448548945085e-01,1.189953074793280025e-01,-4.695446547920328769e-06,-2.086934074203035568e-03,7.536928602824123115e-03,7.163700693971702949e-01,4.483206453146969597e-03,-3.237320789613677523e-03,-3.309672023743200353e-01
