time_total,x,y,z,vx,vy,vz,roll,pitch,yaw,roll_rate,pitch_rate,yaw_rate
9e-02,9.990277729710422827e-02,3.625133522484833004e-02,-1.587276402806220843e-01,3.812937066000311411e-04,-7.269946892676578277e-04,-1.171160324310046132e-03,2.832794145599397129e-01,1.769471565949456981e-02,1.564074465322078111e-02,3.493333204720606711e-01
2.500000000000000000e-01,-4.661279725138340879e-01,-9.637010696112639774e-02,9.994269841402772525e-02,3.576545747877753895e-02,-1.586360708273608089e-01,2.691817729947497623e-04,2.202679159671400155e-03,6.790150998973163744e-04,3.269482782080835870e-01,1.517767766975336788e-02,2.515064338947679140e-02,3.493808567804322918e-01
5.000000000000000000e-01,-4.614866126647417244e-01,-1.163194928623440538e-01,9.997117186808758549e-02,3.909409662791097501e-02,-1.606873128905072223e-01,1.932188117379061325e-04,4.325105513731652800e-03,3.520075225206623862e-03,3.706273409735073021e-01,6.743406766021165085e-04,2.797747545419388207e-02,3.494174965219121187e-01
7.500000000000000000e-01,-4.561500609298044240e-01,-1.365468228254821392e-01,9.999160525113354181e-02,4.674639165502388061e-02,-1.626518644211720210e-01,1.386200984121853808e-04,4.763139001054579602e-03,7.018535222359059342e-03,4.143077836618757059e-01,-1.437355996377994750e-02,2.568104696377127363e-02,3.494369669543148649e-01
1.000000000000000000e+00,-4.495951689242453364e-01,-1.568801570276049662e-01,1.000063268180370057e-01,5.832935658047742888e-02,-1.621287678398467547e-01,1.004602391088847750e-04,3.792175675257479332e-03,1.062663148192842001e-02,4.579787440969925183e-01,-2.224798281171397329e-02,1.969276044462763692e-02,3.494380507052988749e-01
1.250000000000000000e+00,-4.413929123352776651e-01,-1.769064705123954973e-01,1.000169434921158590e-01,7.278819470417453863e-02,-1.577622373536026745e-01,7.097088072952169519e-05,2.210259059267789036e-03,1.360374119577664916e-02,5.016384700770423200e-01,-2.067377568460371587e-02,1.073528834964682099e-02,3.494258390913317913e-01
1.500000000000000000e+00,-4.312787541977182171e-01,-1.961368088233695073e-01,1.000239328411562656e-01,8.858695962240703548e-02,-1.496497075882983752e-01,4.149134566484353635e-05,7.372035260842899236e-04,1.517274713424123130e-02,5.452940998083742885e-01,-1.153941412550230083e-02,-6.647197516838089775e-04,3.494059338455012265e-01
1.750000000000000000e+00,-4.192031209644711542e-01,-2.141778307094930056e-01,1.000271829712998245e-01,1.038615007620742048e-01,-1.391083678916419653e-01,1.210343661192545799e-05,-2.796544291797799339e-04,1.474831594603098935e-02,5.889530797019905117e-01,1.438967279490173390e-03,-1.334942526125180128e-02,3.493858442518741891e-01
2.000000000000000000e+00,-4.053592648962632272e-01,-2.308510993794880839e-01,1.000272420080899893e-01,1.166408350231746271e-01,-1.281392212580123591e-01,-8.038686627755797003e-06,-8.404493899271091046e-04,1.213684395605418506e-02,6.326177911003424414e-01,1.458980927786725744e-02,-2.517378726027068997e-02,3.493758753604502276e-01
2.250000000000000000e+00,-3.901759847885155619e-01,-2.462417645529771382e-01,1.000258821560244815e-01,1.251837918588817045e-01,-1.188689912462017190e-01,-1.042614362893649940e-05,-1.099263348939734809e-03,7.627646171502576108e-03,6.762873150287121993e-01,2.514614111869288918e-02,-3.342255409820770601e-02,3.493815572163269101e-01
2.500000000000000000e+00,-3.742633238969415022e-01,-2.606840808739732118e-01,1.000253523645381615e-01,1.283753399193248435e-01,-1.131046867972533565e-01,3.414665665060336659e-06,-1.175599113344444986e-03,1.946663385254080759e-03,7.199604574562259440e-01,3.132736006427670056e-02,-3.575494893904693217e-02,3.493954466333380471e-01
2.750000000000000000e+00,-3.583118171678269515e-01,-2.747000107553951298e-01,1.000269740962609483e-01,1.260513345142416086e-01,-1.120219697161701222e-01,2.130149742756472299e-05,-1.071684745551260316e-03,-3.904513853365044508e-03,7.636351987745212400e-01,3.215725502203276714e-02,-3.114939276460133508e-02,3.494008267196525019e-01
3.000000000000000000e+00,-3.429632460102162161e-01,-2.889065504024569964e-01,1.000302850639139401e-01,1.191182026374527497e-01,-1.159699073557826088e-01,2.880206066429219963e-05,-7.019303597592843440e-04,-8.870696337724619934e-03,8.073070716666589375e-01,2.738878866125686942e-02,-2.037873582101243711e-02,3.493869986269380057e-01
3.250000000000000000e+00,-3.286837607774331094e-01,-3.039059245778932272e-01,1.000334594082655376e-01,1.094013341391305572e-01,-1.243904727156258244e-01,1.968207798777809280e-05,2.033796771215796710e-05,-1.206601418086009937e-02,8.509710583480611934e-01,1.759775207836481586e-02,-5.824365152139394583e-03,3.493621312668653278e-01
3.500000000000000000e+00,-3.156722747429598908e-01,-3.201742992110803709e-01,1.000346982601328649e-01,9.925343275296695522e-02,-1.358754406869989162e-01,9.340075057222390397e-08,1.104503091852767748e-03,-1.294770856571495106e-02,8.946264913024483123e-01,4.277024031507464102e-03,9.251842613947841923e-03,3.493505673885195506e-01
3.750000000000000000e+00,-3.038274981292103938e-01,-3.379677167220260792e-01,1.000335372822897667e-01,9.103549961744725194e-02,-1.483810914197566111e-01,-1.648137768051967484e-05,2.452786472357847049e-03,-1.140869948478633912e-02,9.382798127419015310e-01,-1.027570422826199967e-02,2.166237811572323604e-02,3.493754140331976621e-01
4.000000000000000000e+00,-2.927800764889635921e-01,-3.572645075169691986e-01,1.000311297974187524e-01,8.661813735394888192e-02,-1.595857385246118587e-01,-1.921915729308450564e-05,3.883374287285675484e-03,-7.776545947907560763e-03,9.819416266096775425e-01,-2.336268582603916177e-02,2.913143889731753186e-02,3.494401062537337288e-01
4.250000000000000000e+00,-2.819784447881955591e-01,-3.777583521005202782e-01,1.000293786851479405e-01,8.703372013889668080e-02,-1.673254396737174077e-01,-7.269708272845296083e-06,5.185691579862230366e-03,-2.725302711764542463e-03,1.025619944429570163e+00,-3.250056772893374080e-02,3.077280734522104197e-02,3.495231898074062649e-01
4.500000000000000000e+00,-2.708039928511062344e-01,-3.989054921490042260e-01,1.000296208654200963e-01,9.235437960518692868e-02,-1.700072442179699217e-01,1.049276436369581400e-05,6.179357419616671176e-03,2.876917782679759214e-03,1.069314887075251130e+00,-3.604854362561239756e-02,2.712505484722389434e-02,3.495898198750853059e-01
4.750000000000000000e+00,-2.586863083714033285e-01,-4.200164051265334320e-01,1.000318057222664425e-01,1.018000877595024306e-01,-1.668959142809760821e-01,2.225974028628677773e-05,6.755077864172066328e-03,8.150259617760139894e-03,1.113018575953437228e+00,-3.363688796375080559e-02,1.980779563852908334e-02,3.496113625669162728e-01
5.000000000000000000e+00,-2.451929167622673711e-01,-4.403709559776881055e-01,1.000346600508741635e-01,1.140193440477615255e-01,-1.582015092326581884e-01,2.119149649026613359e-05,6.888712875096230683e-03,1.237573906950355934e-02,1.156719718837093014e+00,-2.624786626420845884e-02,1.095576223966707174e-02,3.495800388028911243e-01
5.250000000000000000e+00,-2.300777862006248564e-01,-4.593303684997275815e-01,1.000366018070436985e-01,1.274486044370687077e-01,-1.449504330109461780e-01,8.966017838752116041e-06,6.631386677424163170e-03,1.512097097325354467e-02,1.200409347588460962e+00,-1.591501845386166306e-02,2.615909719789792469e-03,3.495104664112525517e-01
5.500000000000000000e+00,-2.132852715428711077e-01,-4.764211571061746087e-01,1.000366993789945369e-01,1.406510484167963759e-01,-1.286833720860037222e-01,-6.712733569119203184e-06,6.084759011553469467e-03,1.629223256551750806e-02,1.244084213657307370e+00,-5.129790224419098280e-03,-3.731106681903352019e-03,3.494292932064856361e-01
5.750000000000000000e+00,-1.949174550931842276e-01,-4.913748746473945439e-01,1.000350617017323612e-01,1.525566216484097737e-01,-1.110708836955193457e-01,-1.789849956382525407e-05,5.371431513132822987e-03,1.610356651620696924e-02,1.287746615246132542e+00,3.862431954692426613e-03,-7.420041478518612371e-03,3.493610010460307391e-01
6.000000000000000000e+00,-1.751802248279421270e-01,-5.041204636865780353e-01,1.000325411326657005e-01,1.625639149781760440e-01,-9.355667348267986128e-02,-2.096298235829388616e-05,4.608220629245479184e-03,1.497472995746558684e-02,1.331401797159780909e+00,9.659483767569688323e-03,-8.587240917076337937e-03,3.493184021185709032e-01
6.250000000000000000e+00,-1.543255190067658877e-01,-5.147391575950232001e-01,1.000301077295156493e-01,1.705082666464209085e-01,-7.712396523833568718e-02,-1.726510001495833936e-05,3.887026140591099549e-03,1.338901228418753683e-02,1.375055015697866700e+00,1.200747232549095704e-02,-7.933692775016397414e-03,3.493014199740845926e-01
6.500000000000000000e+00,-1.326041084951679327e-01,-5.234012076078357056e-01,1.000283659295781724e-01,1.765372812621060494e-01,-6.223631784311645793e-02,-1.067626271633237109e-05,3.265425085615956784e-03,1.175326860448283606e-02,1.418709775218478075e+00,1.172028275237563949e-02,-6.365966495769183331e-03,3.493019823849032868e-01
6.750000000000000000e+00,-1.102366508642247805e-01,-5.303063523993821748e-01,1.000274383411178386e-01,1.809546313993239397e-01,-4.894474598440259200e-02,-4.658397281200501097e-06,2.767016859787540389e-03,1.030148013468792402e-02,1.462367522515030993e+00,1.024815666244459009e-02,-4.648017704497272098e-03,3.493102842640534722e-01
7.000000000000000000e+00,-8.740307644376883733e-02,-5.356452163252884979e-01,1.000271263458753085e-01,1.840903718161321645e-01,-3.709792246929323467e-02,-8.729466034207029518e-07,2.389701975675671049e-03,9.068833905274751098e-03,1.506028229041754596e+00,9.053917363218423955e-03,-3.184485920716278746e-03,3.493189378877418205e-01
7.250000000000000000e+00,-6.424438161119377932e-02,-5.395885742393814466e-01,1.000271356950337143e-01,1.862333318692342143e-01,-2.656103135015966052e-02,6.521366187981331286e-07,2.118501719134475558e-03,7.939615185069838488e-03,1.549691167766517053e+00,9.026884413442742491e-03,-1.998791058496408000e-03,3.493242693345782190e-01
7.500000000000000000e+00,-4.086854850003164563e-02,-5.422994957007126748e-01,1.000272352826198641e-01,1.876282034152863265e-01,-1.735292557060258423e-02,8.042225880105189336e-07,1.938562522091296638e-03,6.747237416939639611e-03,1.593355500283679893e+00,1.014924029864560859e-02,-8.876970740553483423e-04,3.493257456844122699e-01
7.750000000000000000e+00,-1.735399965275763109e-02,-5.439542177609503204e-01,1.000273277239480396e-01,1.885103518848621762e-01,-9.648723138340899175e-03,7.235967092731823869e-07,1.844080476040325977e-03,5.387687349985661490e-03,1.637020583093893533e+00,1.153085890712253481e-02,3.372104461405524582e-04,3.493247091552993955e-01
8.000000000000000000e+00,6.251500473473622400e-03,-5.447545215607084712e-01,1.000274405398885874e-01,1.891369493060739149e-01,-3.651030209102757666e-03,1.177569359495897431e-06,1.840240382836373211e-03,3.904602050680842408e-03,1.680686039551600786e+00,1.178846236533425199e-02,1.640959594364746433e-03,3.493232294330987919e-01
8.250000000000000000e+00,2.993357343807470650e-02,-5.449183617302166827e-01,1.000276450629855041e-01,1.897787650764735934e-01,6.138783648810277292e-04,2.088221407111313274e-06,1.937638593927686536e-03,2.515481729135485896e-03,1.724351733367819106e+00,9.621453671519569414e-03,2.688049213860611159e-03,3.493236005351505469e-01
8.500000000000000000e+00,5.370951766777982278e-02,-5.446448420310989746e-01,1.000279541936785893e-01,1.906593197216862046e-01,3.487657577323473659e-03,2.732040416477163648e-06,2.141332805135621499e-03,1.569229551449234693e-03,1.768017833943622996e+00,4.374679719333325785e-03,2.934821919376390340e-03,3.493285006064518194e-01
8.750000000000000000e+00,7.761629812733901457e-02,-5.440608021002532046e-01,1.000283016843511036e-01,1.918570344318493159e-01,5.773327418892700014e-03,2.759349617536926862e-06,2.438708226586555877e-03,1.447800695183310612e-03,1.811685031496654830e+00,-3.608215415454025903e-03,1.856717299265610473e-03,3.493409755068717093e-01
9.000000000000000000e+00,1.016859449295397649e-01,-5.431652364530374921e-01,1.000286578674450255e-01,1.932092633983297225e-01,8.676499390200986817e-03,3.134928885440617969e-06,2.791019853412514753e-03,2.442307644161909042e-03,1.855354631581703995e+00,-1.296212524094307247e-02,-7.812303049194376263e-04,3.493630815391283728e-01
9.250000000000000000e+00,1.259116341107381631e-01,-5.417913453124389989e-01,1.000291841792377290e-01,1.942649818709200060e-01,1.359134569203278298e-02,5.695546009642792411e-06,3.132501710452080621e-03,4.641924241408024177e-03,1.899028071286466002e+00,-2.162134687028552382e-02,-4.723711923764994415e-03,3.493931792512083301e-01
9.500000000000000000e+00,1.502130392821402205e-01,-5.396028928206971775e-01,1.000302240399686404e-01,1.943216653156279450e-01,2.178142561630445201e-02,1.115787926564238301e-05,3.378627586909356117e-03,7.870634935503726184e-03,1.942705737806664557e+00,-2.738734912205223471e-02,-9.186090883931668366e-03,3.494239152262877401e-01
9.750000000000000000e+00,1.744123690128782378e-01,-5.361325884276729736e-01,1.000320273407881294e-01,1.925549680974172340e-01,3.404358233609979661e-02,1.723235188699503048e-05,3.442198812857611562e-03,1.169342368830671337e-02,1.986385731261273824e+00,-2.856820071909340134e-02,-1.301213238463441377e-02,3.494437142681769415e-01
1.000000000000000000e+01,1.982314389260683429e-01,-5.308581687008332439e-01,1.000343697501206580e-01,1.882165831964863756e-01,5.045378044994637545e-02,1.903460149177189461e-05,3.253345933794619688e-03,1.549365130604405012e-02,2.030063706948028734e+00,-2.449009373798879258e-02,-1.499085338853162024e-02,3.494425438759539149e-01
1.025000000000000000e+01,2.213151548749408282e-01,-5.233005095959485375e-01,1.000364116872058395e-01,1.808482027378999768e-01,7.027329896472028770e-02,1.226302222502897763e-05,2.778080319331193478e-03,1.860265993334325393e-02,2.073734483920735006e+00,-1.571977464942506120e-02,-1.423148923886995848e-02,3.494189040721705219e-01
1.050000000000000000e+01,2.432793415361184930e-01,-5.131210268241771510e-01,1.000370253934215470e-01,1.704483015534236090e-01,9.204840265407517041e-02,-3.042222697801878391e-06,2.030161306035710173e-03,2.044711552997155804e-02,2.117394827771150290e+00,-3.928064228999297164e-03,-1.046654237160045235e-02,3.493828061575494082e-01
1.075000000000000000e+01,2.637733690365822725e-01,-5.001950663022758370e-01,1.000354513441439330e-01,1.575385407157876005e-01,1.138808403003662151e-01,-2.136175297221640533e-05,1.072708317894986501e-03,2.067419938110102301e-02,2.161045692295556098e+00,8.558988249315412078e-03,-4.172659250034617580e-03,3.493515312405082174e-01
1.100000000000000000e+01,2.825430760954105169e-01,-4.846441106157158285e-01,1.000318377280185050e-01,1.431052249713457292e-01,1.337981376609953810e-01,-3.452554942457443209e-05,8.724788554155334485e-06,1.922162749438396240e-02,2.204692283763892924e+00,1.937294246105822695e-02,3.536583718200481986e-03,3.493401675648036830e-01
1.125000000000000000e+01,2.994788079660132274e-01,-4.668204489844634542e-01,1.000272580806555317e-01,1.284286281195919921e-01,1.501271817184333390e-01,-3.662346146285800231e-05,-1.037244927726529813e-03,1.631666206534088462e-02,2.248341693295932586e+00,2.668301654275054627e-02,1.120816442580066345e-02,3.493530817039032788e-01
1.150000000000000000e+01,3.146372241667217962e-01,-4.472500152607887802e-01,1.000231756934377991e-01,1.148458080529811687e-01,1.617796737582725686e-01,-2.742172954985450198e-05,-1.941676454041669098e-03,1.240979197688040804e-02,2.291999493006266597e+00,2.957149738992780746e-02,1.743222673161215833e-02,3.493819572956947672e-01
1.175000000000000000e+01,3.282325234274087178e-01,-4.265486713450883927e-01,1.000207154616070127e-01,1.035092739280558810e-01,1.683902973566299976e-01,-1.201066880228833611e-05,-2.603246208607957329e-03,8.066841878460573323e-03,2.335667326907075569e+00,2.811832463472137625e-02,2.118178931561596687e-02,3.494112835010546037e-01
1.200000000000000000e+01,3.406004720068535052e-01,-4.053316749862221902e-01,1.000202005096901964e-01,9.519966799836927784e-02,1.702947375964551924e-01,2.631695862449608224e-06,-2.957871332794296832e-03,3.851873199696799911e-03,2.379342736170955597e+00,2.321554859420196446e-02,2.200954875424272067e-02,3.494271795159245575e-01
1.225000000000000000e+01,3.521446386849249044e-01,-3.841347734279227377e-01,1.000211747811467905e-01,9.022910367582073765e-02,1.683778825143516511e-01,1.147457074376394883e-05,-2.985016780712845558e-03,2.305547749042791735e-04,2.423020968924806340e+00,1.621547082105098680e-02,2.006403079453969451e-02,3.494239369245587534e-01
1.250000000000000000e+01,3.632769627869347762e-01,-3.633596387984561749e-01,1.000227944263876734e-01,8.844276656421820593e-02,1.638491227095856539e-01,1.330687171888680848e-05,-2.705255489554529019e-03,-2.487635213437690892e-03,2.466697461579292927e+00,8.547615455296820805e-03,1.595442725710918830e-02,3.494051128427322350e-01
1.275000000000000000e+01,3.743639984304465984e-01,-3.432487076828321659e-01,1.000242884313923691e-01,8.930086781178557531e-02,1.580065908002343811e-01,1.013608872930432233e-05,-2.171164819897325546e-03,-4.164614530847022232e-03,2.510369630203678870e+00,1.417492645982136069e-03,1.053778659008876122e-02,3.493798900592585133e-01
1.300000000000000000e+01,3.856868715262486980e-01,-3.238874568878715721e-01,1.000252401021838322e-01,9.200861442961960623e-02,1.520390724543971561e-01,5.226221888085822042e-06,-1.454735463875386423e-03,-4.814846753933575522e-03,2.554037335329539804e+00,-4.355882755237391879e-03,4.709449313386863435e-03,3.493578240658475886e-01
1.325000000000000000e+01,3.974187185173186365e-01,-3.052274486288149014e-01,1.000256179708150089e-01,9.566027551590079725e-02,1.468921099822937115e-01,1.258536279118848563e-06,-6.344755348768127759e-04,-4.567260119099846374e-03,2.597702219392079126e+00,-8.367366193800400420e-03,-7.481920548531653670e-04,3.493449549609658478e-01
1.350000000000000000e+01,4.096195673321384456e-01,-2.871216140057578081e-01,1.000256347522809203e-01,9.937114240912364727e-02,1.432030794407496699e-01,-5.493235367953621511e-07,2.154190905514747169e-04,-3.622359877039838232e-03,2.641366560191793944e+00,-1.056199876735438963e-02,-5.243536296225110444e-03,3.493425425314825028e-01
1.375000000000000000e+01,4.222460538118390505e-01,-2.693636961328613189e-01,1.000255614090777290e-01,1.023821879792761735e-01,1.412951419581186807e-01,-3.650694585175741010e-07,1.032630783149506275e-03,-2.213964478050646500e-03,2.685032255116226008e+00,-1.113463856438601761e-02,-8.398097608118985924e-03,3.493479976708560586e-01
1.400000000000000000e+01,4.351720917067549710e-01,-2.517255284962340856e-01,1.000255896976982029e-01,1.041312878374704848e-01,1.412136482781370106e-01,8.543515090181072269e-07,1.770898144866706004e-03,-5.787195045136790976e-04,2.728700264559273059e+00,-1.043343601362918711e-02,-1.004465116020144579e-02,3.493568447626366757e-01
1.425000000000000000e+01,4.482161970105537629e-01,-2.339879165687567264e-01,1.000257776605352755e-01,1.042895537031205272e-01,1.427887116675860824e-01,2.031080842829823021e-06,2.401346519216105389e-03,1.068100561133517252e-03,2.772370548438189530e+00,-8.883522774642511194e-03,-1.022510982168743296e-02,3.493646810454729135e-01
1.450000000000000000e+01,4.611710808299699926e-01,-2.159627503845988061e-01,1.000260682792765699e-01,1.027624126088346745e-01,1.457105291324157226e-01,2.447865416109016326e-06,2.911701328835760751e-03,2.553365421410640906e-03,2.816042352869326137e+00,-6.926706709956388305e-03,-9.190825218046391396e-03,3.493685617864321635e-01
1.475000000000000000e+01,4.738310958719045285e-01,-1.975054808937266870e-01,1.000263505753856558e-01,9.965550165917831660e-02,1.496064684603294614e-01,1.949014221924676771e-06,3.303971695188874947e-03,3.764414796199894424e-03,2.859714647846279600e+00,-4.965349329692942196e-03,-7.386660173749528407e-03,3.493676212431719996e-01
1.500000000000000000e+01,4.859679130777848077e-01,-1.786995958732448819e-01,1.000308268828434266e-01,9.371236308863603592e-02,1.480877553596173513e-01,1.210917664952889620e-04,-1.467335336416166619e-02,4.258712480280953463e-03,2.871289559006678260e+00,2.565914794790666309e-01,-6.915617718737154807e-02,-1.285005588647494257e-01
1.525000000000000000e+01,4.967937210533763803e-01,-1.620537190566439523e-01,1.000827927300578929e-01,7.802972421485326882e-02,1.124230577023691557e-01,6.861292414138447015e-04,-5.007169475567787437e-02,3.154111138689037926e-03,2.842542987729375970e+00,2.498491051542579833e-01,-6.117329664153249580e-02,-2.893327649055925099e-01
1.550000000000000000e+01,5.049279416684177013e-01,-1.523378100539125590e-01,1.001639947684673099e-01,5.158450459113581715e-02,4.114213785180164534e-02,4.058938072804310865e-04,-7.123553837490373408e-02,8.679124529972402852e-04,2.802974281301361614e+00,7.661788846117298379e-02,-6.770964905036503181e-03,-3.325289185860524355e-01
1.575000000000000000e+01,5.093837706626083150e-01,-1.525495022611702556e-01,1.001500939081889641e-01,2.071414462838093440e-02,-4.120316139322168641e-02,-5.812248222307312860e-04,-6.796751562204299268e-02,-9.400185607026307396e-04,2.760465775126906607e+00,-9.889364362667897590e-02,4.824141757008894998e-02,-3.446824602469953924e-01
1.600000000000000000e+01,5.101411007477371085e-01,-1.623082426464458328e-01,1.000472939589791138e-01,-6.552785689812759204e-03,-1.086274683835973254e-01,-8.804408422887917939e-04,-4.747156542513687738e-02,-7.630303908280831578e-04,2.717086690663453652e+00,-1.827573813900555677e-01,7.088406915377365447e-02,-3.482235489575425391e-01
1.625000000000000000e+01,5.079952545976044176e-01,-1.787447446532014761e-01,9.996368343546820079e-02,-2.569947786229777667e-02,-1.481687771104859552e-01,-4.109628499494030274e-04,-2.345012310520106988e-02,1.579468415811860526e-03,2.673480889205830824e+00,-1.670081910042969242e-01,5.636346881575671902e-02,-3.493267965370446815e-01
1.650000000000000000e+01,5.039670893614733860e-01,-1.983663689572998379e-01,9.994481917786345038e-02,-3.740522288525013894e-02,-1.617392927439338934e-01,4.228581827254684731e-05,-6.524691013342270862e-03,5.018500012723117222e-03,2.629838536445928465e+00,-9.599326107014427567e-02,2.179911729437838258e-02,-3.497052891240911010e-01
1.675000000000000000e+01,4.987428700594980779e-01,-2.185554907037112748e-01,9.996099034144956264e-02,-4.574025803945989260e-02,-1.597663133180041162e-01,1.665414800177886505e-04,-1.625933794341766713e-04,8.102419678791373397e-03,2.586159560490225218e+00,-2.261095246133487668e-02,-9.886421387819808657e-03,-3.497476627054176834e-01
1.700000000000000000e+01,4.924533394845588830e-01,-2.381084064966323688e-01,9.998039822166517043e-02,-5.500491341467850237e-02,-1.532671112541095226e-01,1.372428412914092702e-04,-1.740833476473848014e-03,9.865953543631726663e-03,2.542434261102948234e+00,2.063397784215598163e-02,-2.393005864554727941e-02,-3.496002396097808163e-01
1.725000000000000000e+01,4.848126443940191654e-01,-2.569457285896336596e-01,9.999510378065290528e-02,-6.738676192096747231e-02,-1.488885565737715355e-01,1.009915488113542271e-04,-6.170648207404737413e-03,1.017426771623121916e-02,2.498701597656959539e+00,2.886045061943345175e-02,-1.886675744629948137e-02,-3.494152265949302394e-01
1.750000000000000000e+01,4.754365162848379067e-01,-2.754724263354691449e-01,1.000055517160697710e-01,-8.242150319665646208e-02,-1.480624393013877937e-01,6.636030618513553590e-05,-9.289852563636260413e-03,9.502703365507379069e-03,2.455002429428395860e+00,1.556913200696838709e-02,-3.037861787577725466e-03,-3.492938979860759074e-01
1.775000000000000000e+01,4.641221889941730683e-01,-2.940338240889970867e-01,1.000114724092789481e-01,-9.796529669350320657e-02,-1.489546827652265815e-01,3.084253809821398405e-05,-9.451108756217773896e-03,8.473263239370039390e-03,2.411342100093321950e+00,-1.618475283477460117e-03,1.266669960384131551e-02,-3.492582035097595572e-01
1.800000000000000000e+01,4.509606958006528443e-01,-3.126799828464092990e-01,1.000138584108537093e-01,-1.117095854549132600e-01,-1.490917821689978773e-01,1.158717845904953416e-05,-7.262505136146310200e-03,7.500651783040507108e-03,2.367701007442276406e+00,-1.122728248390447020e-02,2.085774857551373276e-02,-3.492822902799681550e-01
1.825000000000000000e+01,4.362765748205050809e-01,-3.312119826376767051e-01,1.000150928285832852e-01,-1.223219667773768338e-01,-1.471008048916087052e-01,1.014497015305246342e-05,-4.350067119821851222e-03,6.712596295510242506e-03,2.324058518132444462e+00,-1.097676021147128526e-02,1.990354103366162586e-02,-3.493270103912615721e-01
1.850000000000000000e+01,4.204748633692352300e-01,-3.493566116036864733e-01,1.000165690037356919e-01,-1.297940648036400579e-01,-1.430749348897921713e-01,1.311841059173977362e-05,-2.134566843645702844e-03,6.090283447632243927e-03,2.280404382579785505e+00,-5.126156112773276596e-03,1.264486198266221752e-02,-3.493623673288453468e-01
1.875000000000000000e+01,4.038920084795722953e-01,-3.669157715345393034e-01,1.000182368339053718e-01,-1.351047355581750098e-01,-1.379450567298008690e-01,1.303655890678591746e-05,-1.206901144888607863e-03,5.657609317605923407e-03,2.236738333607763085e+00,3.032561075542993543e-04,3.523891572084217588e-03,-3.493785633882763308e-01
1.900000000000000000e+01,3.867125520010367135e-01,-3.838119341538493989e-01,1.000197572584438227e-01,-1.395852663847690633e-01,-1.325730555391642085e-01,1.133275648036958148e-05,-1.358780425161357263e-03,5.567879665012785695e-03,2.193064855670682434e+00,1.338208450397719790e-03,-3.879839162625330681e-03,-3.493824391490010228e-01
1.925000000000000000e+01,3.689634542457817523e-01,-4.000353840066046551e-01,1.000210930695756145e-01,-1.443586978337045856e-01,-1.271465985071041638e-01,1.023594271930676333e-05,-1.985733406754629487e-03,6.040299349173614343e-03,2.149388315775664804e+00,-2.480916711455023477e-03,-7.904351324974200760e-03,-3.493847691968683944e-01
1.950000000000000000e+01,3.505623885203586476e-01,-4.155495750737929761e-01,1.000223468778426023e-01,-1.500417809680033576e-01,-1.211041634724903115e-01,9.931920873345538147e-06,-2.515813047388381837e-03,7.203048076861819950e-03,2.105711431620258089e+00,-8.744166721120319105e-03,-8.557001271529611139e-03,-3.493905646670593113e-01
1.975000000000000000e+01,3.313857758666997610e-01,-4.302175871303151600e-01,1.000235867572577542e-01,-1.567060886117393470e-01,-1.134986180468918748e-01,9.876222318688193360e-06,-2.648324270047493559e-03,8.947794786086810462e-03,2.062036138255315176e+00,-1.387353211625514185e-02,-6.682859310351241429e-03,-3.493976840755763646e-01
2.000000000000000000e+01,3.113304500692580246e-01,-4.437887918051460212e-01,1.000247689963119080e-01,-1.639937057139994603e-01,-1.035439589319378934e-01,8.710021530865277615e-06,-2.368951435526367357e-03,1.088225768148476207e-02,2.018363994738809009e+00,-1.482384681014459714e-02,-3.255624104562654907e-03,-3.494006364664183906e-01
2.025000000000000000e+01,2.903567756204381012e-01,-4.559512909515637813e-01,1.000256080888386051e-01,-1.712829457219671170e-01,-9.108631624955841610e-02,4.130839337585258454e-06,-1.830578952558884875e-03,1.240922838464296636e-02,1.974695484155803982e+00,-1.015971994760565128e-02,8.947169668431140775e-04,-3.493954274163808549e-01
2.050000000000000000e+01,2.685109567897429050e-01,-4.664286966458696670e-01,1.000255897761042623e-01,-1.778516635092800557e-01,-7.683258859125749463e-02,-4.705252071397019554e-06,-1.216680008496237066e-03,1.289988082904113681e-02,1.931029638111000368e+00,-3.632928291408104031e-04,5.012882206434466498e-03,-3.493831066019796316e-01
2.075000000000000000e+01,2.459275465183185794e-01,-4.750865312182551148e-01,1.000243484963636853e-01,-1.830321036922719913e-01,-6.228591744265279950e-02,-1.448653433408683226e-05,-6.618929347573575348e-04,1.189350948271805479e-02,1.887364597812096312e+00,1.247249170152569912e-02,8.293383548170728953e-03,-3.493698695117812836e-01
2.100000000000000000e+01,2.228128348946889770e-01,-4.820135924170451114e-01,1.000221691388955003e-01,-1.863618241432793143e-01,-4.943104431175854296e-02,-1.880765760556687489e-05,-2.421203159890597263e-04,9.253266614903703918e-03,1.843698446356808018e+00,2.531474689580066884e-02,9.922568317470183488e-03,-3.493626169709949658e-01
2.125000000000000000e+01,1.994102860289356516e-01,-4.875530796548438461e-01,1.000200734257780388e-01,-1.877159175323662443e-01,-4.026965506828051461e-02,-1.319537048394027739e-05,-3.882309423644194032e-06,5.230308194481527589e-03,1.800029980303313071e+00,3.499877056667713426e-02,9.315030028166382606e-03,-3.493628296285508084e-01
2.150000000000000000e+01,1.759526297158083563e-01,-4.922726093520028989e-01,1.000192475034935580e-01,-1.873828594671602676e-01,-3.632913196037396153e-02,2.823199628916874892e-07,6.400408352467542249e-06,4.223775426506889627e-04,1.756359611781682206e+00,3.899837867070900937e-02,6.401550948185949670e-03,-3.493646482422035904e-01
2.175000000000000000e+01,1.526103672821970403e-01,-4.968776982109401885e-01,1.000201859965539480e-01,-1.860438892946216505e-01,-3.826464055799345260e-02,1.341832571949836596e-05,-2.633821062476854476e-04,-4.356138423262759761e-03,1.712689881700418360e+00,3.602078105994104690e-02,1.777387386156291469e-03,-3.493603848043820848e-01
2.200000000000000000e+01,1.294501121160447354e-01,-5.020868505718834029e-01,1.000222535668692375e-01,-1.846406442495036326e-01,-4.564903578066645262e-02,1.755395079583232793e-05,-8.528844100438148085e-04,-8.254953183598425295e-03,1.669024383122430732e+00,2.631494518986064735e-02,-3.404555374925764127e-03,-3.493496725941512837e-01
2.225000000000000000e+01,1.064155413491695290e-01,-5.084955490794950128e-01,1.000240723012313093e-01,-1.841562654261374721e-01,-5.700155932313789170e-02,1.010785380340841097e-05,-1.762275122814988210e-03,-1.057327727764895142e-02,1.625364946977291725e+00,1.162270869136338390e-02,-7.775457549090137449e-03,-3.493439248216571591e-01
2.250000000000000000e+01,8.333812298836860977e-02,-5.164593268697570405e-01,1.000244795816678939e-01,-1.853708462108859811e-01,-7.005107231538124091e-02,-3.363770872969383142e-06,-2.934052111906342193e-03,-1.090642495424358135e-02,1.581708981734581299e+00,-5.226592164296359894e-03,-1.019191805188106835e-02,-3.493607232840367782e-01
2.275000000000000000e+01,5.997601903429442688e-02,-5.260218838515462458e-01,1.000233368517302740e-01,-1.886655190997301168e-01,-8.217348539171069610e-02,-1.324607695343427956e-05,-4.254290182022206317e-03,-9.221957386918444577e-03,1.538049481532304252e+00,-2.098427675681548144e-02,-1.010129143318533491e-02,-3.494110673173521087e-01
2.300000000000000000e+01,3.607094583837533452e-02,-5.369036911399676093e-01,1.000215888194983943e-01,-1.939348471654185890e-01,-9.090027793445593085e-02,-1.283494554402283745e-05,-5.573466466773121034e-03,-5.851746513519571168e-03,1.494378387510310047e+00,-3.274078784717079221e-02,-7.696846698434550021e-03,-3.494888091870922420e-01
2.325000000000000000e+01,1.140747343668397328e-02,-5.485522520810961478e-01,1.000205582039650071e-01,-2.006314010765199718e-01,-9.437851378801970226e-02,-2.857998123725351228e-06,-6.738850923278798255e-03,-1.406516953092385846e-03,1.450691274482408755e+00,-3.857546634778046685e-02,-3.818964264002726577e-03,-3.495705188470961677e-01
2.350000000000000000e+01,-1.414098331336717182e-02,-5.602409124403759932e-01,1.000210247275846731e-01,-2.079239429183357135e-01,-9.167823744351903670e-02,9.572489274090429333e-06,-7.627198079130904050e-03,3.363420221672942367e-03,1.406990193841277215e+00,-3.793672615365976247e-02,3.469621681403169122e-04,-3.496264818916123840e-01
2.375000000000000000e+01,-4.059055561001036205e-02,-5.711926073234037116e-01,1.000227468542009973e-01,-2.149166393960272592e-01,-8.288537408747105595e-02,1.630296165863031200e-05,-8.168021352308185365e-03,7.727389640508760052e-03,1.363282847283527888e+00,-3.167394201296074713e-02,3.660973641263513736e-03,-3.496357613908616102e-01
2.400000000000000000e+01,-6.785299673246253382e-02,-5.807007280175112696e-01,1.000247041507129619e-01,-2.208617196785750414e-01,-6.897377443135573050e-02,1.355140506804606730e-05,-8.352235707764698799e-03,1.111787541570780947e-02,1.319578830862464525e+00,-2.173588773698131166e-02,5.374250395500486215e-03,-3.495960083150929099e-01
2.425000000000000000e+01,-9.576453935587152244e-02,-5.882220319809245979e-01,1.000258058993160754e-01,-2.253051541076186992e-01,-5.150323766601001135e-02,3.673192672965993996e-06,-8.226027768645215524e-03,1.322842824662728671e-02,1.275885424129813206e+00,-1.063077761118386491e-02,5.323809009764010440e-03,-3.495229239277948818e-01
2.450000000000000000e+01,-1.241265542430988467e-01,-5.934250327018321114e-01,1.000255335499795895e-01,-2.281300424126784798e-01,-3.222824465608018635e-02,-7.322030157119806425e-06,-7.873642218150046779e-03,1.404760588638615665e-02,1.232205231228181930e+00,-7.948885613806069275e-04,3.927258296593586807e-03,-3.494411832124905692e-01
2.475000000000000000e+01,-1.527447635353583744e-01,-5.961891033438900811e-01,1.000241217125346777e-01,-2.294961496778631094e-01,-1.271668785886290003e-02,-1.405124844900467237e-05,-7.394671781671033686e-03,1.382564301807006832e-02,1.188536413497965460e+00,5.969092914681082239e-03,1.994907369937142742e-03,-3.493731908991507540e-01
2.500000000000000000e+01,-1.814556762251433863e-01,-5.965614920085142714e-01,1.000222673665174394e-01,-2.297054928276689445e-01,5.932970395321854329e-03,-1.462259078711240732e-05,-6.881612340847997888e-03,1.298590709608179843e-02,1.144874641630486689e+00,8.849365890373628654e-03,4.307744550387743263e-04,-3.493317256684628225e-01
2.525000000000000000e+01,-2.101340988869174753e-01,-5.946886073049486576e-01,1.000206678594448700e-01,-2.290438944469979365e-01,2.321979888757836827e-02,-1.057172695340260639e-05,-6.402429731742864498e-03,1.200543515988352315e-02,1.101215283782544851e+00,8.101643809714726210e-03,-7.671488772617209701e-05,-3.493186594058461103e-01
2.550000000000000000e+01,-2.386822164163088789e-01,-5.907421829105783395e-01,1.000197158159442795e-01,-2.276517955594070108e-01,3.920165669801156660e-02,-4.792156076195529038e-06,-5.991160850528688860e-03,1.129519083711674754e-02,1.057554815550895366e+00,4.844662452095997371e-03,7.251625950230408289e-04,-3.493279914203785697e-01
2.575000000000000000e+01,-2.670066891249979757e-01,-5.848595185392562179e-01,1.000194690211839293e-01,-2.254641702266493852e-01,5.432176997037493210e-02,4.630825548568014490e-07,-5.647516076365677665e-03,1.110939673144262230e-02,1.013891305316494185e+00,6.503129960837412092e-04,2.590213351040556063e-03,-3.493500212453146681e-01
2.600000000000000000e+01,-2.949936388251644392e-01,-5.771107139423223842e-01,1.000197850817178685e-01,-2.222340330238004869e-01,6.916499368020775917e-02,4.177047869974708649e-06,-5.344422792105745293e-03,1.150423806936044270e-02,9.702243543853246166e-01,-2.939958806970199325e-03,4.879967175916584063e-03,-3.493746239367173656e-01
2.625000000000000000e+01,-3.224913511029781632e-01,-5.674967865755621288e-01,1.000204466014504301e-01,-2.176255993501469976e-01,8.421955113773339774e-02,6.013856321466159905e-06,-5.040818211537506123e-03,1.235161752716730163e-02,9.265548331178269370e-01,-4.826338216079917309e-03,6.793899743129039152e-03,-3.493934022022823216e-01
2.650000000000000000e+01,-3.493072608867594520e-01,-5.559736088981257485e-01,1.000212031720547068e-01,-2.113414424099906153e-01,9.970853253810500749e-02,5.728763688863083896e-06,-4.696078918814588013e-03,1.339796024434273571e-02,8.828844674493740996e-01,-4.577667506899522898e-03,7.636302360699984831e-03,-3.494012238236370860e-01
2.675000000000000000e+01,-3.752206527177638917e-01,-5.424903054104018851e-01,1.000217800793061357e-01,-2.032399916678960805e-01,1.155264807455761433e-01,3.236784864664860954e-06,-4.282444553965537339e-03,1.434659824762581776e-02,8.392152145229061500e-01,-2.433966895699407086e-03,7.027959549330251715e-03,-3.493971677722527147e-01
2.700000000000000000e+01,-4.000073652678987068e-01,-5.270286110900744836e-01,1.000219275671954400e-01,-1.934068206527204958e-01,1.312811411386987648e-01,-9.281492460268743180e-07,-3.792633220437140879e-03,1.493874048923875611e-02,7.955485267379930336e-01,8.779361405922029779e-04,5.001340308239368877e-03,-3.493843294963173141e-01
2.725000000000000000e+01,-4.234692965471180681e-01,-5.096316974766906815e-01,1.000215139546442866e-01,-1.821609847368445834e-01,1.464110425146989414e-01,-5.464936655320838777e-06,-3.241316433440801208e-03,1.501273943694994562e-02,7.518848058096265774e-01,4.425513526775888377e-03,1.966786091645128000e-03,-3.493682017184070454e-01
2.750000000000000000e+01,-4.454605237528896367e-01,-4.904157982820829820e-01,1.000205964552445398e-01,-1.699985887522146299e-01,1.603342355382624540e-01,-8.784360642717608297e-06,-2.660805768953608715e-03,1.453121081419958723e-02,7.082233282157797127e-01,7.348359576720331701e-03,-1.420019403828075809e-03,-3.493542375100153752e-01
2.775000000000000000e+01,-4.659032883891712773e-01,-4.695636752717829987e-01,1.000194068077922410e-01,-1.574927321805657254e-01,1.725839239378383072e-01,-9.790052538250521927e-06,-2.092727718185541808e-03,1.357586459635254719e-02,6.645626640717455791e-01,9.059813074399741470e-03,-4.438580666919334991e-03,-3.493457965138640486e-01
2.800000000000000000e+01,-4.847901728833838852e-01,-4.473038050387160847e-01,1.000182516862228310e-01,-1.451781732122461588e-01,1.828988401476404346e-01,-8.383625403691400394e-06,-1.578249285753010548e-03,1.231713580843441826e-02,6.209013276134196513e-01,9.341007383780876999e-03,-6.482584136983405090e-03,-3.493434114872548957e-01
2.825000000000000000e+01,-5.021724831109763976e-01,-4.238820852425504437e-01,1.000173872210890630e-01,-1.334500882708268277e-01,1.912535913972817081e-01,-5.379526106824644549e-06,-1.149415762569722414e-03,1.096894690675541753e-02,5.772383059085206547e-01,8.331230680582866338e-03,-7.199746566970645703e-03,-3.493454550441406070e-01
2.850000000000000000e+01,-5.181382232494934348e-01,-3.995335838645085458e-01,1.000169369000983993e-01,-1.225007621994862600e-01,1.978311552191818756e-01,-1.965677406873673904e-06,-8.234976853459530233e-04,9.739304902567353164e-03,5.335732502987812209e-01,6.438777612544175667e-03,-6.567500361773458833e-03,-3.493495211690744173e-01
2.875000000000000000e+01,-5.327854144572240491e-01,-3.744606883934172292e-01,1.000168846781462201e-01,-1.123079627808511449e-01,2.029527493088193746e-01,8.868662501322107280e-07,-6.012321044403966990e-04,8.786427721111773892e-03,4.899063482050065033e-01,4.204896929270209027e-03,-4.890930027476661501e-03,-3.493536360402100249e-01
2.900000000000000000e+01,-5.461974294103298933e-01,-3.488215589361494118e-01,1.000171251753605856e-01,-1.026761441340231645e-01,2.069878767424694899e-01,2.718478915786146693e-06,-4.688313269276592719e-04,8.188462500503411803e-03,4.462380524210580179e-01,2.155242798670175489e-03,-2.721523578614882134e-03,-3.493567693585157286e-01
2.925000000000000000e+01,-5.584263108530163056e-01,-3.227297675050714854e-01,1.000175260218871959e-01,-9.331864322257667210e-02,2.102690675184318847e-01,3.506810965691356232e-06,-4.028569780227185234e-04,7.932564333983125465e-03,4.025688517488114071e-01,6.719254941529596284e-04,-7.107503587528118645e-04,-3.493586789592144637e-01
2.950000000000000000e+01,-5.694878296060529310e-01,-2.962631350579491563e-01,1.000179666847450105e-01,-8.395826777333867397e-02,2.130319802799202356e-01,3.415813915176231716e-06,-3.766020537625516178e-04,7.925727300181723695e-03,3.588991618092789437e-01,-8.543961066899606279e-05,5.696888448095250137e-04,-3.493594918890820522e-01
2.975000000000000000e+01,-5.793687780685577993e-01,-2.694777032786888626e-01,1.000183490158559618e-01,-7.441799476406529834e-02,2.153930250957959702e-01,2.626969384280461833e-06,-3.664689657994457369e-04,8.025183374990812676e-03,3.152293028802277686e-01,-1.912972724825824991e-04,7.934125653119433741e-04,-3.493594154024491361e-01
3.000000000000000000e+01,-5.880434931724121128e-01,-2.424219727244745215e-01,1.000185988266837495e-01,-6.467536306663017320e-02,2.173653474800823771e-01,1.355520956342673933e-06,-3.569381877640095306e-04,8.080979947113825154e-03,2.715594944449709058e-01,1.034330888403115693e-04,-2.246930599493573392e-05,-3.493586888946219049e-01
3.025000000000000000e+01,-5.954938793830226729e-01,-2.151471809797843859e-01,1.000186759468781605e-01,-5.486438260311965465e-02,2.189027274336735052e-01,-6.431912050457807622e-08,-3.430715183823297059e-04,7.979106251234024602e-03,2.278898369341909314e-01,4.785552753759497193e-04,-1.526133663739454071e-03,-3.493576245088972354e-01
3.050000000000000000e+01,-6.017262028179001243e-01,-1.877112569621750549e-01,1.000185890295957197e-01,-4.522528792384975654e-02,2.199531615641081850e-01,-1.208347598323556434e-06,-3.300685919127397815e-04,7.672327925857848341e-03,1.842203061980625112e-01,6.636666682510181450e-04,-3.152683040645167661e-03,-3.493565621350610551e-01
3.075000000000000000e+01,-6.067791274036905547e-01,-1.601765347165897135e-01,1.000183961728662863e-01,-3.602004578752861230e-02,2.205024549345506735e-01,-1.743061418042988088e-06,-3.301246229321419035e-04,7.189083576272525984e-03,1.405507924768331085e-01,5.256748645944540367e-04,-4.320500371424164550e-03,-3.493557426732735172e-01
3.100000000000000000e+01,-6.107205635376542485e-01,-1.326034727092318954e-01,1.000181809172676489e-01,-2.744340994920412696e-02,2.205937931930392337e-01,-1.604656785322461957e-06,-3.575588910625570271e-04,6.618084605493680141e-03,9.688117243506862153e-02,9.385399657591326117e-05,-4.629211812817873167e-03,-3.493552414461617572e-01
3.125000000000000000e+01,-6.136348057947098589e-01,-1.050437282443712067e-01,1.000180159040651579e-01,-1.956010962498447303e-02,2.203197994251864522e-01,-1.005617162238764350e-06,-4.236714602873787173e-04,6.075075355398515398e-03,5.321136614026283213e-02,-4.810766242377987538e-04,-3.981768771134727367e-03,-3.493550389336270157e-01
3.150000000000000000e+01,-6.156046507274406387e-01,-7.753564622608268009e-02,1.000179379021853415e-01,-1.228765257461796219e-02,2.197944906438623613e-01,-2.691485573072954052e-07,-5.328450642397184692e-04,5.664591747750731196e-03,9.541345478118802917e-03,-1.008443911067564850e-03,-2.586246522762201527e-03,-3.493551371106856096e-01
3.175000000000000000e+01,-6.166944812876498094e-01,-5.010380466009446004e-02,1.000179464612570429e-01,-5.426058296603804981e-03,2.191191523667083696e-01,3.527887033002057659e-07,-6.809788564895308260e-04,5.450455779270826570e-03,-3.412889145162647381e-02,-1.339368817903297459e-03,-8.471956170476093199e-04,-3.493555781348192113e-01
3.200000000000000000e+01,-6.169393118823371935e-01,-2.276244229855216294e-02,1.000180185334256372e-01,1.281223501182306330e-03,2.183560552611325811e-01,7.457607068816114748e-07,-8.565494855987949678e-04,5.443879224653121185e-03,-7.779933898297571038e-02,-1.414641797050100302e-03,7.967819220776968438e-04,-3.493563474804531332e-01
3.225000000000000000e+01,-6.163421439508991462e-01,4.478817891584081258e-03,1.000181236779248833e-01,8.079707606630952277e-03,2.175181745444756953e-01,8.916481381466763435e-07,-1.043727755628525615e-03,5.610101954175401168e-03,-1.214699747774152655e-01,-1.266246139195036525e-03,2.017532595069822243e-03,-3.493572833809667211e-01
3.250000000000000000e+01,-6.148789484810438521e-01,3.160904720334034579e-02,1.000182321230580346e-01,1.515196810031893722e-02,2.165751941016181015e-01,8.112327975025067698e-07,-1.226361408814919014e-03,5.887440425809537664e-03,-1.651407395176326121e-01,-9.833865269999956648e-04,2.672199754736211564e-03,-3.493581057509917431e-01
3.275000000000000000e+01,-6.125083966756420528e-01,5.861159509911412213e-02,1.000183180159268242e-01,2.259360331159427498e-02,2.154699566596764426e-01,5.458387886934938460e-07,-1.391490169196398863e-03,6.209381683632643478e-03,-2.088115342644843442e-01,-6.667887431724816433e-04,2.795974348371459833e-03,-3.493585489337625583e-01
3.300000000000000000e+01,-6.091827537084819610e-01,8.546196820184866205e-02,1.000183622652061899e-01,3.041676401438280636e-02,2.141373644754100969e-01,1.620390133456690703e-07,-1.531407744769209883e-03,6.521563911205268543e-03,-2.524822444827400370e-01,-3.934618937857288111e-04,2.536924054215719017e-03,-3.493584869517011859e-01
3.325000000000000000e+01,-6.048570338214904751e-01,1.121278684032413625e-01,1.000183554617655457e-01,3.857183336379983729e-02,2.125193677137355575e-01,-2.554253316476554292e-07,-1.643938308601235448e-03,6.789689590825816017e-03,-2.961527745572888337e-01,-2.022818380918748812e-04,2.075168457477756696e-03,-3.493579639219688282e-01
3.350000000000000000e+01,-5.994949420494268821e-01,1.385706786998150142e-01,1.000182986886991310e-01,4.697503040850247585e-02,2.105731935601765914e-01,-6.277033768048832180e-07,-1.731253361569545443e-03,6.999154208607197107e-03,-3.398230707256345573e-01,-9.737543547946773492e-05,1.563390733252550263e-03,-3.493571344686627334e-01
