time_total,x,y,z,vx,vy,vz,roll,pitch,yaw,roll_rate,pitch_rate,yaw_rate
e-01,9.991198168363529808e-02,8.535465094726932267e-02,1.051008733429455999e-01,3.294933146330889895e-04,-1.885878463314424273e-03,2.035414545031150393e-02,-7.616384834213211219e-01,-1.925739112506574466e-02,-1.481506971875574952e-02,-2.621732611022196680e-01
2.500000000000000000e-01,-4.132418545779345531e-01,3.494394160033059138e-01,9.994475873137038946e-02,1.030446084751009822e-01,9.037479647631037338e-02,2.107374971276375158e-04,-2.505178247579824529e-03,1.644216678928516265e-02,-7.944083407525190932e-01,-2.906118772264743369e-02,-2.241030897561195612e-02,-2.619878893722544233e-01
5.000000000000000000e-01,-3.994239528625473379e-01,3.599899562717099322e-01,9.996664561687912398e-02,1.168610711468443392e-01,7.947703787883275695e-02,1.484463802967302180e-04,-2.686483159728352433e-03,1.158018543033278482e-02,-8.271540073678630423e-01,-2.824198168266920175e-02,-2.844420397756336483e-02,-2.619158723815990797e-01
7.500000000000000000e-01,-3.841724592875716549e-01,3.694366967634471477e-01,9.998288667768912008e-02,1.260479736086751734e-01,7.252302502126466155e-02,1.156752908445694226e-04,-2.042360934809735271e-03,6.666660817700543161e-03,-8.598877798278942164e-01,-2.358943111377823434e-02,-3.066879739562820145e-02,-2.619222778555924669e-01
1.000000000000000000e+00,-3.680860502796849953e-01,3.782415272696934005e-01,9.999595029545862990e-02,1.304086978563720745e-01,6.899059340675833818e-02,9.506723809070509988e-05,-8.938497213089422085e-04,2.280836156226490573e-03,-8.926254277609817489e-01,-1.879331255376373924e-02,-2.757565273423648669e-02,-2.619601399081387672e-01
1.250000000000000000e+00,-3.517394042209278648e-01,3.867931032124416468e-01,1.000066686124632953e-01,1.305147276069889006e-01,6.827914696500342329e-02,7.694265699454728991e-05,1.842874775223101792e-04,-1.163782616053411767e-03,-9.253721279437099323e-01,-1.412040631283243038e-02,-1.950171269833931090e-02,-2.619928498559826457e-01
1.500000000000000000e+00,-3.355871719819563115e-01,3.954047722467999293e-01,1.000150406804061476e-01,1.276588398105640010e-01,6.976328388460081853e-02,5.740603232409631328e-05,7.650192242157073360e-04,-3.328732584903784306e-03,-9.581236263380646934e-01,-8.250912054875535542e-03,-8.547671401071186420e-03,-2.620075560009128002e-01
1.750000000000000000e+00,-3.198916106298809736e-01,4.042999173473478258e-01,1.000209371310172984e-01,1.235449224439882504e-01,7.260210597359674500e-02,3.793156576314088522e-05,7.437387326292541111e-04,-3.975173984857658348e-03,-9.908747036481022619e-01,-3.819621935239143006e-04,2.364999999205455797e-03,-2.620103649119580047e-01
2.000000000000000000e+00,-3.046992894305404764e-01,4.135752701164130962e-01,1.000246377989309626e-01,1.198459738824647763e-01,7.561924391176114146e-02,2.287820612175716132e-05,2.922508837483983840e-04,-3.060184096727370118e-03,-1.023624470562692901e+00,8.690260930443175630e-03,1.063105393712924195e-02,-2.620123826020138713e-01
2.250000000000000000e+00,-2.898720681210670835e-01,4.231640277365383840e-01,1.000269326048866397e-01,1.178033640112717828e-01,7.742289717377411062e-02,1.541504071301018683e-05,-2.994287469188873833e-04,-8.209025077681205004e-04,-1.056375192353611991e+00,1.678935730223955411e-02,1.474464492816104748e-02,-2.620189577710188011e-01
2.500000000000000000e+00,-2.751582180376211384e-01,4.328289141312759436e-01,1.000287541105617656e-01,1.179940270105887673e-01,7.673948655177008360e-02,1.452040588568117965e-05,-7.766660855978949497e-04,2.220785930722157624e-03,-1.089128388956399629e+00,2.140291207927083258e-02,1.452262478985859827e-02,-2.620275460318158278e-01
2.750000000000000000e+00,-2.602790987905534981e-01,4.422026367016370085e-01,1.000306296017841878e-01,1.203072081965329554e-01,7.280550716013470258e-02,1.522592388828448240e-05,-1.002764705057926061e-03,5.353072136913644870e-03,-1.121882992100349696e+00,2.083504691955791882e-02,1.086744773848133915e-02,-2.620322499485924217e-01
3.000000000000000000e+00,-2.450067406616732446e-01,4.508712936961698503e-01,1.000323963379619319e-01,1.240972096000582808e-01,6.564080571104191630e-02,1.225150662143660537e-05,-9.642411975800750353e-04,7.841364444816185594e-03,-1.154636629291673433e+00,1.492382703513421213e-02,5.303676034276839403e-03,-2.620297543667636786e-01
3.250000000000000000e+00,-2.292149012047391687e-01,4.584776349192969391e-01,1.000334537113257705e-01,1.284378824618041259e-01,5.608961400378882634e-02,4.285127730057229213e-06,-7.296837056617422150e-04,9.113029735393348568e-03,-1.187387848696271453e+00,5.117936971947220637e-03,-5.036580181114469479e-04,-2.620220699744735260e-01
3.500000000000000000e+00,-2.128961684539026622e-01,4.648130527542724266e-01,1.000333768421802355e-01,1.323980138298722076e-01,4.561274990094729004e-02,-4.935502550388177143e-06,-3.993842530764178645e-04,8.901928202949035973e-03,-1.220137079498534893e+00,-6.001368216622838571e-03,-5.136188747344543754e-03,-2.620146286960372550e-01
3.750000000000000000e+00,-1.961470067439441689e-01,4.698709484877033327e-01,1.000323705843895600e-01,1.352710630809859649e-01,3.590041259101326571e-02,-9.944210292426282962e-06,-6.904936711966413207e-05,7.311001361173279783e-03,-1.252885950634336609e+00,-1.551090007183696974e-02,-7.680960244843510615e-03,-2.620117950224164494e-01
4.000000000000000000e+00,-1.791295449182680188e-01,4.738464651034063335e-01,1.000311675788679855e-01,1.367152285833244385e-01,2.842506648928259591e-02,-8.329601419100443716e-06,1.873208661355802926e-04,4.777450721335029828e-03,-1.285635924836431299e+00,-2.097520114277345513e-02,-7.856300027248803997e-03,-2.620136358081009975e-01
4.250000000000000000e+00,-1.620228307837953408e-01,4.770834689298609765e-01,1.000304770593532233e-01,1.367844036350078785e-01,2.406219687882302921e-02,-2.638817825457757581e-06,3.217964917040593118e-04,1.952863326900099649e-03,-1.318387345238000607e+00,-2.108599637588903439e-02,-6.000178173306865495e-03,-2.620165604740733456e-01
4.500000000000000000e+00,-1.449770914158020896e-01,4.799841778184025243e-01,1.000304889166253042e-01,1.358555454167198751e-01,2.287922928365547851e-02,2.148509611817483864e-06,3.125780967247179581e-04,-4.669942689531528072e-04,-1.351139457653977471e+00,-1.596159471197968610e-02,-2.921652261544023695e-03,-2.620170503338888901e-01
4.750000000000000000e+00,-1.280823065430233831e-01,4.829062271477497226e-01,1.000308548299244926e-01,1.344812844942393781e-01,2.414152260293026334e-02,2.986242141316283977e-06,1.641515943790302549e-04,-1.916018176121947122e-03,-1.383891262218658325e+00,-7.051266100631064723e-03,3.569616668294657092e-04,-2.620149776820669962e-01
5.000000000000000000e+00,-1.113576057943505559e-01,4.860741818981107465e-01,1.000311079447294832e-01,1.332135847275383866e-01,2.652379139818929893e-02,9.136528560761631009e-07,-9.306944323033099068e-05,-2.089505337539906797e-03,-1.416642467133329086e+00,3.309907159261569164e-03,2.901623725367566669e-03,-2.620134901344712830e-01
5.250000000000000000e+00,-9.476179728506714528e-02,4.895274055462239260e-01,1.000310983188160835e-01,1.324493772401568459e-01,2.846117320993679298e-02,-6.624639983399412826e-07,-4.066086868487503274e-04,-1.001487001374040762e-03,-1.449393739021827221e+00,1.255945514047885139e-02,4.122604028489781913e-03,-2.620157223615930953e-01
5.500000000000000000e+00,-7.821943786709306679e-02,4.931155196852284872e-01,1.000310593541406945e-01,1.323394954300184390e-01,2.854035132120039814e-02,4.707817635589256227e-07,-7.113059719266362534e-04,1.042592177993859623e-03,-1.482146037558572660e+00,1.858694149092294384e-02,3.905816424505157911e-03,-2.620215476641211128e-01
5.750000000000000000e+00,-6.165300595625097801e-02,4.965396118659148317e-01,1.000313008609195475e-01,1.327803539443177805e-01,2.582641753167510407e-02,3.364160535589185959e-06,-9.432711298576544438e-04,3.544169186791513472e-03,-1.514899639529813768e+00,2.024315039105217470e-02,2.583775318913081667e-03,-2.620273857598382494e-01
6.000000000000000000e+00,-4.501103615504120636e-02,4.994256286138641920e-01,1.000318591760638448e-01,1.334810050673742310e-01,2.004586528648460986e-02,5.071650452411813357e-06,-1.054713627440557718e-03,5.948749360020652750e-03,-1.547653736044185324e+00,1.754815954472224715e-02,7.686642482786444543e-04,-2.620291013047436612e-01
6.250000000000000000e+00,-2.828453515396519430e-02,5.014092264052465442e-01,1.000324271800426823e-01,1.340757814093725409e-01,1.159150290547224932e-02,3.475278450875037514e-06,-1.024955820914125442e-03,7.782252960430470316e-03,-1.580406950819597922e+00,1.156525566269752184e-02,-8.826589187901584619e-04,-2.620252718509045731e-01
6.500000000000000000e+00,-1.150855645236150727e-02,5.022104103158734345e-01,1.000325953792725736e-01,1.342420948784833201e-01,1.366305380193459131e-03,-9.285724809919497024e-07,-8.641057795471038380e-04,8.751191067862276740e-03,-1.613158308361204885e+00,4.008537688093479281e-03,-1.884287105782896012e-03,-2.620180715348986444e-01
6.750000000000000000e+00,5.249233855947915695e-03,5.016812658897439325e-01,1.000321641013751650e-01,1.337867395656082703e-01,-9.475345129931343063e-03,-5.623759766535318263e-06,-6.084836622425403687e-04,8.785247307566046784e-03,-1.645907849864865158e+00,-3.275946033246915703e-03,-2.046937651537167509e-03,-2.620113716453910113e-01
7.000000000000000000e+00,2.190748720006847547e-02,4.998189667542761727e-01,1.000312677768199626e-01,1.326793878012091921e-01,-1.981020443100211734e-02,-8.142372133850130322e-06,-3.097026545061525873e-04,8.019258443813390147e-03,-1.678656484162449614e+00,-8.792097660309427382e-03,-1.484566440350283028e-03,-2.620079619376665669e-01
7.250000000000000000e+00,3.839071385148720705e-02,4.967460527725292008e-01,1.000302505913606005e-01,1.310321074143745712e-01,-2.877820877328818652e-02,-7.692871480409709366e-06,-2.115486631333793796e-05,6.728721837432477537e-03,-1.711405317705252616e+00,-1.170488481314066465e-02,-5.200672695443459698e-04,-2.620080973627452736e-01
7.500000000000000000e+00,5.464358276569193651e-02,4.926677987297513051e-01,1.000294349297539132e-01,1.290409565154685689e-01,-3.591497043615005796e-02,-5.242767546652956338e-06,2.140288332455441279e-04,5.243698497929311260e-03,-1.744155032323870591e+00,-1.191826429113187168e-02,4.584003498130937229e-04,-2.620100632465257595e-01
7.750000000000000000e+00,7.063680427494767322e-02,4.878203786716607260e-01,1.000289652022874759e-01,1.269144709352092448e-01,-4.117102230730507184e-02,-2.429674487137334635e-06,3.705603239515395603e-04,3.867442240821044978e-03,-1.776905693475832937e+00,-9.943412250101419173e-03,1.131557737909261738e-03,-2.620118034358741022e-01
8.000000000000000000e+00,8.636454453482250715e-02,4.824230573270357758e-01,1.000288026706097066e-01,1.248127367993198261e-01,-4.483651079755811286e-02,-4.206021213987098552e-07,4.429715704074058905e-04,2.818829481044385875e-03,-1.809656963568058607e+00,-6.646439970350906043e-03,1.332705842210863117e-03,-2.620122051307244848e-01
8.250000000000000000e+00,1.018357994065111349e-01,4.766438892260506655e-01,1.000288203474574561e-01,1.228124917222399859e-01,-4.740930278259478103e-02,5.102957820580512530e-07,4.426365506429729996e-04,2.205692225556848789e-03,-1.842408441208124970e+00,-2.983818076833402982e-03,1.070221038666319818e-03,-2.620113464868505937e-01
8.500000000000000000e+00,1.170634071999706871e-01,4.705833134936707185e-01,1.000289014949457267e-01,1.209032295025680437e-01,-4.944735711500453101e-02,6.977531186601379787e-07,3.916417451413657918e-04,2.025178237585453789e-03,-1.875159876518842195e+00,1.968486150142473843e-04,5.026160462602037842e-04,-2.620099530388039777e-01
8.750000000000000000e+00,1.320544180900724840e-01,4.642754361972131760e-01,1.000289820320817008e-01,1.190107788705066783e-01,-5.143698830008079648e-02,5.670982434319988948e-07,3.156201821833035082e-04,2.181780802108476344e-03,-1.907911195070327137e+00,2.269462142193963503e-03,-1.124604203808667719e-04,-2.620087150514160412e-01
9.000000000000000000e+00,1.468047393291610769e-01,4.577036844550930184e-01,1.000290374028572210e-01,1.170398355943020607e-01,-5.369561506792955990e-02,3.065344497065373638e-07,2.372900818948937255e-04,2.514573090470190349e-03,-1.940662412119643188e+00,2.880307482820216019e-03,-4.811498341368179374e-04,-2.620079313568192680e-01
9.250000000000000000e+00,1.612997378302808149e-01,4.508258846006528708e-01,1.000290499108735798e-01,1.149245361269416177e-01,-5.631770533968459558e-02,-1.293734498785666247e-07,1.717423410900206586e-04,2.829540650845985359e-03,-1.973413550836708552e+00,1.973227995252035006e-03,-3.441849365948910361e-04,-2.620075473910432606e-01
9.500000000000000000e+00,1.755210242676455978e-01,4.436030808892703070e-01,1.000289930204038974e-01,1.126747936785505999e-01,-5.916785920053779096e-02,-7.908789231786411637e-07,1.238672091644829598e-04,2.936345348530490420e-03,-2.006164621211575128e+00,-1.963236742115551125e-04,4.469165799667022148e-04,-2.620073818815303879e-01
9.750000000000000000e+00,1.894580492027237162e-01,4.360260817455597349e-01,1.000288466694674860e-01,1.104053677684824625e-01,-6.192242879335933120e-02,-1.507267939843368482e-06,8.791265559432631172e-05,2.688489755898032171e-03,-2.038915640252024541e+00,-3.075323285431122780e-03,1.860076211280785406e-03,-2.620072893830708294e-01
1.000000000000000000e+01,2.031215570583342067e-01,4.281338127795351611e-01,1.000286280639689496e-01,1.083357869245828442e-01,-6.415628030779237101e-02,-1.886167950458955945e-06,4.902464056298000211e-05,2.021844192870666992e-03,-2.071666635557653624e+00,-5.888371257396089568e-03,3.644032801914468163e-03,-2.620071413194191567e-01
1.025000000000000000e+01,2.165547327814302536e-01,4.200185372222970948e-01,1.000284032604532580e-01,1.067542276807507268e-01,-6.546197598833118636e-02,-1.601299688428578930e-06,-1.342880874230109546e-05,9.817155748709578862e-04,-2.104417598005864587e+00,-7.793416324019745989e-03,5.349863376967933272e-03,-2.620067263506814514e-01
1.050000000000000000e+01,2.298375864874864782e-01,4.118153559030259259e-01,1.000282540389154373e-01,1.059479790580583197e-01,-6.557686272242096992e-02,-7.609453729070633783e-07,-1.210903267427120911e-04,-2.729925315697657486e-04,-2.137168418720500451e+00,-8.097982200869510358e-03,6.427841032949101890e-03,-2.620058092624453772e-01
1.075000000000000000e+01,2.430812221546696517e-01,4.036770797763776786e-01,1.000282141272073738e-01,1.061151656006365240e-01,-6.448509786786842113e-02,2.096954448756567931e-08,-2.910571647970653731e-04,-1.495776112454969692e-03,-2.169918900747815904e+00,-6.472450493778330108e-03,6.384219804333383756e-03,-2.620044748705009363e-01
1.100000000000000000e+01,2.564111612684286667e-01,3.957397376391963428e-01,1.000282286778204216e-01,1.072823035701516020e-01,-6.246282005547766636e-02,4.858393422510854043e-08,-5.305809442970700141e-04,-2.406380260739851215e-03,-2.202668906774693625e+00,-3.077897135724158486e-03,4.949435198190291728e-03,-2.620035342701460546e-01
1.125000000000000000e+01,2.699422278365498085e-01,3.880872096510458169e-01,1.000281860506052889e-01,1.092548384054304461e-01,-6.004810190493849176e-02,-8.161874438722235950e-07,-8.333173574536929243e-04,-2.759302954077239890e-03,-2.235418582357026285e+00,1.451308473552078955e-03,2.194078439203474718e-03,-2.620045025197521582e-01
1.150000000000000000e+01,2.837505214275942156e-01,3.807243949505866309e-01,1.000280112066170290e-01,1.116204412047416411e-01,-5.793947410002164844e-02,-1.891980294260529692e-06,-1.178314550101972405e-03,-2.406953523384813224e-03,-2.268168474328168038e+00,6.173930629391608492e-03,-1.456388563732168885e-03,-2.620088468376690072e-01
1.175000000000000000e+01,2.978495400431899198e-01,3.735663494568199350e-01,1.000277458463038754e-01,1.138094166854583811e-01,-5.684928329008095971e-02,-2.133271664849824018e-06,-1.532382242678060691e-03,-1.338343285992406491e-03,-2.300919378820588168e+00,1.010105151394700800e-02,-5.318675498193340886e-03,-2.620168295954597437e-01
1.200000000000000000e+01,3.121769002302595686e-01,3.664465274856094634e-01,1.000275391942523490e-01,1.151988259650955915e-01,-5.735197027795224667e-02,-9.870046375616504177e-07,-1.855602192210961589e-03,3.176496409703189567e-04,-2.333671934847569851e+00,1.245853060141975666e-02,-8.628464409770764815e-03,-2.620267901376257536e-01
1.225000000000000000e+01,3.265954876077258873e-01,3.591420903938505882e-01,1.000275451137075805e-01,1.152335448332797996e-01,-5.976752904810880146e-02,1.074637189316129809e-06,-2.108800278417657503e-03,2.323828122707447073e-03,-2.366426196115957392e+00,1.286972666038338313e-02,-1.073853213789997124e-02,-2.620355605341372907e-01
1.250000000000000000e+01,3.409091285047688435e-01,3.514099133654278728e-01,1.000278021554077967e-01,1.135329694273990025e-01,-6.410786410518849732e-02,2.812686544935010533e-06,-2.261147307620913361e-03,4.390219068279427143e-03,-2.399181474699595196e+00,1.141172645865803220e-02,-1.127715957665969063e-02,-2.620399205168628121e-01
1.275000000000000000e+01,3.548892053131434410e-01,3.430246932697160189e-01,1.000281891875726137e-01,1.099572987453593803e-01,-7.009402757420137020e-02,3.064436026080506955e-06,-2.295960693191216335e-03,6.237074573442757258e-03,-2.431936585826352637e+00,8.543411126733322508e-03,-1.022211291646721483e-02,-2.620382090177559853e-01
1.300000000000000000e+01,3.683061382853599075e-01,3.338108812124331859e-01,1.000284885187891770e-01,1.046199767557602078e-01,-7.723240945436148086e-02,1.503982397020304344e-06,-2.213306265406359170e-03,7.648304253051432106e-03,-2.464690356843916685e+00,4.940859626272425115e-03,-7.872011220182280333e-03,-2.620310800178430322e-01
1.325000000000000000e+01,3.809590008180114284e-01,3.236626547534913190e-01,1.000285070569786883e-01,9.784884061477394646e-02,-8.492373749405628114e-02,-1.219750591219561713e-06,-2.028964110352149582e-03,8.502374742093986998e-03,-2.497442101801705228e+00,1.298092291526966886e-03,-4.728081862444832861e-03,-2.620210023192634519e-01
1.350000000000000000e+01,3.926978224652962202e-01,3.125498432656631520e-01,1.000281712951182206e-01,9.011285043497614666e-02,-9.257369662923112252e-02,-3.972082384421799639e-06,-1.770374320733382250e-03,8.775192043430994279e-03,-2.530191815969248914e+00,-1.843269654010713451e-03,-1.329653099642486187e-03,-2.620109412508939695e-01
1.375000000000000000e+01,4.034358417190044843e-01,3.005114037739390342e-01,1.000275437318955962e-01,8.193918237419896278e-02,-9.967879834829872221e-02,-5.803979102820146891e-06,-1.470955358419602293e-03,8.518586227633595867e-03,-2.562940045829623426e+00,-4.185587505015474045e-03,1.894614698724585546e-03,-2.620030893013628459e-01
1.400000000000000000e+01,4.131520736562722118e-01,2.876405984738225619e-01,1.000267702512780688e-01,7.384395200152632510e-02,-1.058735070341365325e-01,-6.338107163841579935e-06,-1.164450350165955727e-03,7.825913560032770472e-03,-2.595687575230122501e+00,-5.669447173532414334e-03,4.702563870410496165e-03,-2.619982936815581365e-01
1.425000000000000000e+01,4.218868693436118034e-01,2.740668001240789131e-01,1.000260074482556272e-01,6.628941414695928291e-02,-1.109396663108351416e-01,-5.726888040381934768e-06,-8.806570722614427823e-04,6.799931777001650898e-03,-2.628435120208435727e+00,-6.389938547030508086e-03,7.014485399230606898e-03,-2.619962484264689584e-01
1.450000000000000000e+01,4.297337997124785480e-01,2.599378935667919222e-01,1.000253736611000366e-01,5.966556455185956231e-02,-1.147911427527703726e-01,-4.370557551274810514e-06,-6.431801257236562357e-04,5.535766866446232594e-03,-2.661183150896600402e+00,-6.483482141086300242e-03,8.807251719877952703e-03,-2.619960668979890994e-01
1.475000000000000000e+01,4.368300603773957458e-01,2.454052560738052280e-01,1.000249353047829165e-01,5.428142692473547637e-02,-1.174509301430938790e-01,-2.672600468885024115e-06,-4.689944394792075586e-04,4.124068353143202012e-03,-2.693931850418737728e+00,-6.041357508757785703e-03,9.985374688077093552e-03,-2.619967980005243890e-01
1.500000000000000000e+01,4.433453780427416557e-01,2.306113372751703305e-01,1.000247125946433779e-01,5.034722372052517075e-02,-1.190337020788562739e-01,-9.745040634676676086e-07,-3.689557589825109753e-04,2.669302344651025300e-03,-2.726681160571627682e+00,-5.088521409108175651e-03,1.030412611760412461e-02,-2.619977031189509864e-01
1.525000000000000000e+01,4.494673988202493864e-01,2.156788470952374082e-01,1.000246840813043964e-01,4.793581790410732235e-02,-1.197368093968806946e-01,3.876996165147074526e-07,-3.481860761236383749e-04,1.309872038892200127e-03,-2.759430870326053498e+00,-3.631289678734054855e-03,9.401074496241819053e-03,-2.619983831684685183e-01
1.550000000000000000e+01,4.553810532006519751e-01,2.007008771483789478e-01,1.000247857598482726e-01,4.692769426157975682e-02,-1.198324507760673008e-01,1.082962638986619363e-06,-4.055750374873765170e-04,2.242403308829036038e-04,-2.792180736752540415e+00,-1.741426606712306608e-03,6.943567877509821198e-03,-2.619989043889839331e-01
1.575000000000000000e+01,4.612410786640617211e-01,1.857325923600234852e-01,1.000249216709524075e-01,4.696111326616939780e-02,-1.196486966073319336e-01,9.703216630564530188e-07,-5.323387828590304613e-04,-3.879581765733056066e-04,-2.824930634238692395e+00,3.755353794212688465e-04,2.841282910008836177e-03,-2.619998927341249395e-01
1.600000000000000000e+01,4.671403508070328114e-01,1.707865593290832373e-01,1.000250058089734301e-01,4.741910600057849812e-02,-1.195300837830955143e-01,3.713499733740638393e-07,-7.103691125175327003e-04,-3.503069673894946179e-04,-2.857680682890863189e+00,2.373573524488704987e-03,-2.567565946274752518e-03,-2.620023515441433637e-01
1.625000000000000000e+01,4.730805585823239512e-01,1.558343497922627940e-01,1.000250259890911320e-01,4.748140181320754244e-02,-1.197784162141747044e-01,9.266497657573335848e-08,-9.116401985451315273e-04,4.319142349185298721e-04,-2.890431249836229455e+00,3.837491794853363416e-03,-8.449403811814935883e-03,-2.620070043047879604e-01
1.650000000000000000e+01,4.789542545169338528e-01,1.408161894522933499e-01,1.000250775404894626e-01,4.625166905491031460e-02,-1.205864810115683666e-01,9.215865314740371698e-07,-1.099951536054397322e-03,1.918750956791075287e-03,-2.923182734835474861e+00,4.410839957420306830e-03,-1.358101317134026084e-02,-2.620133872395311592e-01
1.675000000000000000e+01,4.845469661246377124e-01,1.256582302551199348e-01,1.000253076285808618e-01,4.294439733472537463e-02,-1.219856939698827358e-01,2.797274024027841648e-06,-1.235698809315208084e-03,3.908640340230890887e-03,-2.955935195765160284e+00,3.930875088788163794e-03,-1.661722047149419290e-02,-2.620194082183236461e-01
1.700000000000000000e+01,4.895644285285062902e-01,1.102942869328614045e-01,1.000257731143447959e-01,3.709095363484985614e-02,-1.238289188860434292e-01,4.384950889135707796e-06,-1.283335899044852702e-03,6.051501571090977388e-03,-2.988688062629280662e+00,2.514886380037346242e-03,-1.644996289943732523e-02,-2.620220755948686198e-01
1.725000000000000000e+01,4.936838703768891001e-01,9.468669716019495475e-02,1.000263107967153259e-01,2.871006896994388047e-02,-1.258210709337498068e-01,3.725927578665705284e-06,-1.220071328980851981e-03,7.904310952497443227e-03,-3.021440241039426766e+00,5.590419343284254222e-04,-1.255345310959248353e-02,-2.620193137484795320e-01
1.750000000000000000e+01,4.966213762270378917e-01,7.884029633002073711e-02,1.000265556014206664e-01,1.838974686440598624e-02,-1.275954609582788390e-01,-1.954560082755000627e-07,-1.043551131483801912e-03,9.019075144010414366e-03,-3.054190683716904609e+00,-1.357562373393464026e-03,-5.209846701986089665e-03,-2.620117123893171973e-01
1.775000000000000000e+01,4.982017299714510683e-01,6.280477685404074750e-02,1.000261548208960377e-01,7.245552675458075478e-03,-1.288183082425845838e-01,-6.117300639266155705e-06,-7.761444845966851414e-04,9.043278606430098926e-03,-3.086939114523500116e+00,-2.637241592850501568e-03,4.459163140645356835e-03,-2.620026982894341216e-01
1.800000000000000000e+01,4.984145908596909202e-01,4.666367868363604371e-02,1.000250593721328657e-01,-3.250157744067210669e-03,-1.292928866618611727e-01,-1.071599516102003328e-05,-4.640792976300445790e-04,7.808334303802589964e-03,-3.119686346832193813e+00,-2.845695920290338375e-03,1.467716607849605531e-02,-2.619965663154761315e-01
1.825000000000000000e+01,4.974422987246541750e-01,3.051209987087629555e-02,1.000291783455642541e-01,-1.154096334457598190e-02,-1.290311513102704311e-01,9.768519620456214323e-05,-1.713795660850154926e-04,5.383587854312939409e-03,3.129913381909875891e+00,-1.807519739461851179e-03,2.337929287442569795e-02,-2.532008454641065942e-01
1.850000000000000000e+01,4.956501881699904577e-01,1.442889619724659588e-02,1.000314761272255021e-01,-1.630025904677682644e-02,-1.282749635143384803e-01,-1.521736182332924794e-05,3.162947996570103856e-05,2.080818955026996191e-03,3.097779431806610084e+00,1.153447199475325381e-04,2.864559650060477178e-02,-2.595760706689368424e-01
1.875000000000000000e+01,4.935378863344594969e-01,-1.550274594351757186e-03,1.000292810215228784e-01,-1.673172738829917586e-02,-1.274482510319903672e-01,-1.500271400217269321e-05,8.567332336228881365e-05,-1.590389971214654702e-03,3.065193951258300853e+00,2.488633702378553400e-03,2.915272654644716563e-02,-2.613534704750287152e-01
1.900000000000000000e+01,4.916589930027126520e-01,-1.744842675388234149e-02,1.000280717066711206e-01,-1.276782747752639932e-02,-1.270472071410570503e-01,-5.169025920562439175e-06,-5.264918974601268147e-05,-5.012004738607919209e-03,3.032488430427209725e+00,4.579931626034727289e-03,2.444722819969625399e-02,-2.618254890170329530e-01
1.925000000000000000e+01,4.905237973035266874e-01,-3.334878642088696249e-02,1.000277374183928258e-01,-5.141065214226287101e-03,-1.275169980661167712e-01,-1.664066191360820522e-06,-3.956196056235804681e-04,-7.567849787595322918e-03,2.999752899922564442e+00,5.677746094979565887e-03,1.506300821613292852e-02,-2.619475935888176954e-01
1.950000000000000000e+01,4.905031437968404573e-01,-4.937957225855392485e-02,1.000273419254318896e-01,4.700299044514061504e-03,-1.291185198408903168e-01,-5.486430954096121246e-06,-9.202387105140313796e-04,-8.756583044173135710e-03,2.967011308303782346e+00,5.278000559969080359e-03,2.441303385139087859e-03,-2.619807186368644514e-01
1.975000000000000000e+01,4.917521502440361236e-01,-6.568423760558195212e-02,1.000262298650053949e-01,1.481661819305441809e-02,-1.318326177237720831e-01,-1.198985929721224128e-05,-1.570003627141756865e-03,-8.286737803967164293e-03,2.934268087930026692e+00,3.230924384545210380e-03,-1.131902467455532697e-02,-2.620007089995493033e-01
2.000000000000000000e+01,4.941690527224372742e-01,-8.238357626856751548e-02,1.000244853043665283e-01,2.310281706046876313e-02,-1.353269323221300835e-01,-1.473982210102256106e-05,-2.262800602557756870e-03,-6.137360289121643851e-03,2.901521348337407158e+00,-1.892809274293603093e-04,-2.383415108474089272e-02,-2.620295727426733001e-01
2.025000000000000000e+01,4.973982675778841900e-01,-9.953849082939102144e-02,1.000228798178188910e-01,2.765755025483521840e-02,-1.389978888231644394e-01,-9.760236977504139550e-06,-2.903732048383425753e-03,-2.572840082657896002e-03,2.868768125330541263e+00,-4.313948130538106975e-03,-3.287317134678017366e-02,-2.620677485189911171e-01
2.050000000000000000e+01,5.008786756619857394e-01,-1.171227142156937712e-01,1.000223520103568353e-01,2.712670669159479575e-02,-1.420833682875773385e-01,1.585319274347544101e-06,-3.400809406797160924e-03,1.893193781978997660e-03,2.836007471476108766e+00,-8.211698732483943206e-03,-3.679086892393170632e-02,-2.621041605766471494e-01
2.075000000000000000e+01,5.039294771049424027e-01,-1.350130770375580214e-01,1.000233313844604566e-01,2.095369597540165663e-02,-1.438241571825440990e-01,1.307594858619138994e-05,-3.680798269191367864e-03,6.582115016864598621e-03,2.803241821941302003e+00,-1.090318065930966952e-02,-3.487378230469994483e-02,-2.621242821872944995e-01
2.100000000000000000e+01,5.058583235174443082e-01,-1.530012074055420168e-01,1.000253523117378002e-01,9.483580949911269570e-03,-1.436381491991717829e-01,1.746409538204761488e-05,-3.702253482088720474e-03,1.077045701409273804e-02,2.770476271857055028e+00,-1.161360775964094365e-02,-2.751682039624313292e-02,-2.621186500174451095e-01
2.125000000000000000e+01,5.060714596849448244e-01,-1.708255163797217369e-01,1.000272435472643329e-01,-6.104639825441942474e-03,-1.412645755718432983e-01,1.128260493300647322e-05,-3.463135955557914911e-03,1.382438114019936271e-02,2.737716207409452540e+00,-9.997138792903323759e-03,-1.616981356072275111e-02,-2.620885313794796834e-01
2.150000000000000000e+01,5.041646475548742234e-01,-1.882171189055773519e-01,1.000278005843537044e-01,-2.402758460851435462e-02,-1.368395308443349501e-01,-2.658016601612659969e-06,-3.001334934364155958e-03,1.532074340914301586e-02,2.704964683571158712e+00,-6.264926597956423614e-03,-3.045094184145459657e-03,-2.620455456745856004e-01
2.175000000000000000e+01,4.999772854915872089e-01,-2.049493689289751952e-01,1.000265068218029602e-01,-4.224257209133817220e-02,-1.308791642063772687e-01,-1.692568384023350182e-05,-2.387733593571742495e-03,1.512761602270118987e-02,2.672221109323992039e+00,-1.171508342004019647e-03,9.354937718014788919e-03,-2.620054623550223671e-01
2.200000000000000000e+01,4.935998159677136288e-01,-2.208791545606625106e-01,1.000238235470186088e-01,-5.883487397950478565e-02,-1.241696974333292985e-01,-2.418231711429844332e-05,-1.712945843218794707e-03,1.342544081283684847e-02,2.639481956983613653e+00,4.145611286627253617e-03,1.877642667457018327e-02,-2.619801097273739554e-01
2.225000000000000000e+01,4.853345294695909362e-01,-2.359695843072869836e-01,1.000208683844861640e-01,-7.236387446347847252e-02,-1.175877450910558925e-01,-2.164422408542038354e-05,-1.070287966578808807e-03,1.066367804695675728e-02,2.606742908259735092e+00,8.436918823570666373e-03,2.368712357688782313e-02,-2.619723981259874379e-01
2.250000000000000000e+01,4.756198269314658167e-01,-2.502879574271838492e-01,1.000187282449267329e-01,-8.209506355922530085e-02,-1.118936781942172221e-01,-1.223706229291862769e-05,-5.385511200605016483e-04,7.462494830708620887e-03,2.574001004527875835e+00,1.065618032784835210e-02,2.357443805114126795e-02,-2.619770562005112602e-01
2.275000000000000000e+01,4.649355111173866795e-01,-2.639789620662301162e-01,1.000178859917908447e-01,-8.807226738952511624e-02,-1.075497646485885361e-01,-1.924001081796240326e-06,-1.682707984325945217e-04,4.480866286781214243e-03,2.541255554526780536e+00,1.024021772863107672e-02,1.900677220391209024e-02,-2.619856984665072663e-01
2.300000000000000000e+01,4.537100135206764695e-01,-2.772193850107928514e-01,1.000181155206457256e-01,-9.102199500176680336e-02,-1.046106645565061388e-01,4.533751107976550527e-06,2.568543253447118688e-05,2.279397831898428029e-03,2.508507551906894228e+00,7.277298627299841165e-03,1.145182328189040324e-02,-2.619922558181085881e-01
2.325000000000000000e+01,4.422489693562556834e-01,-2.901655863378475586e-01,1.000188322622940773e-01,-9.212000900786970758e-02,-1.027168463031043477e-01,6.212964602433370623e-06,6.393484051391773112e-05,1.207492893631353058e-03,2.475758368588671043e+00,2.510726433861376096e-03,2.897787449243708398e-03,-2.619952802143232229e-01
2.350000000000000000e+01,4.306987102316134353e-01,-3.029071864220314603e-01,1.000195673668665131e-01,-9.268054310944744134e-02,-1.011952703941154663e-01,5.427138137087595756e-06,-4.783541429165367368e-06,1.339858565621917337e-03,2.443008792789047146e+00,-2.835836476412421665e-03,-4.632723389881129167e-03,-2.619964671911261811e-01
2.375000000000000000e+01,4.190494991087345134e-01,-3.154390731735399189e-01,1.000202005464342209e-01,-9.384427546910359408e-02,-9.924271733829216624e-02,4.904762913521560186e-06,-1.162859682434625412e-04,2.476818213759876541e-03,2.410258959935349221e+00,-7.374099680812676479e-03,-9.557717811104681979e-03,-2.619975721912056188e-01
2.400000000000000000e+01,4.071738029496592692e-01,-3.276591345562874236e-01,1.000208375717455134e-01,-9.633828528122830026e-02,-9.614350357254144996e-02,5.361601667087763472e-06,-2.060663774480983048e-04,4.207865717915146471e-03,2.377508900848012363e+00,-9.923860405936795956e-03,-1.107933206379679673e-02,-2.619985965683417906e-01
2.425000000000000000e+01,3.948869476011171997e-01,-3.393922321582424351e-01,1.000215244196431125e-01,-1.003598940074272722e-01,-9.146261826519433424e-02,5.390597893908155251e-06,-2.235560874696248038e-04,6.021770523298159219e-03,2.344758994292072352e+00,-9.833931568135965973e-03,-9.307629512417809128e-03,-2.619984173086381540e-01
2.450000000000000000e+01,3.820131481131053830e-01,-3.504337930197710116e-01,1.000220926582214426e-01,-1.056017710295208134e-01,-8.516174823839883778e-02,3.363240133877878543e-06,-1.424254366863395200e-04,7.434175899688427389e-03,2.312009855520408941e+00,-7.153227305572973892e-03,-5.139259616695925417e-03,-2.619966517172915843e-01
2.475000000000000000e+01,3.684402106769959495e-01,-3.606011303128310308e-01,1.000222661018231041e-01,-1.113977294637167048e-01,-7.760792345198622155e-02,-6.699742093214562875e-07,3.526841563586104395e-05,8.099430858327953328e-03,2.279261811392850223e+00,-2.600217683917212079e-03,6.026033163065647115e-05,-2.619946190412293374e-01
2.500000000000000000e+01,3.541508495347103769e-01,-3.697787901450722003e-01,1.000219029079706529e-01,-1.169386301823110985e-01,-6.947567708062450664e-02,-4.817454811220335839e-06,2.818087785654583969e-04,7.879183253430920020e-03,2.246514511911421152e+00,2.654806603146976380e-03,4.863711332507078024e-03,-2.619944197004411834e-01
2.525000000000000000e+01,3.392259436885426971e-01,-3.779463316353425251e-01,1.000211379069275847e-01,-1.214945525442358704e-01,-6.157350012533902017e-02,-6.879928706976079822e-06,5.524210595282986200e-04,6.854118113211194949e-03,2.213767075418823449e+00,7.319904301122026093e-03,8.152598157295439310e-03,-2.619970765214650332e-01
2.550000000000000000e+01,3.238228258099904999e-01,-3.851821782844489506e-01,1.000203036943741464e-01,-1.245856990502682837e-01,-5.464446262454556585e-02,-6.050835079433350136e-06,7.972739220780250807e-04,5.282114332371340600e-03,2.181018661387160051e+00,1.031879798841383970e-02,9.350352698645380406e-03,-2.620015064532887350e-01
2.575000000000000000e+01,3.081375975969184999e-01,-3.916437846846756443e-01,1.000197121650285292e-01,-1.260663566975898930e-01,-4.919392941533865665e-02,-3.341677677678188298e-06,9.736603080905037368e-04,3.520101306205118859e-03,2.148269001458666505e+00,1.103886426773098388e-02,8.474567804374374957e-03,-2.620052115982985930e-01
2.600000000000000000e+01,2.923630958580547001e-01,-3.975303227531625794e-01,1.000194803696487639e-01,-1.261148353696057989e-01,-4.538501831919654339e-02,-5.933297525277518520e-07,1.055359536617864582e-03,1.933851171419283385e-03,2.115518494843101394e+00,9.433001511849926912e-03,6.026560380179466284e-03,-2.620060272700640014e-01
2.625000000000000000e+01,2.766532889706143084e-01,-4.030378167170411419e-01,1.000195187263309554e-01,-1.251479218240318381e-01,-4.302051261072057514e-02,9.061199826257704228e-07,1.037235912715192554e-03,8.189191311641438745e-04,2.082767859348504391e+00,5.969236440122344979e-03,2.780307956906353725e-03,-2.620034902530584686e-01
2.650000000000000000e+01,2.611014274440477401e-01,-4.083174377040368341e-01,1.000196543499995150e-01,-1.236940895384282674e-01,-4.160614423318206856e-02,1.092037278325608785e-06,9.345918312680993011e-04,3.489280052633546162e-04,2.050017657517505754e+00,1.464698758453333079e-03,-4.524158500506672911e-04,-2.619988954179134910e-01
2.675000000000000000e+01,2.457346458436004133e-01,-4.134457413226236278e-01,1.000197704249484315e-01,-1.222631360615199503e-01,-4.047139837094797937e-02,7.727571938593382988e-07,7.781590219135451443e-04,5.576677819507866452e-04,2.017268042481100032e+00,-3.134896707960054159e-03,-3.014982001193130916e-03,-2.619942328668080633e-01
2.700000000000000000e+01,2.305233687008607091e-01,-4.184119249855310363e-01,1.000198610890697948e-01,-1.212428971089904856e-01,-3.891440227372513355e-02,7.712698627396442832e-07,6.065002951993492828e-04,1.352155014046265520e-03,1.984518837622281318e+00,-6.965621001909728417e-03,-4.518008834656694027e-03,-2.619909416412279923e-01
2.725000000000000000e+01,2.154008531688408334e-01,-4.231229325316223089e-01,1.000199871454279660e-01,-1.208405499537903022e-01,-3.633790287413213305e-02,1.293446700656619489e-06,4.578567890125894509e-04,2.547209380098786578e-03,1.951769807772700149e+00,-9.396954311748006647e-03,-4.863189353703915516e-03,-2.619893220416473212e-01
2.750000000000000000e+01,2.002869438605163477e-01,-4.274235807764050765e-01,1.000201903644217516e-01,-1.210717956233781645e-01,-3.235158941605401073e-02,1.893780152780845558e-06,3.631873616126973098e-04,3.909613131459673159e-03,1.919020885518926134e+00,-1.010501026888627023e-02,-4.197526265828996003e-03,-2.619888032500983788e-01
2.775000000000000000e+01,1.851108856540383818e-01,-4.311264047856361858e-01,1.000206536724488338e-01,-1.217401907169329001e-01,-2.681169250541217200e-02,1.512049156556535141e-05,1.385123604131452803e-03,5.190782819408950102e-03,1.888273525362914596e+00,-2.781306233430459046e-02,5.646885208470873302e-02,-1.375124199102042699e-01
2.800000000000000000e+01,1.702160032338222440e-01,-4.339245649257201243e-01,1.000287119457050483e-01,-1.134238871907210511e-01,-1.700933582441860326e-02,1.532187710088032387e-04,1.968825917719815854e-02,5.794423277262072611e-03,1.894034336082927261e+00,-5.987829901431440671e-02,1.772901604725043434e-01,1.554463357820923264e-01
2.825000000000000000e+01,1.578936144615266657e-01,-4.349427992871313098e-01,1.000614002052250123e-01,-8.078056620799038690e-02,1.550629856518061320e-03,3.053373009602700864e-04,4.038197222363430067e-02,5.247074943048729394e-03,1.919642771885805121e+00,-3.438759917465189497e-02,1.195737293054248279e-01,2.331685973396583067e-01
2.850000000000000000e+01,1.509204230449920359e-01,-4.331791210016588400e-01,1.000830547159965722e-01,-3.101469191410835893e-02,2.638432521201349371e-02,-1.425421041301821906e-05,4.744171795412442660e-02,3.896223430293514235e-03,1.950441963902090237e+00,1.403746834234162119e-02,-3.550123636073556320e-03,2.539716456508648301e-01
2.875000000000000000e+01,1.503134434587911628e-01,-4.282574720015404623e-01,1.000551604330183753e-01,1.812956738294160125e-02,5.092547089111187919e-02,-3.683270920814689679e-04,3.916582878878550888e-02,2.612248953769720061e-03,1.982604714242256483e+00,5.128552260313005984e-02,-9.741744299209088853e-02,2.596660271440943690e-01
2.900000000000000000e+01,1.550013569190258900e-01,-4.206182764456913303e-01,1.000085244758730785e-01,5.262831064424471073e-02,6.936347777776732948e-02,-3.147394979326463105e-04,2.289542747679479059e-02,1.999926096070725988e-03,2.015152047578643302e+00,6.064472354510858088e-02,-1.228328980762436601e-01,2.613006334002442310e-01
2.925000000000000000e+01,1.627822165877446658e-01,-4.112063482492032684e-01,9.998520776157060475e-02,6.840518455461661040e-02,7.955020551034833187e-02,-6.794363815992058794e-05,7.565055728147353394e-03,2.004239901314265083e-03,2.047824643459586369e+00,4.569135493491839617e-02,-9.122186314890488867e-02,2.618363199036389810e-01
2.950000000000000000e+01,1.715418640190092547e-01,-4.009862068543618707e-01,9.998696499434492346e-02,6.997725809272853370e-02,8.298651593738011478e-02,6.301882805620640643e-05,-1.422343602830775490e-03,2.109991105842418026e-03,2.080550194791413343e+00,2.123283739446607532e-02,-3.753760465566580162e-02,2.620281336305588793e-01
2.975000000000000000e+01,1.800142091198218275e-01,-3.905981515891706612e-01,9.999570917846387075e-02,6.535526209796031771e-02,8.291683325505590230e-02,6.490742055555679009e-05,-3.490539498787183399e-03,1.798026116238528446e-03,2.113303095508651364e+00,1.815422755483740366e-03,6.420830983353871188e-03,2.620690633174698747e-01
3.000000000000000000e+01,1.878898788658231456e-01,-3.802832536063853186e-01,1.000023143123448255e-01,6.125983167820145403e-02,8.219925485467705073e-02,4.331292341362953869e-05,-1.308583007923648381e-03,8.752040834904415345e-04,2.146063633819112582e+00,-5.563779952879833665e-03,2.605468277629265431e-02,2.620510545668252034e-01
3.025000000000000000e+01,1.954778279909848149e-01,-3.700209913934217054e-01,1.000070736822025741e-01,6.084103942553256705e-02,8.212296873752218673e-02,3.447289421084572837e-05,1.741634063955673807e-03,-4.859473441014693518e-04,2.178819356536717322e+00,-2.359615828926035254e-03,2.389250211017092743e-02,2.620318323098800861e-01
3.050000000000000000e+01,2.032555589221145820e-01,-3.597345733229984077e-01,1.000108976286570722e-01,6.396101944297205577e-02,8.244038032168975183e-02,2.629403478771010608e-05,3.431396769796889613e-03,-1.924080807429617412e-03,2.211571112542444428e+00,5.175574336340288580e-03,1.125144145457755707e-02,2.620277191812168116e-01
3.075000000000000000e+01,2.115578849579844156e-01,-3.494354169136875132e-01,1.000135085684046438e-01,6.883919919002090548e-02,8.217490805240713903e-02,1.601412633797365490e-05,3.248202979283553501e-03,-3.103665326399345729e-03,2.244325390677584409e+00,1.071617303373262504e-02,-8.599662132372379655e-04,2.620307962371428157e-01
3.100000000000000000e+01,2.204836332487210282e-01,-3.392532409534663729e-01,1.000150290804501102e-01,7.370145383240288284e-02,8.053409075521621163e-02,9.353432970545092859e-06,1.910670748683519424e-03,-3.831379426563404165e-03,2.277084098928432887e+00,1.095254483699707043e-02,-6.897597404277389446e-03,2.620321702592591229e-01
3.125000000000000000e+01,2.299617105684069462e-01,-3.293733749630542440e-01,1.000159790124316994e-01,7.763772970532434314e-02,7.744110548632048008e-02,6.252329477796891494e-06,4.920863291812636051e-04,-4.048082572658121166e-03,2.309843673764685246e+00,6.154749666727219598e-03,-7.125042466768656546e-03,2.620305267805741467e-01
3.150000000000000000e+01,2.398659419155492190e-01,-3.199412729735843786e-01,1.000165997632349174e-01,8.059100064355657900e-02,7.355156740923919634e-02,3.743962869351578337e-06,-2.674964687437143504e-04,-3.758329276539411953e-03,2.342600413232454049e+00,-1.116147646863322514e-03,-4.930658947483799841e-03,2.620295483026570116e-01
3.175000000000000000e+01,2.500922796827327876e-01,-3.109907573777631051e-01,1.000169173356834085e-01,8.286508625765288960e-02,6.990955420175724855e-02,1.572190663409135199e-06,-2.064389350612515770e-04,-2.978752108328638470e-03,2.375354103067362388e+00,-7.849497136713297352e-03,-3.640759340149079398e-03,2.620327891020116096e-01
3.200000000000000000e+01,2.605698478349164904e-01,-3.024243245606449415e-01,1.000170499268135532e-01,8.462807162024583996e-02,6.750495232343051155e-02,8.601605472720983956e-07,3.940193255147854379e-04,-1.746261212320682991e-03,2.408107253187522279e+00,-1.193675438442340885e-02,-4.591412422820332143e-03,2.620403927167229696e-01
3.225000000000000000e+01,2.712270551937406293e-01,-2.940431324499998000e-01,1.000171923293100423e-01,8.570754028568058902e-02,6.694308220017526623e-02,1.549113871645418081e-06,1.106497627188830074e-03,-1.693773293128303294e-04,2.440862170191520963e+00,-1.264587424963675016e-02,-6.938921234309544661e-03,2.620491664818679345e-01
3.250000000000000000e+01,2.819541451503530527e-01,-2.856055639440784888e-01,1.000174514981005125e-01,8.571416500241994807e-02,6.831560733091096571e-02,2.499941977110795829e-06,1.608224448828793687e-03,1.528354138376220202e-03,2.473619043153986841e+00,-1.039709028166788639e-02,-8.690274941403831194e-03,2.620550724695175915e-01
3.275000000000000000e+01,2.925948053887826306e-01,-2.768895574372846613e-01,1.000177798287498060e-01,8.434354295593603223e-02,7.125388813825640766e-02,2.523521863723746735e-06,1.785449526118155703e-03,3.018954210856185719e-03,2.506376393663324986e+00,-6.251170211509224535e-03,-8.060030814662846876e-03,2.620556450944496740e-01
3.300000000000000000e+01,3.029758299187816362e-01,-2.677402850240661603e-01,1.000180156871652293e-01,8.165228792450605899e-02,7.509306506012260185e-02,1.059996920148326547e-06,1.702171343640523308e-03,3.946797962295981767e-03,2.539132775965402988e+00,-1.446394479452340611e-03,-4.425642265843264533e-03,2.620508002363685085e-01
3.325000000000000000e+01,3.129611364414289221e-01,-2.580942624242333339e-01,1.000179978106114920e-01,7.816123744520661609e-02,7.907311482308070072e-02,-1.299854243848830744e-06,1.503687524486599630e-03,4.045000580387872295e-03,2.571887794065651267e+00,2.885066307070055514e-03,1.429105863718621323e-03,2.620423121981109715e-01
3.350000000000000000e+01,3.225047276679116059e-01,-2.479788593219679760e-01,1.000177129932864339e-01,7.474462818171762057e-02,8.252540838006952595e-02,-2.934025817648154841e-06,1.326416568197367812e-03,3.242750604554817638e-03,2.604641801324069750e+00,5.856528727670480029e-03,7.699377726837536642e-03,2.620327875863402989e-01
3.375000000000000000e+01,3.316785675290758739e-01,-2.374910918199299448e-01,1.000173506524537764e-01,7.235985378261104717e-02,8.501559009818832058e-02,-2.503074846726545299e-06,1.251560376876876147e-03,1.718351004742507508e-03,2.637395145224352255e+00,6.908167843197321641e-03,1.227188962144698872e-02,2.620246644542034709e-01
3.400000000000000000e+01,3.406620430713053760e-01,-2.267623088921895680e-01,1.000171635164684852e-01,7.172412343384843014e-02,8.642625858640438918e-02,-4.305365497832504310e-07,1.302634004871091374e-03,-1.238298986564358563e-04,2.670147889773943017e+00,5.876275037811931785e-03,1.343712691613874709e-02,2.620197062108354236e-01
3.425000000000000000e+01,3.496935985994544249e-01,-2.159170083465846157e-01,1.000172329628243595e-01,7.304688332110886861e-02,8.696938735625130146e-02,1.225826820346565507e-06,1.465715853039398697e-03,-1.744636406101084765e-03,2.702900100309675313e+00,3.034610890944376953e-03,1.037512833087715636e-02,2.620193271207723607e-01
3.450000000000000000e+01,3.589969065875926457e-01,-2.050348245027004135e-01,1.000173802142266116e-01,7.589459830926066630e-02,8.712606376428408406e-02,7.576878556405855590e-07,1.710086690625258572e-03,-2.599687560080228121e-03,2.735652267748695188e+00,-9.361442320003586764e-04,3.332046357944913693e-03,2.620252708451277779e-01
3.475000000000000000e+01,3.687005781850502539e-01,-1.941242810608447833e-01,1.000173521613646060e-01,7.921841113188732297e-02,8.752348599907135152e-02,-1.186995022946566064e-06,1.997889399144761168e-03,-2.269837300938866952e-03,2.768405515224469315e+00,-5.078060563409835838e-03,-6.479924096488727352e-03,2.620393986246252749e-01
3.500000000000000000e+01,3.787713806221871260e-01,-1.831147049508910218e-01,1.000171398178025528e-01,8.153260440976980994e-02,8.877392476140442967e-02,-1.659998041419567159e-06,2.283826470877133811e-03,-5.610280274577020016e-04,2.801161374516188296e+00,-8.370747594633593663e-03,-1.717096354336249478e-02,2.620618945441243186e-01
3.525000000000000000e+01,3.889773179335376252e-01,-1.718687963338825231e-01,1.000171288337434045e-01,8.120150250103293221e-02,9.131194748609647305e-02,2.186914186722188103e-06,2.512600916198668398e-03,2.445234791963891291e-03,2.833921018536464942e+00,-9.979328525609445708e-03,-2.655980896929180726e-02,2.620889539026263759e-01
3.550000000000000000e+01,3.988904196513259337e-01,-1.602134960119065421e-01,1.000178901834131023e-01,7.677562275740418274e-02,9.526948097405951721e-02,1.017899083765495042e-05,2.621375369199411068e-03,6.396642407489753004e-03,2.866684161656638086e+00,-9.466737038523754741e-03,-3.258969792631486589e-02,2.621123045935263018e-01
3.575000000000000000e+01,4.079312035908623235e-01,-1.479822048640508647e-01,1.000197073818000076e-01,6.731198029782313463e-02,1.004210151106563476e-01,1.811179141489002955e-05,2.549725104014156311e-03,1.072628537540784750e-02,2.899448333320566284e+00,-6.909248928247733665e-03,-3.372425870844996537e-02,2.621221838651210390e-01
3.600000000000000000e+01,4.154487316694958632e-01,-1.350583579795272549e-01,1.000221758512780251e-01,5.261613953397330234e-02,1.062147795401708616e-01,1.982509244269616838e-05,2.254372468768253528e-03,1.474993688406835320e-02,2.932209350004821857e+00,-2.880759242733000030e-03,-2.927340757235856808e-02,2.621128645038752758e-01
3.625000000000000000e+01,4.208229976831564523e-01,-1.214097365970755737e-01,1.000242143309577753e-01,3.335464565843638401e-02,1.118843248485676400e-01,1.129989594298701436e-05,1.723187641367793883e-03,1.778864398901315938e-02,2.964963174356528341e+00,1.692794652913081309e-03,-1.958765448721902849e-02,2.620873723934141197e-01
3.650000000000000000e+01,4.235711865657118547e-01,-1.071049666174578446e-01,1.000245753254180858e-01,1.100697811249817283e-02,1.166143356745797249e-01,-5.939029005839353205e-06,9.831691926089672871e-04,1.929558645083801621e-02,2.997708291576595130e+00,5.771767740501693514e-03,-6.057298360757393599e-03,2.620577269874787563e-01
3.675000000000000000e+01,4.234373285469830162e-01,-9.230793748368695817e-02,1.000225874233623552e-01,-1.234400135910887659e-02,1.197202016182513234e-01,-2.471652364858743157e-05,9.942984791369345414e-05,1.896240173692605516e-02,3.030447098320245836e+00,8.469799820542391056e-03,9.119630924847839035e-03,2.620395237897034657e-01
3.700000000000000000e+01,4.204470012044912441e-01,-7.725131898818025922e-02,1.000186538549591581e-01,-3.434882704463099873e-02,1.207967662727403024e-01,-3.593753029731448166e-05,-8.347654257143187310e-04,1.678098773952062250e-02,3.063185212183364481e+00,9.274219128843054494e-03,2.337674390937162852e-02,2.620435233939367725e-01
3.725000000000000000e+01,4.149152038813199717e-01,-6.219554577572971449e-02,1.000141449068461669e-01,-5.278860647437910031e-02,1.197995066997227243e-01,-3.394668509815421559e-05,-1.714194117716601271e-03,1.304471889866152048e-02,3.095928891428633811e+00,8.155782736837114202e-03,3.432875036842864686e-02,2.620693422877633516e-01
3.750000000000000000e+01,4.074052834639084186e-01,-4.738311911005452237e-02,1.000107104298925548e-01,-6.594725074884921767e-02,1.170400914491084021e-01,-1.993995529212034106e-05,-2.439858171933670904e-03,8.287437486145490112e-03,3.128682002543930807e+00,5.538890092481840201e-03,4.028425214496763468e-02,2.621053266500777967e-01
3.775000000000000000e+01,3.986474079611473931e-01,-3.299889198821031461e-02,1.000175269945049461e-01,-7.287731318087947718e-02,1.131001165642609996e-01,4.236096261472773676e-05,-2.934353755449343494e-03,3.175595492229824849e-03,-3.121176760798945349e+00,2.117386154440849613e-03,4.057215380558208684e-02,2.560297851258084845e-01
3.800000000000000000e+01,3.894338264691222240e-01,-1.914436941331913028e-02,1.000186457459505962e-01,-7.351038471114362816e-02,1.087041210256331075e-01,-2.257648040635216246e-06,-3.154308917285688144e-03,-1.623409786983280980e-03,-3.088823629297561268e+00,-1.203879970496443555e-03,3.565923817759478892e-02,2.605149490115714062e-01
3.825000000000000000e+01,3.805111011340196470e-01,-5.830205578142240441e-03,1.000185987908272095e-01,-6.859059127572006420e-02,1.045542573906163841e-01,2.070171896037996849e-06,-3.093194722040835173e-03,-5.559206832617373181e-03,-3.056167070048525503e+00,-3.820863734232399136e-03,2.688162056382130405e-02,2.616968249147234027e-01
3.850000000000000000e+01,3.724911418886207026e-01,7.012508837759143070e-03,1.000189683412740643e-01,-5.946678565780963432e-02,1.012106146459071376e-01,2.588729372016629075e-06,-2.777677525551878589e-03,-8.281763326269387521e-03,-3.023434130787296059e+00,-5.316314750328989848e-03,1.613422283828290157e-02,2.619869865282564159e-01
3.875000000000000000e+01,3.657935426433656656e-01,1.950909313235637058e-02,1.000189954838133360e-01,-4.780449781306124468e-02,9.901469502387780230e-02,-2.523137567564625428e-06,-2.260793715254323308e-03,-9.677409993183167317e-03,-2.990685973042720214e+00,-5.617759997613683449e-03,5.396743943662538588e-03,2.620394492428426703e-01
3.900000000000000000e+01,3.606260370123967052e-01,3.181214663317954994e-02,1.000182914943345824e-01,-3.527899433366007281e-02,9.807137241988961307e-02,-8.260686920823910159e-06,-1.610632527507623382e-03,-9.851981381148072411e-03,-2.957937454358852136e+00,-4.945336929400140011e-03,-3.685373250961276100e-03,2.620364572935320879e-01
3.925000000000000000e+01,3.570006632700044591e-01,4.407384006175393831e-02,1.000170442919282449e-01,-2.331853795754353087e-02,9.828521645454768585e-02,-1.095155615398564478e-05,-8.982217907541254192e-04,-9.072572325991366815e-03,-2.925190211827779496e+00,-3.695762871773284209e-03,-1.008920842054035309e-02,2.620290851782787755e-01
3.950000000000000000e+01,3.547762311377802291e-01,5.642520030772267547e-02,1.000157092971878242e-01,-1.294246911721820201e-02,9.943093030452215819e-02,-9.900474237729830636e-06,-1.867745802705740067e-04,-7.685724308606469053e-03,-2.892442667488277941e+00,-2.296846861124750023e-03,-1.352633065997087963e-02,2.620287161471301363e-01
3.975000000000000000e+01,3.537137848714894672e-01,6.896503092243615185e-02,1.000146743323650778e-01,-4.712068154474060092e-03,1.012324916191164326e-01,-6.561191132814761397e-06,4.758119457981304355e-04,-6.032379052571399530e-03,-2.859693333248849001e+00,-1.075077516918528401e-03,-1.437816061582287627e-02,2.620340151522184136e-01
4.000000000000000000e+01,3.535312946735189032e-01,8.175797368977831547e-02,1.000140958291267507e-01,1.214995963282401942e-03,1.034273357488767892e-01,-2.901247054996086258e-06,1.060160761499135762e-03,-4.378036844409178077e-03,-2.826941688137252218e+00,-1.719786032359959984e-04,-1.349120939292483383e-02,2.620407965163694675e-01
4.025000000000000000e+01,3.539464469933532031e-01,9.483872152417865964e-02,1.000139207087474141e-01,4.957644455719415096e-03,1.057999075530369343e-01,-2.027776024699912688e-07,1.554281368230036979e-03,-2.871285208599967057e-03,-2.794188017021920434e+00,4.713399445862152706e-04,-1.189427968595010640e-02,2.620461243910197080e-01
4.050000000000000000e+01,3.547011948542180826e-01,1.082181580055678743e-01,1.000140003487893087e-01,6.755209705176622691e-03,1.081804179087462875e-01,1.236783797822041184e-06,1.958977108530749259e-03,-1.536463948432990629e-03,-2.761432917857660652e+00,1.062016913427042382e-03,-1.051041109374377218e-02,2.620494191150191110e-01
4.075000000000000000e+01,3.555673443675357870e-01,1.218874452440767142e-01,1.000141962824727809e-01,6.826591163814317922e-03,1.104162652097755437e-01,1.777033469063724044e-06,2.281361289469398083e-03,-2.983716315324972160e-04,-2.728676886850327055e+00,1.854417270903078530e-03,-9.929719811643760927e-03,2.620518343752509249e-01
4.100000000000000000e+01,3.563375066208691044e-01,1.358176183525510172e-01,1.000144325134228462e-01,5.279895672649812313e-03,1.123322560045713903e-01,1.986380881736648192e-06,2.528369095730013689e-03,9.696764669717804078e-04,-2.695920146914624560e+00,3.031144774437862736e-03,-1.028829299510941077e-02,2.620549504101284954e-01
4.125000000000000000e+01,3.568091250330486242e-01,1.499545551636891627e-01,1.000147007495671980e-01,2.091215072788819677e-03,1.136993852318254616e-01,2.347341009044672473e-06,2.702011763851920774e-03,2.387324811430646329e-03,-2.663162715850784679e+00,4.601435780562935542e-03,-1.127125554718902758e-02,2.620595546396665143e-01
4.150000000000000000e+01,3.567703767660198033e-01,1.642115746889814820e-01,1.000150376526478535e-01,-2.848170968518015482e-03,1.142296616607746534e-01,3.078390428557661971e-06,2.797555126941449720e-03,4.012661843890743575e-03,-2.630404629322369292e+00,6.349636991679303427e-03,-1.223291233576816704e-02,2.620649550602353051e-01
4.175000000000000000e+01,3.559954531697617219e-01,1.784636511454775198e-01,1.000154813244473057e-01,-9.635040453805993749e-03,1.136066581295873956e-01,3.974048786173413191e-06,2.804972443307317265e-03,5.805400487664640931e-03,-2.597646195531198909e+00,7.856932841238341639e-03,-1.240530988617276516e-02,2.620690527815122683e-01
4.200000000000000000e+01,3.542534299543530496e-01,1.925477090567698224e-01,1.000160124059906730e-01,-1.824025816980342357e-02,1.115496970059736276e-01,4.347367509265736961e-06,2.713135425594674285e-03,7.618225019720933390e-03,-2.564888132863356596e+00,8.601675417360961362e-03,-1.114647864421004775e-02,2.620692176941624152e-01
4.225000000000000000e+01,3.513304346943727507e-01,2.062723665888176461e-01,1.000165067286738346e-01,-2.841557855763563942e-02,1.078967520477788211e-01,3.294503978111176672e-06,2.515476477343282086e-03,9.220716332946909954e-03,-2.532131459263507356e+00,8.118053652432899447e-03,-8.162994318791971793e-03,2.620636945612248025e-01
4.250000000000000000e+01,3.470602483985002484e-01,2.194379411830648385e-01,1.000167461490780035e-01,-3.965472552409285423e-02,1.026813300824744313e-01,3.238004005873504295e-07,2.215439655733005258e-03,1.035177100534310883e-02,-2.499377112621238517e+00,6.167345945549072492e-03,-3.639283248522639635e-03,2.620528578511481799e-01
4.275000000000000000e+01,3.413551437059052507e-01,2.318641714226805095e-01,1.000165136191689952e-01,-5.122755624960252663e-02,9.617584018140934443e-02,-4.018256234390779902e-06,1.830029285178173121e-03,1.078764566782934760e-02,-2.466625464680689550e+00,2.863054771712846697e-03,1.772541166489406119e-03,2.620394786182130287e-01
4.300000000000000000e+01,3.342277575491612307e-01,2.434199935654663138e-01,1.000157340426860580e-01,-6.228463050087499481e-02,8.888043635936339337e-02,-8.108899584490980700e-06,1.390184227511682491e-03,1.040687042595851881e-02,-2.433876023633218200e+00,-1.300485110283371940e-03,7.106606313308281783e-03,2.620276027601490254e-01
4.325000000000000000e+01,3.257965782004046407e-01,2.540479628321051786e-01,1.000145646599483878e-01,-7.200763290183435916e-02,8.145097523135121087e-02,-1.005356207322532150e-05,9.374944198697741276e-04,9.232875332438670105e-03,-2.401127563377273955e+00,-5.537501161139437959e-03,1.133765361733123783e-02,2.620205452064958696e-01
4.350000000000000000e+01,3.162717727173078308e-01,2.637763023987805822e-01,1.000133514149880720e-01,-7.976603488162764544e-02,7.457827883987463991e-02,-8.881742431903272010e-06,5.177722166981083528e-04,7.440896425712456401e-03,-2.368378659990609592e+00,-8.960190010831694737e-03,1.365829197131151161e-02,2.620192260784190985e-01
4.375000000000000000e+01,3.059233686910348693e-01,2.727141982692786182e-01,1.000124591120358647e-01,-8.523733831765310798e-02,6.884724716803061750e-02,-5.238945158296021554e-06,1.729224430689605308e-04,5.325798180447097879e-03,-2.335628330062996749e+00,-1.081561167614253707e-02,1.369490064788642103e-02,2.620219471717929460e-01
4.400000000000000000e+01,2.950386152201341372e-01,2.810301814052799108e-01,1.000120834823042121e-01,-8.845825743341312331e-02,6.461290351216950056e-02,-9.873039221189192893e-07,-6.688437312000042377e-05,3.238485687236072018e-03,-2.302876381617172008e+00,-1.070055791359398809e-02,1.160014645837033689e-02,2.620257200702446054e-01
4.425000000000000000e+01,2.838782330359576611e-01,2.889180402821513449e-01,1.000121735258997779e-01,-8.979377833770689488e-02,6.192811658302570244e-02,2.013254142263538785e-06,-1.887375789014164064e-04,1.507120538114620168e-03,-2.270123289406166034e+00,-8.690161747444156981e-03,8.000457370725841399e-03,2.620281596623920128e-01
4.450000000000000000e+01,2.726414237339743751e-01,2.965583212746849551e-01,1.000125096128670066e-01,-8.983378077496199932e-02,6.054498329770095777e-02,3.009888095342188062e-06,-1.987805314720912349e-04,3.633142540031360679e-04,-2.237369739960024972e+00,-5.338049764274131054e-03,3.818206178336615211e-03,2.620286279801593565e-01
4.475000000000000000e+01,2.614469856718598662e-01,3.040849896087718385e-01,1.000128652126907047e-01,-8.924620548726817926e-02,5.999198763951982954e-02,2.541008182674645791e-06,-1.197974932512381989e-04,-1.074162555663061306e-04,-2.204616195045623783e+00,-1.536772163644413826e-03,1.917415600885668809e-05,2.620279928732853758e-01
4.500000000000000000e+01,2.503334471979052345e-01,3.115656566159649699e-01,1.000131268443102267e-01,-8.862674091257977116e-02,5.970697328990940550e-02,1.690097801865350555e-06,1.479708749255598492e-05,2.318467663826680297e-05,-2.171862747084200240e+00,1.737170545569236176e-03,-2.646882194492636113e-03,2.620274594660999545e-01
