time_total,x,y,z,vx,vy,vz,roll,pitch,yaw,roll_rate,pitch_rate,yaw_rate
0e-01,9.990129531421311493e-02,-3.532356671637541801e-02,1.808497316960973600e-01,3.928711729204692167e-04,9.829607207039066635e-04,9.148456216174988623e-03,2.055347835365669562e-01,-1.973703956579007934e-02,2.118172804623124836e-03,-3.931053195059015515e-01
2.500000000000000000e-01,-4.555275357065629027e-01,-1.388347415753275471e-01,9.994215111779630734e-02,-2.388430049082625184e-02,1.820930938605498928e-01,2.723039273138642036e-04,-1.607385594880736488e-03,9.511712047916067239e-03,1.563767596153813888e-01,-1.906873654040261087e-02,-3.073555936763599367e-03,-3.930361167782942533e-01
5.000000000000000000e-01,-4.577889697647350986e-01,-1.158641584130786495e-01,9.997037995412898226e-02,-1.275519890214192945e-02,1.855735164860489728e-01,1.866254118038366866e-04,-3.274274725966559198e-03,9.172108900791096225e-03,1.072350689821019304e-01,-6.130844157071458148e-03,-5.553653965416480674e-03,-3.929870092544029969e-01
7.500000000000000000e-01,-4.586983474162150132e-01,-9.240686693022037712e-02,9.998947919436089460e-02,-2.272428187912493673e-03,1.895091538138263532e-01,1.247824620815644306e-04,-3.201025919631950590e-03,8.381463446054159341e-03,5.811343870092132435e-02,7.140483443209245766e-03,-6.915236737563858031e-03,-3.929737907859007229e-01
1.000000000000000000e+00,-4.583522666599769146e-01,-6.853609994243672898e-02,1.000022718510829717e-01,7.322396063281590151e-03,1.919805603636508540e-01,8.453178009047545964e-05,-1.844093632048838388e-03,7.414362651725967326e-03,9.001666635582732459e-03,1.344150532787270064e-02,-7.764833674369100124e-03,-3.929877558857168829e-01
1.250000000000000000e+00,-4.568765816066173713e-01,-4.450817792883404039e-02,1.000111370440549263e-01,1.580449914328850916e-02,1.920533352875836708e-01,6.002280045223395071e-05,-1.847435530679979101e-04,6.444574838522666022e-03,-4.011180172297003355e-02,1.178920732058571889e-02,-8.021711288576833382e-03,-3.930111532371834970e-01
1.500000000000000000e+00,-4.544212432560793546e-01,-2.061765668568314031e-02,1.000175082406915411e-01,2.302502255022728303e-02,1.899747847077103147e-01,4.328645209386758309e-05,9.678841381889772069e-04,5.537275601279101518e-03,-8.923249498456621576e-02,5.495467941022782674e-03,-7.484222937567891823e-03,-3.930288872880054463e-01
1.750000000000000000e+00,-4.511456383100950207e-01,2.924920551807884232e-03,1.000220552029043170e-01,2.898553023732339598e-02,1.867112444535500848e-01,3.046801773875850794e-05,1.307552014654850920e-03,4.709345363690531014e-03,-1.383598305844772058e-01,-1.114509398301515974e-03,-6.172259839986697638e-03,-3.930350732383561252e-01
2.000000000000000000e+00,-4.471979734834725662e-01,2.604089233573868289e-02,1.000252267702584907e-01,3.385459496975965626e-02,1.833051737858203134e-01,2.117378674013855702e-05,9.845875201878006959e-04,3.988310732366062879e-03,-1.874904733644249255e-01,-5.160196030898907271e-03,-4.345664771227904406e-03,-3.930323566902153565e-01
2.250000000000000000e+00,-4.426968642965850576e-01,4.876088363406932968e-02,1.000274486655477052e-01,3.792183374405112828e-02,1.804276903619095873e-01,1.501850440605477208e-05,3.580459899856833065e-04,3.429285575146711739e-03,-2.366214537599345413e-01,-5.994307370765718408e-03,-2.347574400671454189e-03,-3.930265228814042722e-01
2.500000000000000000e+00,-4.377208726619558621e-01,7.116739828058346595e-02,1.000290428834642031e-01,4.152458808834891962e-02,1.782599282355221415e-01,1.086508792010031810e-05,-2.518734990316350854e-04,3.091921083353960098e-03,-2.857514247962442133e-01,-4.619093449102107396e-03,-4.572793405126259056e-04,-3.930219018833787104e-01
2.750000000000000000e+00,-4.323069074052247607e-01,9.334046620798047700e-02,1.000301941644192172e-01,4.498384718596974002e-02,1.766282012678105640e-01,7.795835159678646319e-06,-6.916628043663070741e-04,3.005128906574538669e-03,-3.348803476708299698e-01,-2.564990834632340302e-03,1.158335581372421045e-03,-3.930200721702887812e-01
3.000000000000000000e+00,-4.264550176689986816e-01,1.153277718231219273e-01,1.000310110439952133e-01,4.856602628559228418e-02,1.752297155525826544e-01,5.463330328001030592e-06,-9.699399354096302451e-04,3.146949897487711333e-03,-3.840087246606536109e-01,-9.839828886040158894e-04,2.412396328262603976e-03,-3.930206523667089669e-01
3.250000000000000000e+00,-4.201363977248444570e-01,1.371409918272897821e-01,1.000315769732722931e-01,5.246745227681665069e-02,1.738108760907845218e-01,3.738323989108247791e-06,-1.177342604431996917e-03,3.450001952371153577e-03,-4.331370961448871015e-01,-2.994088519537066147e-04,3.249672102835145671e-03,-3.930224078421304390e-01
3.500000000000000000e+00,-4.133024606986832050e-01,1.587677908816755024e-01,1.000319578843459900e-01,5.681060532640587468e-02,1.722404799830253852e-01,2.457154295127240726e-06,-1.401234002376290253e-03,3.825361687271714144e-03,-4.822658245313423686e-01,-3.455456707647012148e-04,3.632065339967554835e-03,-3.930240323811792780e-01
3.750000000000000000e+00,-4.058940613069574876e-01,1.801867880251713239e-01,1.000321975788514700e-01,6.164476423172036978e-02,1.704939533853886691e-01,1.444596621515544092e-06,-1.679218928569423510e-03,4.190108598510837792e-03,-5.313949976118051977e-01,-7.197728729735670570e-04,3.564674574713979412e-03,-3.930246373024920414e-01
4.000000000000000000e+00,-3.978503726478565539e-01,2.013775016410697394e-01,1.000323216249579261e-01,6.695132776586090739e-02,1.685989306202725913e-01,5.904741145379425917e-07,-1.998313549454774039e-03,4.486967700744173317e-03,-5.805244344531867995e-01,-1.080342978055503535e-03,3.134086487886876635e-03,-3.930239824569359830e-01
4.250000000000000000e+00,-3.891165470363760481e-01,2.223235208606385016e-01,1.000323473971458793e-01,7.265843547114621270e-02,1.665865650836620415e-01,-1.300053552459035866e-07,-2.321219106449455387e-03,4.692528738386786240e-03,-6.296538222189361766e-01,-1.262219622638929969e-03,2.520973913358438498e-03,-3.930224289939329707e-01
4.500000000000000000e+00,-3.796487782577308012e-01,2.430110997059711508e-01,1.000322936178686117e-01,7.866748109638688202e-02,1.644669113650234771e-01,-6.786777118155005523e-07,-2.615186997644614302e-03,4.816533802483219211e-03,-6.787829101484108563e-01,-1.234113048829997344e-03,1.963903502786669419e-03,-3.930206879893690664e-01
4.750000000000000000e+00,-3.694154673251617282e-01,2.634260190961595360e-01,1.000321854087271728e-01,8.488733467034269287e-02,1.622230855916033665e-01,-1.000866088554011890e-06,-2.867496133463117488e-03,4.895659331121804576e-03,-7.279116366610350886e-01,-1.002067639415467554e-03,1.679077488032218977e-03,-3.930195208407313845e-01
5.000000000000000000e+00,-3.583941923071429780e-01,2.835501786626656306e-01,1.000320529181573104e-01,9.126511474602268248e-02,1.598105352249662992e-01,-1.077167348121014927e-06,-3.084587320538120531e-03,4.982769951033244084e-03,-7.770401329868168450e-01,-5.593556534784563383e-04,1.767776724986889732e-03,-3.930195002384518355e-01
5.250000000000000000e+00,-3.465657989290396035e-01,3.033579797690408864e-01,1.000319246571516191e-01,9.779996210881705676e-02,1.571543455670071088e-01,-9.532014523304392112e-07,-3.281278030014277841e-03,5.130738234641972657e-03,-8.261686358553597120e-01,8.109608173305688406e-05,2.156320101726495048e-03,-3.930208265460875539e-01
5.500000000000000000e+00,-3.339083946419298954e-01,3.228124723834921994e-01,1.000318191279785246e-01,1.045309495865990312e-01,1.541498048416647670e-01,-7.396817592577428001e-07,-3.469136544710752033e-03,5.371313495486802585e-03,-8.752973677992182955e-01,8.071814241995122364e-04,2.605072327569084214e-03,-3.930231527317787354e-01
5.750000000000000000e+00,-3.203944964830711117e-01,3.418624513505086893e-01,1.000317374328868331e-01,1.115008475025083268e-01,1.506785993850049132e-01,-6.002786628721267114e-07,-3.650412267131271111e-03,5.693776946251841858e-03,-9.244264203893283183e-01,1.354892394342850810e-03,2.795280544511397590e-03,-3.930254603436355021e-01
6.000000000000000000e+00,-3.059935771441872343e-01,3.604430965058554870e-01,1.000316578423753877e-01,1.187094725351935665e-01,1.466489704273403194e-01,-7.294499661658958955e-07,-3.819227293441575417e-03,6.032233096662254282e-03,-9.735556635853784835e-01,1.345509722264165301e-03,2.466655264124324731e-03,-3.930261531132788755e-01
6.250000000000000000e+00,-2.906799718716366887e-01,3.784829716521956877e-01,1.000315357738778971e-01,1.260779629246173150e-01,1.420543532883480897e-01,-1.281332935829453472e-06,-3.967906102008649134e-03,6.270916856903507863e-03,-1.022684721099800909e+00,4.261584435657234256e-04,1.550670906024193907e-03,-3.930235208189257756e-01
6.500000000000000000e+00,-2.744434155210120352e-01,3.959184468261602863e-01,1.000313175612691785e-01,1.334440944263695084e-01,1.370289295611247515e-01,-2.225695516645476340e-06,-4.094632254482225182e-03,6.272125886837480978e-03,-1.071813053003742633e+00,-1.534337404665401649e-03,2.382942489913204333e-04,-3.930165013735377189e-01
6.750000000000000000e+00,-2.572975792522136373e-01,4.127132193986616238e-01,1.000309727939273086e-01,1.405978400072570300e-01,1.318696497635951925e-01,-3.221360405963075642e-06,-4.208893621061309161e-03,5.922440794649899871e-03,-1.120940133983598264e+00,-4.285208629884676088e-03,-1.058104726181201358e-03,-3.930053854150028503e-01
7.000000000000000000e+00,-2.392818921213359928e-01,4.288769722404384699e-01,1.000305309884458593e-01,1.473493818941962186e-01,1.269994004693893452e-01,-3.697536996381943795e-06,-4.332553829858191118e-03,5.183368710916825238e-03,-1.170065643743178452e+00,-7.162390311717200045e-03,-1.846501530397340373e-03,-3.929920522736999322e-01
7.250000000000000000e+00,-2.204539984047029499e-01,4.444751821644939982e-01,1.000300889987737057e-01,1.536056653175875975e-01,1.228656675531455966e-01,-3.219932637760406456e-06,-4.496055414918724916e-03,4.126981225817171438e-03,-1.219189578719696243e+00,-9.235719088768357121e-03,-1.751001326199616006e-03,-3.929796206183411300e-01
7.500000000000000000e+00,-2.008738065795141470e-01,4.596231430440089749e-01,1.000297659641826570e-01,1.594239187522361323e-01,1.197966922751897423e-01,-1.894789796512350420e-06,-4.730754733259560051e-03,2.939018408446061534e-03,-1.268312278446499741e+00,-9.608652472399330235e-03,-6.809244814439176794e-04,-3.929717751799378656e-01
7.750000000000000000e+00,-1.805838214032693678e-01,4.744616705536233714e-01,1.000296292390544933e-01,1.650160814792188679e-01,1.178610812881325659e-01,-3.788470432267366923e-07,-5.059515045133733228e-03,1.881890157455524742e-03,-1.317434443957837154e+00,-7.768232656293312145e-03,1.104617734052887497e-03,-3.929720585149117373e-01
8.000000000000000000e+00,-1.595926588751889474e-01,4.891184539154372901e-01,1.000296548786080153e-01,1.706959122855337962e-01,1.167852308405019079e-01,6.391300101835310387e-07,-5.488312995166762763e-03,1.224919869452234912e-03,-1.366557184553624182e+00,-3.842509725342453230e-03,3.074261398789197852e-03,-3.929830552615924399e-01
8.250000000000000000e+00,-1.378681721114423941e-01,5.036651675791817828e-01,1.000297650337265559e-01,1.767838839778276272e-01,1.159692632011043167e-01,1.033946216004736928e-06,-6.001578512385507755e-03,1.163266231083414813e-03,-1.415681973803080584e+00,1.358264794417481970e-03,4.619586846039735843e-03,-3.930052098375534375e-01
8.500000000000000000e+00,-1.153434205308779548e-01,5.180835642310617217e-01,1.000299081496171666e-01,1.835036329216544471e-01,1.146091393590465968e-01,1.270797794771608702e-06,-6.563155634176737370e-03,1.754059968162489285e-03,-1.464810317881245050e+00,6.561903759017165098e-03,5.287682937858858429e-03,-3.930355305770217855e-01
8.750000000000000000e+00,-9.193399335037126530e-02,5.322521079993941528e-01,1.000300965559534488e-01,1.909088124906089257e-01,1.118921546150711682e-01,1.777077727397661946e-06,-7.123207784998956786e-03,2.894458435173367754e-03,-1.513943116599812955e+00,1.045157650326813785e-02,4.949324736233530475e-03,-3.930672639307948302e-01
9.000000000000000000e+00,-6.756093151902352323e-02,5.459584212079313659e-01,1.000303576373165471e-01,1.988675207334700545e-01,1.072020543518509839e-01,2.335067702976583499e-06,-7.629476167065688159e-03,4.351976560061233089e-03,-1.563080037461295202e+00,1.212374608948016581e-02,3.827660633889724655e-03,-3.930916454671237181e-01
9.250000000000000000e+00,-4.217155398363912205e-02,5.589340916520532110e-01,1.000306524035082939e-01,2.071076891245052232e-01,1.002628709817471875e-01,2.211080984964305446e-06,-8.039678187877721816e-03,5.837961039442986222e-03,-1.612219383855861388e+00,1.140376816133672339e-02,2.376508793702239615e-03,-3.931015069924864158e-01
9.500000000000000000e+00,-1.575174956059605114e-02,5.709006150448699968e-01,1.000308578058966558e-01,2.153015851513650492e-01,9.117170407393788978e-02,9.277493872730067979e-07,-8.331174005918219258e-03,7.098683244630274967e-03,-1.661358682492768413e+00,8.892389118518459479e-03,1.067251920024652346e-03,-3.930948342968499376e-01
9.750000000000000000e+00,1.167283931237071172e-02,5.816115500127045923e-01,1.000308435208506069e-01,2.231523823549546315e-01,8.031174874485770554e-02,-1.143027068257137012e-06,-8.504710799139302002e-03,7.992286155407877027e-03,-1.710495713199145618e+00,5.728971427174522554e-03,1.832594894462898820e-04,-3.930760063942814186e-01
1.000000000000000000e+01,4.004459371656386713e-02,5.908777815639502107e-01,1.000305737730031314e-01,2.304471654588099994e-01,6.818077543033043697e-02,-2.981477135567836829e-06,-8.580940380613980012e-03,8.525958524862447055e-03,-1.759629396352656139e+00,3.171053803310440802e-03,-2.876552887879002193e-04,-3.930539097101440893e-01
1.025000000000000000e+01,6.928500605888597563e-02,5.985692932383456233e-01,1.000301419957000115e-01,2.370574217414319618e-01,5.519931858742593844e-02,-3.666397206604936092e-06,-8.590852282269596102e-03,8.842858139156804451e-03,-1.808760091900060152e+00,2.153623608736254455e-03,-6.210150759598212673e-04,-3.930381218594993786e-01
1.050000000000000000e+01,9.930258315443801775e-02,6.045954154292328964e-01,1.000297178753696281e-01,2.428919763869039905e-01,4.156680869890651275e-02,-2.919623750875225948e-06,-8.563364523646890131e-03,9.165711954682019200e-03,-1.857889269523626208e+00,2.983881008928299799e-03,-1.204256296665610166e-03,-3.930352205631734153e-01
1.075000000000000000e+01,1.299931095468530307e-01,6.088729451029473161e-01,1.000294641077118379e-01,2.478280332397874153e-01,2.721348236447182836e-02,-1.062896437497042442e-06,-8.514278577110238194e-03,9.717090162527367708e-03,-1.907018808366665930e+00,5.262508657896479425e-03,-2.333662141254684401e-03,-3.930466316787705194e-01
1.100000000000000000e+01,1.612317769830937941e-01,6.112953316849660812e-01,1.000294829360815207e-01,2.516554324851951741e-01,1.186085391934221453e-02,1.317775690818614166e-06,-8.440297480447099890e-03,1.064141886795628988e-02,-1.956150214369818396e+00,8.036546041094263723e-03,-4.042580830419483656e-03,-3.930683093509546033e-01
1.125000000000000000e+01,1.928609170486531577e-01,6.117153207080758825e-01,1.000297957559064393e-01,2.540645783489701159e-01,-4.832813869312193450e-03,3.514383479023475592e-06,-8.320063597619397483e-03,1.195099665325386439e-02,-2.005283951298032274e+00,1.011809581930418755e-02,-6.028258774912511643e-03,-3.930919806346316880e-01
1.150000000000000000e+01,2.246799199609150477e-01,6.099486568155342292e-01,1.000303221550912364e-01,2.546921360387124356e-01,-2.309186797698295143e-02,4.595290537288750725e-06,-8.121861894748599181e-03,1.351031644139023651e-02,-2.054419062761003278e+00,1.046564090106941007e-02,-7.709461382470992295e-03,-3.931076938671680954e-01
1.175000000000000000e+01,2.564442771589892645e-01,6.057993958395435641e-01,1.000308524373620805e-01,2.532164356448116660e-01,-4.286715874607440607e-02,3.480987960148828509e-06,-7.815548413755946458e-03,1.506288536153812564e-02,-2.103553297913355546e+00,8.518504907984317601e-03,-8.404376794480738003e-03,-3.931072758147632906e-01
1.200000000000000000e+01,2.878782867389520495e-01,5.991002347752701906e-01,1.000310617438197186e-01,2.494738083582798416e-01,-6.375647190506214534e-02,-4.703215086625212819e-07,-7.385020651301612421e-03,1.629445421958517978e-02,-2.152683854864787971e+00,4.391727149157621801e-03,-7.577616981411687720e-03,-3.930876743381039873e-01
1.225000000000000000e+01,3.187014474486928872e-01,5.897560940120432083e-01,1.000306184696698325e-01,2.435547153083477967e-01,-8.503097012682334088e-02,-6.652186338603421840e-06,-6.837421542048928956e-03,1.691742082651253448e-02,-2.201808537770477692e+00,-1.126305394930656074e-03,-5.075792264352723716e-03,-3.930525923600731719e-01
1.250000000000000000e+01,3.486633305494705737e-01,5.777774825465015196e-01,1.000293662844282394e-01,2.358394473838166250e-01,-1.057656289636713515e-01,-1.296269235673009773e-05,-6.206192270269394670e-03,1.675478274805089832e-02,-2.250926777946899549e+00,-6.779066615887647564e-03,-1.264583755086419068e-03,-3.930112173539190845e-01
1.275000000000000000e+01,3.775775453123948466e-01,5.632925381178796043e-01,1.000274670452183517e-01,2.269485890569500619e-01,-1.250396891632199747e-01,-1.666555289915091213e-05,-5.546754490231001720e-03,1.580050269469150670e-02,-2.300039929911370962e+00,-1.119557373694753631e-02,2.996048170994381702e-03,-3.929744104701295981e-01
1.300000000000000000e+01,4.053439298637806498e-01,5.465325010326065325e-01,1.000253799454400155e-01,2.176096703880294747e-01,-1.421502573573762696e-01,-1.597497168940770454e-05,-4.925582323525314575e-03,1.423792525130526329e-02,-2.349150658739445507e+00,-1.328893795965634637e-02,6.551550598252595635e-03,-3.929504146773165063e-01
1.325000000000000000e+01,4.319501725707863837e-01,5.277930850306863375e-01,1.000236580670501446e-01,2.084704375944892440e-01,-1.567760571464875963e-01,-1.119172865786282928e-05,-4.405241780273754307e-03,1.240834615838480419e-02,-2.398261826859089840e+00,-1.257827841925650281e-02,8.280387138448797729e-03,-3.929424932143600890e-01
1.350000000000000000e+01,4.574494129335662240e-01,5.073814190169185778e-01,1.000226893650988519e-01,1.999111235911052442e-01,-1.690416380464805635e-01,-4.420281290468251196e-06,-4.029169908992924314e-03,1.073521404223614327e-02,-2.447375586084216792e+00,-9.334005070081573610e-03,7.453982518679297051e-03,-3.929494311042062704e-01
1.375000000000000000e+01,4.819175406110736692e-01,4.855626935154840340e-01,1.000225615939187573e-01,1.919148195358487408e-01,-1.794614078162673210e-01,1.945958563270726782e-06,-3.810202870488745702e-03,9.621952201609275737e-03,-2.496493117977766296e+00,-4.500773954017692549e-03,4.013697388176283749e-03,-3.929676874411177079e-01
1.400000000000000000e+01,5.054007127426424217e-01,4.625209220079024020e-01,1.000231291886606727e-01,1.840429579224185930e-01,-1.887787187045351089e-01,6.688670624751912172e-06,-3.726051813873986623e-03,9.349420631619944494e-03,-2.545614871412331670e+00,5.786091127275684934e-04,-1.333291406205094204e-03,-3.929930413851584481e-01
1.425000000000000000e+01,5.278677861022071927e-01,4.383441886814081201e-01,1.000242244634873268e-01,1.755344267177924578e-01,-1.977467468148173535e-01,1.636296571942841627e-05,-3.479986892134741099e-03,9.998290745213148090e-03,-2.594473993444001980e+00,-2.965676118256102903e-02,-2.770768532703023201e-02,-3.481817693215472631e-01
1.450000000000000000e+01,5.489232479262999842e-01,4.134966161701821852e-01,1.000420837459365525e-01,1.583106559822607673e-01,-1.941170541472349020e-01,4.615422090000663924e-04,3.133345773740621454e-02,1.042061246369812080e-02,-2.595594426222294082e+00,-3.557088270857610701e-01,-2.124931128267728286e-01,1.937460757051978066e-01
1.475000000000000000e+01,5.660184591390513553e-01,3.920133997159339634e-01,1.001814522848723660e-01,1.111816623705269430e-01,-1.426112998680432453e-01,1.571185959255321125e-03,8.152613855112529617e-02,8.956040019793425760e-03,-2.559664126395652772e+00,-2.899790892158734534e-01,-1.673510425341143970e-01,3.374464782193025147e-01
1.500000000000000000e+01,5.752938337128864488e-01,3.798510515840652357e-01,1.003326862531724456e-01,3.659383680428998642e-02,-5.099199658537772323e-02,4.605253807341099155e-04,1.055273873014183350e-01,6.118654778713988537e-03,-2.514264017195695367e+00,-5.155397029247725527e-02,-9.470877090463998213e-03,3.766623232881602390e-01
1.525000000000000000e+01,5.745683851024311339e-01,3.798694080184619182e-01,1.002499389761718901e-01,-4.457306140247380144e-02,4.590032379876496371e-02,-1.566503439051738448e-03,9.384471589838157268e-02,4.167909610736035553e-03,-2.466341414736684445e+00,1.561479763645876317e-01,1.334491638738047603e-01,3.883112126870446046e-01
1.550000000000000000e+01,5.644867278741536598e-01,3.905801053849826676e-01,1.000191544989985498e-01,-1.107366517934381678e-01,1.171974951111637159e-01,-1.756238262184817069e-03,6.026627536063542540e-02,4.760551988416893490e-03,-2.417669477809091916e+00,2.346683174492122381e-01,1.872652775317237561e-01,3.919378101293715111e-01
1.575000000000000000e+01,5.477348033439506381e-01,4.078033281077065864e-01,9.987089479171938622e-02,-1.516162454217626077e-01,1.511261335504709147e-01,-5.925104655152671528e-04,2.513873865205537572e-02,7.479906223441008459e-03,-2.368790617365381213e+00,1.930530264787654604e-01,1.524077001925292496e-01,3.932402705406768395e-01
1.600000000000000000e+01,5.274055419402737810e-01,4.271397805481427778e-01,9.985843543392544652e-02,-1.700440062310960565e-01,1.541862078549465220e-01,2.304059111463651580e-04,2.424003559700028607e-03,1.037450862461023610e-02,-2.319798490589170648e+00,9.440566645375718380e-02,7.450817525530854801e-02,3.937231519733348506e-01
1.625000000000000000e+01,5.056833405062437503e-01,4.456795402533069717e-01,9.989961311766820673e-02,-1.762051078227484524e-01,1.415850876443986994e-01,3.434105662512403350e-04,-4.657522092298084851e-03,1.150885545075756855e-02,-2.270660759845141374e+00,3.191034938896330619e-03,4.522038170604852220e-03,3.936465700453410932e-01
1.650000000000000000e+01,4.834149190518745587e-01,4.624233895741551303e-01,9.993578442382024252e-02,-1.802291637881028308e-01,1.273828584921603002e-01,2.386049853309946470e-04,-1.063022997380583560e-03,1.022042433800954796e-02,-2.221438162338377875e+00,-4.518367879965142636e-02,-2.894886132440475587e-02,3.932876747597632283e-01
1.675000000000000000e+01,4.604561915925939886e-01,4.777366230680892834e-01,9.996133902420109574e-02,-1.875741673080786043e-01,1.191342728104175797e-01,1.806331969215281053e-04,5.637650631711820133e-03,7.322149979790679164e-03,-2.172239067923257050e+00,-4.887305158596421534e-02,-2.602087898327182930e-02,3.929873202858252257e-01
1.700000000000000000e+01,4.363307252007067039e-01,4.924722072207869394e-01,9.998121598380015074e-02,-1.984796186137675333e-01,1.176015487688794880e-01,1.363246605239115314e-04,9.893037272340343344e-03,4.380832821635740650e-03,-2.123098848462781074e+00,-2.617322742317387471e-02,-4.652735098572573572e-03,3.928807050832915371e-01
1.725000000000000000e+01,4.107544771999269151e-01,5.072824574557281974e-01,9.999469674468701441e-02,-2.102166359917802263e-01,1.195188182802513072e-01,8.184268227605854650e-05,9.945575734697526676e-03,2.739324394934911609e-03,-2.073986884576972667e+00,1.274250698972355465e-03,1.517750825820558640e-02,3.929127240003488231e-01
1.750000000000000000e+01,3.838190572153143409e-01,5.223329372449044827e-01,1.000024025830265340e-01,-2.199233898778831242e-01,1.208704432745326685e-01,4.784331381117393488e-05,7.051038599371545375e-03,2.887529364379642135e-03,-2.024875556702375956e+00,1.932230243606421899e-02,2.233719117242070895e-02,3.929917731011943749e-01
1.775000000000000000e+01,3.558793389645574234e-01,5.373629793260911169e-01,1.000077045043879648e-01,-2.263523542454120574e-01,1.190284913550532231e-01,4.002814886065974410e-05,3.560012809823547182e-03,4.419743764631840766e-03,-1.975759174033677068e+00,2.402566023500676481e-02,1.680364507768409427e-02,3.930623544217302645e-01
1.800000000000000000e+01,3.273249065159657967e-01,5.519120094639106133e-01,1.000125897001721970e-01,-2.300533058261098607e-01,1.133424094149464434e-01,3.755472425817935614e-05,1.261863337261726146e-03,6.436864655520564520e-03,-1.926635713304674757e+00,1.867112931205260062e-02,5.404919199357561925e-03,3.931004218016423413e-01
1.825000000000000000e+01,2.984050388838181966e-01,5.655420608045231834e-01,1.000167941281032841e-01,-2.325042551444286010e-01,1.046402743154247472e-01,2.901521629766513154e-05,6.959338695582770878e-04,8.066346848421446225e-03,-1.877501665721554636e+00,9.096846016331228482e-03,-4.321225374667888447e-03,3.931012584678872934e-01
1.850000000000000000e+01,2.691832729153080250e-01,5.779668257842096590e-01,1.000196835763845910e-01,-2.350513322833888141e-01,9.435701034376982321e-02,1.763885289039983492e-05,1.372383526016575806e-03,8.819164822736492645e-03,-1.828359663818222458e+00,1.857007704235509788e-04,-8.320276732929189276e-03,3.930756479555220784e-01
1.875000000000000000e+01,2.396001320404231305e-01,5.890779531617517106e-01,1.000212565363460399e-01,-2.382915504807159857e-01,8.381733918732074684e-02,8.412640209598881298e-06,2.421414358953922347e-03,8.674433912728691728e-03,-1.779218110232703376e+00,-5.512380796993532686e-03,-6.862912718494104149e-03,3.930427956919969046e-01
1.900000000000000000e+01,2.095730843694449397e-01,5.989039987678094201e-01,1.000219112892394013e-01,-2.420635119058608953e-01,7.387126475968582018e-02,2.859466819130487884e-06,3.173609414617708201e-03,7.947197291366012509e-03,-1.730083127040826119e+00,-7.515542383474965379e-03,-2.853083649494358217e-03,3.930193153024982844e-01
1.925000000000000000e+01,1.790688186950365468e-01,6.075446423413762842e-01,1.000220955415795504e-01,-2.458318518713415168e-01,6.483222283850650913e-02,6.530610068944107250e-07,3.409225137106718876e-03,7.072793194154735653e-03,-1.680954545031549507e+00,-6.499713227043677106e-03,6.029576099369356960e-04,3.930121012001362990e-01
1.950000000000000000e+01,1.481208050898056572e-01,6.151091077311660049e-01,1.000221693116750549e-01,-2.491221593432365045e-01,5.657713838221976876e-02,8.096077981197284920e-07,3.283835106472085194e-03,6.425945438353010755e-03,-1.631828543616497207e+00,-3.511208046486521701e-03,1.861953172977177245e-03,3.930188043593090819e-01
1.975000000000000000e+01,1.168036209622778654e-01,6.216709883280253646e-01,1.000223456844217124e-01,-2.517582717992087882e-01,4.869341748808534570e-02,2.053974373234530131e-06,3.095230769861261576e-03,6.228949474752083250e-03,-1.582701508311813887e+00,4.254735305676044963e-04,1.072223934244981910e-03,3.930329604982927827e-01
2.000000000000000000e+01,8.519450159775332487e-02,6.272413911368596162e-01,1.000226926588415055e-01,-2.538436375804578593e-01,4.062134542408692844e-02,3.424736244892750896e-06,3.069681447503538451e-03,6.542569411226844059e-03,-1.533571521966730966e+00,4.407126219280558914e-03,-5.276860629662364754e-04,3.930486871747518873e-01
2.025000000000000000e+01,5.334905352461495609e-02,6.317590353316854257e-01,1.000231941097260158e-01,-2.555823274055801786e-01,3.178361955600118860e-02,4.492556902956136430e-06,3.265891585841789509e-03,7.303898245567020352e-03,-1.484438154655599140e+00,7.673189755327204827e-03,-1.625070042161375680e-03,3.930623650487957699e-01
2.050000000000000000e+01,2.130161925937165343e-02,6.350957291538695815e-01,1.000237963491844156e-01,-2.570873734205588179e-01,2.170144630519530923e-02,5.011790478755204835e-06,3.598594096128196647e-03,8.377147955104191634e-03,-1.435302073259117517e+00,9.676228497658031363e-03,-1.542302549349084187e-03,3.930721377701130170e-01
2.075000000000000000e+01,-1.091576380502522724e-02,6.370748839886990478e-01,1.000244133163324528e-01,-2.582830296217253352e-01,1.008474541082109675e-02,4.716401883278053403e-06,3.924546457235915040e-03,9.599389990869913736e-03,-1.386164759962416282e+00,1.018900060409975473e-02,-3.870771477911709511e-04,3.930771709703134720e-01
2.100000000000000000e+01,-4.325001264218365782e-02,6.374985097993114413e-01,1.000249338651698766e-01,-2.589256689602613681e-01,-3.124081497658604770e-03,3.511851853758226561e-06,4.125760519051266395e-03,1.081691546494263460e-02,-1.337028008407889601e+00,9.358372598624138325e-03,1.242935664632277516e-03,3.930774920397968053e-01
2.125000000000000000e+01,-7.561180586372868995e-02,6.361759140256736389e-01,1.000252575880103273e-01,-2.587002217915837510e-01,-1.776526272819104607e-02,1.660987323046432787e-06,4.151487980662515315e-03,1.191218371348035966e-02,-1.287893237540022717e+00,7.635497918637792342e-03,2.703227071600684903e-03,3.930740190653108646e-01
2.150000000000000000e+01,-1.078736473137399537e-01,6.329470341686024293e-01,1.000253357124501752e-01,-2.573247933117737141e-01,-3.352744180418815167e-02,-3.210296823642238178e-07,4.015061856560858157e-03,1.281925660412307905e-02,-1.238761041035990829e+00,5.589896388131016490e-03,3.620360465414698518e-03,3.930682753613751745e-01
2.175000000000000000e+01,-1.398786496633413479e-01,6.276957314683330180e-01,1.000251850109340201e-01,-2.546135574511545485e-01,-5.003598092099582895e-02,-1.947653903994653184e-06,3.764405431545306182e-03,1.352400416331682974e-02,-1.189631234232533696e+00,3.689301166560152688e-03,3.963863255193628143e-03,3.930618064433133996e-01
2.200000000000000000e+01,-1.714535997374399823e-01,6.203525102909316358e-01,1.000248682741952944e-01,-2.504851962518584996e-01,-6.692880418000587972e-02,-2.984791399060847909e-06,3.449819979619342478e-03,1.404845825488812601e-02,-1.140503255172780284e+00,2.149558321454291335e-03,3.915731759486826280e-03,3.930556534823057002e-01
2.225000000000000000e+01,-2.024204907619129024e-01,6.108900053971940691e-01,1.000244575245330114e-01,-2.449359609159822426e-01,-8.389495882222766654e-02,-3.502309703519608610e-06,3.104529343796215424e-03,1.442527436669646494e-02,-1.091376579571170513e+00,9.194969095621257109e-04,3.673040011565092879e-03,3.930501722144431609e-01
2.250000000000000000e+01,-2.326040783964100078e-01,5.993163838783225339e-01,1.000240015887092077e-01,-2.380080277362211505e-01,-1.006720337836739670e-01,-3.767762904641003045e-06,2.741470598746220764e-03,1.467353822138818022e-02,-1.042250917517546505e+00,-2.074026430880872892e-04,3.314329590931648205e-03,3.930452349982812010e-01
2.275000000000000000e+01,-2.618364529837729493e-01,5.856709209237973557e-01,1.000235130122903715e-01,-2.297749981674030162e-01,-1.170186993765571781e-01,-4.061349824054248944e-06,2.361111730802283645e-03,1.478694846903565868e-02,-9.931261705893807967e-01,-1.425578725984158685e-03,2.788803850590600413e-03,3.930406371944282773e-01
2.300000000000000000e+01,-2.899611713936378066e-01,5.700232348228760904e-01,1.000229780239748761e-01,-2.203476194000879296e-01,-1.326878260319905023e-01,-4.507255492324077281e-06,1.962272217741782652e-03,1.473914336370372308e-02,-9.440022614643726051e-01,-2.786124408773135632e-03,2.002332431532366595e-03,3.930364383881357893e-01
2.325000000000000000e+01,-3.168387787690692403e-01,5.524746777772039374e-01,1.000223818127671388e-01,-2.098872251372213837e-01,-1.474204680425638403e-01,-5.005761754150222526e-06,1.549819057082959259e-03,1.450180584017094279e-02,-8.948789746251090138e-01,-4.165995488898610426e-03,9.221885938672122430e-04,3.930330257986767717e-01
2.350000000000000000e+01,-3.423535984974944713e-01,5.331587675137094973e-01,1.000217330995037818e-01,-1.986105343417725599e-01,-1.609657193206261716e-01,-5.309025170986367269e-06,1.136897688535115636e-03,1.406421865663484184e-02,-8.457559050068257367e-01,-5.343514379791255466e-03,-3.760358635846366222e-04,3.930308744391040054e-01
2.375000000000000000e+01,-3.664200526394219559e-01,5.122380111404694070e-01,1.000210716078206163e-01,-1.867776463010022980e-01,-1.731151837217055345e-01,-5.200537045715788614e-06,7.426128075691853766e-04,1.344218822587748413e-02,-7.966325339647344350e-01,-6.127807586549467722e-03,-1.749206919814628872e-03,3.930301978151806708e-01
2.400000000000000000e+01,-3.889866177226333765e-01,4.898965294144620453e-01,1.000204528812203286e-01,-1.746684991691534461e-01,-1.837325754937779720e-01,-4.654708114830321923e-06,3.876735979025922908e-04,1.267051680786742893e-02,-7.475083740322121528e-01,-6.462264006505209248e-03,-3.083163363747574472e-03,3.930307667531594551e-01
2.425000000000000000e+01,-4.100368584961904261e-01,4.663301929822041836e-01,1.000199213866276304e-01,-1.625621984295702038e-01,-1.927629522786980520e-01,-3.856048194380258636e-06,9.051487444997286186e-05,1.178323659600829382e-02,-6.983830912878792319e-01,-6.440697220386299923e-03,-4.373434148335119190e-03,3.930320289586397009e-01
2.450000000000000000e+01,-4.295888042344874758e-01,4.417371228749898959e-01,1.000194917020575808e-01,-1.507320324194972305e-01,-2.002193371317460002e-01,-3.064857983273120928e-06,-1.345654399970718548e-04,1.079392093133782655e-02,-6.492565466815847230e-01,-6.228768868407588873e-03,-5.725127511347974374e-03,3.930334042957782659e-01
2.475000000000000000e+01,-4.476948507316645398e-01,4.163107299657711202e-01,1.000191512560064389e-01,-1.394571898354965422e-01,-2.061586959951168252e-01,-2.430884747152319110e-06,-2.769763585902884975e-04,9.689676373455505601e-03,-6.001287642727722860e-01,-5.940716571515855873e-03,-7.256341609786129930e-03,3.930344974351303033e-01
2.500000000000000000e+01,-4.644435234828314663e-01,3.902354433862839644e-01,1.000188824599074489e-01,-1.290374233231663670e-01,-2.106656472075296993e-01,-1.886178122179973203e-06,-3.279185476272789327e-04,8.445738513361847333e-03,-5.509998807844734836e-01,-5.548578831298955211e-03,-8.952632338518933669e-03,3.930350756324860750e-01
2.525000000000000000e+01,-4.799620840273652878e-01,3.636832087875477293e-01,1.000186882557495965e-01,-1.197888525074474186e-01,-2.138568936556116684e-01,-1.199313618168191473e-06,-2.784198300592210292e-04,7.056354198199112429e-03,-5.018701262483203918e-01,-4.881978696317201306e-03,-1.055830332459924484e-02,3.930348994554339059e-01
2.550000000000000000e+01,-4.944164062202917043e-01,3.368080682747949806e-01,1.000186004251678445e-01,-1.120039621127441598e-01,-2.159053172827186673e-01,-1.805093158863599158e-07,-1.187973543071392860e-04,5.567989359071823241e-03,-4.527398370075457756e-01,-3.723252931803462760e-03,-1.157867747616568924e-02,3.930336684567747318e-01
2.575000000000000000e+01,-5.080034079026353178e-01,3.097372426458016026e-01,1.000186590782547319e-01,-1.058753446245644381e-01,-2.170682569674347306e-01,1.094960299981866383e-06,1.595314980063530623e-04,4.098150044458818628e-03,-4.036094429159726160e-01,-1.948399804527468481e-03,-1.141270972718288514e-02,3.930313067217163225e-01
2.600000000000000000e+01,-5.209325805698997724e-01,2.825596008005217263e-01,1.000188744877449354e-01,-1.014028195831662149e-01,-2.176980562687427789e-01,2.254811478684081510e-06,5.599537241547146785e-04,2.828422810858522828e-03,-3.544793482437171295e-01,3.594078762659754260e-04,-9.571033751884163929e-03,3.930285338047436183e-01
2.625000000000000000e+01,-5.333966116213496589e-01,2.553149270686926320e-01,1.000192044117971524e-01,-9.831730964105223070e-02,-2.182180885079428034e-01,2.897259954817804788e-06,1.075431371854220983e-03,1.970550110889187755e-03,-3.053496849564050764e-01,2.881202514037923580e-03,-5.895080364436884775e-03,3.930272827538714431e-01
2.650000000000000000e+01,-5.455354736804604032e-01,2.279886512781657826e-01,1.000195765008764504e-01,-9.605577111239781141e-02,-2.190615212565881764e-01,2.987522811363029890e-06,1.684056152529291462e-03,1.714523398341054501e-03,-2.562200502835912386e-01,5.134912196846449887e-03,-6.922965654164181266e-04,3.930303597375187641e-01
2.675000000000000000e+01,-5.574019586545733151e-01,2.005159767354948719e-01,1.000199481876179186e-01,-9.380896322244504371e-02,-2.205864480674175065e-01,3.004944194081300161e-06,2.347414531698586125e-03,2.174028095104938840e-03,-2.070894520878632794e-01,6.622519005139082190e-03,5.266985426081664812e-03,3.930400900001251308e-01
2.700000000000000000e+01,-5.689380284347804739e-01,1.727968044704252526e-01,1.000203536184027520e-01,-9.064235241896620443e-02,-2.229926979363054118e-01,3.595672630581940190e-06,3.013135678490832213e-03,3.345698345592418646e-03,-1.579566426787190614e-01,6.996593749163646653e-03,1.089999663952475120e-02,3.930564860747212119e-01
2.725000000000000000e+01,-5.799698629992110499e-01,1.447194219550845540e-01,1.000208831693601835e-01,-8.566710504496651002e-02,-2.262680853739522657e-01,4.923068896845156944e-06,3.621765358885494120e-03,5.094978576639865205e-03,-1.088207859238246589e-01,6.185039209945219878e-03,1.507269710993655240e-02,3.930761396580509381e-01
2.750000000000000000e+01,-5.902253625721496366e-01,1.161878516681724011e-01,1.000215916160319685e-01,-7.822028993767222993e-02,-2.301841973636453431e-01,6.268286033603402798e-06,4.116710571174125345e-03,7.174376914245259029e-03,-5.968211462000327233e-02,4.428039268940339550e-03,1.690066440025352057e-02,3.930929143141133064e-01
2.775000000000000000e+01,-5.993721843465195098e-01,8.714616718979643906e-02,1.000223993456794136e-01,-6.800675734794142668e-02,-2.343466514268219281e-01,6.333210466910985040e-06,4.454901743849427193e-03,9.271388609318311283e-03,-1.054213548101590354e-02,2.211364258342954619e-03,1.600339431372950136e-02,3.931004697611387710e-01
2.800000000000000000e+01,-6.070687666898666457e-01,5.759360869391156462e-02,1.000230747514344321e-01,-5.516226118288628660e-02,-2.382871834936145794e-01,4.143891805856696813e-06,4.615389601537444111e-03,1.107529818493723991e-02,3.859683835457985296e-02,1.158009790917628609e-04,1.263294807141259607e-02,3.930953393626832604e-01
2.825000000000000000e+01,-6.130169002175251958e-01,2.758688297205430864e-02,1.000233340975728441e-01,-4.021711062829905203e-02,-2.415708859550528831e-01,-1.060262480857753462e-07,4.603484871993390390e-03,1.234622881677388193e-02,8.773262346463360506e-02,-1.367103130930457603e-03,7.627793924554092907e-03,3.930787237966382741e-01
2.850000000000000000e+01,-6.170035481350718554e-01,-2.770170866300108656e-03,1.000230027887695772e-01,-2.396715746827609086e-02,-2.438864549822176153e-01,-4.974676862531416738e-06,4.449162284667753341e-03,1.296785736516029540e-02,1.368640505770256921e-01,-1.987802048452954641e-03,2.191664882926865586e-03,3.930558896838445282e-01
2.875000000000000000e+01,-6.189222941347226614e-01,-3.334559477324638282e-02,1.000221264133981658e-01,-7.286466703328936881e-03,-2.450928668926111165e-01,-8.581177053222526334e-06,4.199980396751801411e-03,1.296832336909375591e-02,1.859913157829378438e-01,-1.802511637256412266e-03,-2.446186785189090329e-03,3.930336011215742609e-01
2.900000000000000000e+01,-6.187704308959429689e-01,-6.400063162592664612e-02,1.000209528363371209e-01,9.065320039963412763e-03,-2.452111706645408451e-01,-9.709596091481221942e-06,3.910291971782260331e-03,1.250201258680583120e-02,2.351156801012919129e-01,-1.121172538270946185e-03,-5.386838036825093018e-03,3.930172025907120448e-01
2.925000000000000000e+01,-6.166246868097537970e-01,-9.460683555711819903e-02,1.000198027556115921e-01,2.458534650945065625e-02,-2.443699254122879139e-01,-8.393755825336858390e-06,3.629592443874189635e-03,1.179646574913040084e-02,2.842387965382956461e-01,-3.581738850892369152e-04,-6.313727873213044288e-03,3.930089380707121882e-01
2.950000000000000000e+01,-6.126046803406312025e-01,-1.250546835688866321e-01,1.000189226525801528e-01,3.908022341893500201e-02,-2.427296529549154147e-01,-5.650528920761698005e-06,3.393121046470732021e-03,1.108056469874075904e-02,3.333620828243635259e-01,1.514326519543104260e-04,-5.543802027592229301e-03,3.930080118227809449e-01
