time_total,x,y,z,vx,vy,vz,roll,pitch,yaw,roll_rate,pitch_rate,yaw_rate
-01,9.990654869286683115e-02,-1.292069168738018692e-01,4.907407148418234388e-02,3.726977793262418450e-04,2.262765490888560185e-03,3.434816684513074627e-04,-1.518261241014050134e+00,1.769475143602476999e-02,-1.514257268161235508e-02,2.620541996603482637e-01
2.500000000000000000e-01,2.899259678879039740e-03,5.193190641903403515e-01,9.994579924260606207e-02,-1.322913513019123577e-01,4.706211047902644079e-02,2.646897183013464353e-04,4.364794546417008828e-03,2.136525057226802519e-03,-1.485501213022205391e+00,1.343665109650172586e-02,-1.436875810472091480e-02,2.620605456064110106e-01
5.000000000000000000e-01,-1.395049042745307236e-02,5.249481516245739776e-01,9.997346986443977901e-02,-1.373747012805418832e-01,4.281818840647010765e-02,1.844238722404429513e-04,5.743464122892509745e-03,3.449953479387339681e-03,-1.452740062045605685e+00,9.943507667003989234e-03,-5.072522107000684670e-03,2.620567884121343671e-01
7.500000000000000000e-01,-3.149326637942744672e-02,5.299303926568208478e-01,9.999246402792130728e-02,-1.430882357140577654e-01,3.684576771673457596e-02,1.247478001519783158e-04,5.861659187465296725e-03,4.515056429458338613e-03,-1.419983003544056377e+00,7.343731139664903818e-03,4.667313333171415994e-03,2.620506556137138787e-01
1.000000000000000000e+00,-4.970777657297847929e-02,5.340775307619419765e-01,1.000052352568086139e-01,-1.479438166589358283e-01,2.956677707777478903e-02,8.383809508967576352e-05,5.028951896597140536e-03,5.438369557368608054e-03,-1.387231168972273609e+00,5.041110672452270638e-03,9.780604591723283253e-03,2.620464612880177291e-01
1.250000000000000000e+00,-6.842438723344625162e-02,5.372524739687127848e-01,1.000138871901226495e-01,-1.511127135228645668e-01,2.139264193461516000e-02,5.734893474061145884e-05,3.899812386703626916e-03,6.138355477346652510e-03,-1.354482153378575138e+00,2.329325069642295114e-03,9.329728406089402362e-03,2.620426192707798752e-01
1.500000000000000000e+00,-8.742478156647642829e-02,5.393731959399722387e-01,1.000198241093750440e-01,-1.526010740138426525e-01,1.280049510825690719e-02,3.922677432995945939e-05,3.014675379431591262e-03,6.424953361832412731e-03,-1.321732867825844426e+00,-1.112253735595386582e-03,5.257470060981672168e-03,2.620346310221695618e-01
1.750000000000000000e+00,-1.065323976383365234e-01,5.404232679795490935e-01,1.000238211994511073e-01,-1.529872660584506161e-01,4.357639232734216404e-03,2.583930408979354196e-05,2.587687480926902008e-03,6.136416743310638307e-03,-1.288982100489201255e+00,-4.997422065471197536e-03,3.316759534098208438e-04,2.620206747866856700e-01
2.000000000000000000e+00,-1.256578840608182923e-01,5.404605597088032454e-01,1.000264005446853954e-01,-1.530181097837359783e-01,-3.330718033818688174e-03,1.640520518083803472e-05,2.542262932781782798e-03,5.248114394922655246e-03,-1.256230883710130586e+00,-8.520461895396796645e-03,-3.406919867290263484e-03,2.620038322333878567e-01
2.250000000000000000e+00,-1.447983253259274294e-01,5.396149106223656622e-01,1.000280513566142171e-01,-1.532971332359476246e-01,-9.738700897150360386e-03,1.077971631614174906e-05,2.674409098412006396e-03,3.908708184862043529e-03,-1.223480774396062953e+00,-1.067168241095519006e-02,-5.176016254248190507e-03,2.619896713213102357e-01
2.500000000000000000e+00,-1.640088899934343813e-01,5.380690677667997468e-01,1.000291976788600240e-01,-1.541514065939496858e-01,-1.456104641686816782e-02,8.002539143248590874e-06,2.810197525163270465e-03,2.405204204556127441e-03,-1.190732178797657248e+00,-1.063058803965035229e-02,-5.158310211861894500e-03,2.619825024091222421e-01
2.750000000000000000e+00,-1.833678109111853693e-01,5.360232725994463765e-01,1.000300958331092754e-01,-1.556407606223467188e-01,-1.782574913559622012e-02,6.503527248888546269e-06,2.880964161132083118e-03,1.086263588470454946e-03,-1.157984245878671992e+00,-8.080906053188965932e-03,-3.901507149290106991e-03,2.619836954575688881e-01
3.000000000000000000e+00,-2.029471296671799263e-01,5.336501066930687820e-01,1.000308180864767221e-01,-1.576247806833356024e-01,-1.993402857896899374e-02,5.058414463168447940e-06,2.911427674666275823e-03,2.777127034351431424e-04,-1.125235767329733738e+00,-3.344909972766578737e-03,-1.862768715106617907e-03,2.619925044281815052e-01
3.250000000000000000e+00,-2.227917351886571917e-01,5.310502783245331093e-01,1.000313471745329641e-01,-1.598215238620811218e-01,-2.160747284709274921e-02,3.480316087785088547e-06,2.961219439754018967e-03,2.136031625578996035e-04,-1.092485783292096668e+00,2.685145537226620721e-03,7.171156636514632596e-04,2.620075028288544328e-01
3.500000000000000000e+00,-2.429039515424644413e-01,5.282206783672228623e-01,1.000317079286951877e-01,-1.618392842778675345e-01,-2.375109847316381195e-02,2.506886131615872856e-06,3.067789561583786871e-03,9.923265224994863576e-04,-1.059733565954602108e+00,8.770466897211625507e-03,3.678397924780127393e-03,2.620268926482667848e-01
3.750000000000000000e+00,-2.632313123663846954e-01,5.250433201171187392e-01,1.000320332736660545e-01,-1.632011573711376895e-01,-2.726465676095292390e-02,2.951539101059886387e-06,3.219758028658562584e-03,2.558198118590222087e-03,-1.026978588503174583e+00,1.362033771081025760e-02,6.735828932357291327e-03,2.620477379648134542e-01
4.000000000000000000e+00,-2.836586289167906116e-01,5.212988233373161417e-01,1.000325078933333167e-01,-1.633928256470527918e-01,-3.284657399862404847e-02,4.727936380486855394e-06,3.364141673359852865e-03,4.706288994902663170e-03,-9.942209027259552023e-01,1.617619119310811579e-02,9.371329248989037145e-03,2.620655016788996372e-01
4.250000000000000000e+00,-3.040085034155312060e-01,5.167024601812167939e-01,1.000332228557040126e-01,-1.619491029019001771e-01,-4.083453058390509177e-02,6.485039934719955955e-06,3.433488167506723934e-03,7.109313669680285101e-03,-9.614616032794943701e-01,1.582868604737459189e-02,1.089819122159303016e-02,2.620750007734352072e-01
4.500000000000000000e+00,-3.240547252703242509e-01,5.109558392977529007e-01,1.000340468921464276e-01,-1.585686754749317251e-01,-5.111684080130941138e-02,6.216968620569000345e-06,3.374771497382089008e-03,9.366088859394300359e-03,-9.287027646052546936e-01,1.253978258502850066e-02,1.066626034878766748e-02,2.620725838477893643e-01
4.750000000000000000e+00,-3.435501495896121638e-01,5.038039762649280107e-01,1.000346258073993577e-01,-1.532246692248719622e-01,-6.313366180133833661e-02,2.581875837613633570e-06,3.167593464205178868e-03,1.106886637322666844e-02,-8.959466597875118676e-01,6.859940392774560407e-03,8.315504281512222859e-03,2.620582189141967278e-01
5.000000000000000000e+00,-3.622659320818177875e-01,4.950862211298432403e-01,1.000345500567167700e-01,-1.462307768168620292e-01,-7.596985420659799204e-02,-3.887656036442065052e-06,2.828119395764324556e-03,1.188156190176238754e-02,-8.631946979253046770e-01,-1.616322323356539305e-04,3.973986455380629570e-03,2.620360442731168304e-01
5.250000000000000000e+00,-3.800343276027277062e-01,4.847704161320418037e-01,1.000336138587208240e-01,-1.382307515029047307e-01,-8.852390239071929179e-02,-1.062919649403456742e-05,2.401854492401491684e-03,1.161470928731095885e-02,-8.304467659650771605e-01,-7.168051908539299286e-03,-1.677072266457932696e-03,2.620127864290967001e-01
5.500000000000000000e+00,-3.967844501331256324e-01,4.729626633231659438e-01,1.000319989689049532e-01,-1.300993580888305801e-01,-9.972133006354777507e-02,-1.434844526670462321e-05,1.950816988841077562e-03,1.027907034190251798e-02,-7.977013861551052187e-01,-1.276572858134846812e-02,-7.503535687714714582e-03,2.619947632600835852e-01
5.750000000000000000e+00,-4.125605513585535733e-01,4.598898575512272435e-01,1.000302323856169240e-01,-1.227686826760332611e-01,-1.087291175931292819e-01,-1.311173001674355327e-05,1.539803689561634967e-03,8.100856913297415154e-03,-7.649565632327984810e-01,-1.582957084784560042e-02,-1.216815392577805938e-02,2.619851862154334854e-01
6.000000000000000000e+00,-4.275157149750790642e-01,4.458579498869380542e-01,1.000289099835498796e-01,-1.170176182471794613e-01,-1.151234108074158657e-01,-7.756095558241962937e-06,1.224382119219728912e-03,5.488585089118112013e-03,-7.322107709425524913e-01,-1.577276071648860134e-02,-1.447050657120419262e-02,2.619834207995894726e-01
6.250000000000000000e+00,-4.418796883726140434e-01,4.311945511474032933e-01,1.000283594362237211e-01,-1.132774122056931787e-01,-1.189697252771382691e-01,-1.404121885735031168e-06,1.041656641321034435e-03,2.953674154508409422e-03,-6.994634704839598482e-01,-1.270304867001371095e-02,-1.368550526655367382e-02,2.619865917905374597e-01
6.500000000000000000e+00,-4.559064105524023858e-01,4.161884816886368132e-01,1.000284848288971046e-01,-1.115071182954354423e-01,-1.207937020233283282e-01,2.725179873532317767e-06,1.004294535775322522e-03,1.000700666082990180e-03,-6.667148970791717533e-01,-7.407674284048852524e-03,-9.798908330728670416e-03,2.619922089615357441e-01
6.750000000000000000e+00,-4.698127181066679703e-01,4.010399144778294400e-01,1.000289091779527212e-01,-1.111778210977264203e-01,-1.214476387302335370e-01,3.547506825400801595e-06,1.098394522351177653e-03,1.389280030450419428e-05,-6.339653798476176938e-01,-1.157260889148474699e-03,-3.559869350653843429e-03,2.619997035438333954e-01
7.000000000000000000e+00,-4.837228732381611551e-01,3.858322691710204810e-01,1.000292950062298264e-01,-1.113766748473445367e-01,-1.219058084042800166e-01,2.571646041287747377e-06,1.285841513727814002e-03,1.695956919612488843e-04,-6.012147990397815889e-01,4.621219318196811109e-03,3.677310678100966044e-03,2.620097111149818359e-01
7.250000000000000000e+00,-4.976328170238488724e-01,3.705315096468929648e-01,1.000295783289140428e-01,-1.110089646603495822e-01,-1.230408909921803656e-01,2.238942746336703767e-06,1.511329007398825100e-03,1.398077533089737458e-03,-5.684626503432550493e-01,8.705640483619108902e-03,1.028204983722378826e-02,2.620219337349832256e-01
7.500000000000000000e+00,-5.114034462473455722e-01,3.550115173538178626e-01,1.000299323032188825e-01,-1.090489828782302689e-01,-1.254378834113148433e-01,3.627633841911161861e-06,1.713214585728831119e-03,3.403891994820652106e-03,-5.357086561490393972e-01,1.036578436326940356e-02,1.475014266440787154e-02,2.620337124384131688e-01
7.750000000000000000e+00,-5.247850399709403924e-01,3.390978235301324584e-01,1.000305144284242970e-01,-1.047775146721973694e-01,-1.292892239668192722e-01,5.509740232074481503e-06,1.836187427654824289e-03,5.737289837668830585e-03,-5.029533711848480637e-01,9.497711117585820248e-03,1.606344610696958108e-02,2.620408276620551646e-01
8.000000000000000000e+00,-5.374673287381921405e-01,3.226180175441099585e-01,1.000312328298248177e-01,-9.794878583975095976e-02,-1.343903461099491825e-01,5.490508318994232968e-06,1.842925113412998426e-03,7.896047702964901355e-03,-4.701982048394456326e-01,6.582797494268006339e-03,1.391254553532260928e-02,2.620400617355181372e-01
8.250000000000000000e+00,-5.491437335236692974e-01,3.054465520470215911e-01,1.000317384274805182e-01,-8.884985832814351614e-02,-1.402271761635241198e-01,2.159410706105604367e-06,1.721928064984239084e-03,9.431638671406932656e-03,-4.374447547344541554e-01,2.505480485727329485e-03,8.739588836069159608e-03,2.620314976477731705e-01
8.500000000000000000e+00,-5.595754237022720901e-01,2.875342481557029428e-01,1.000316512558161314e-01,-7.824301711517468727e-02,-1.461250045786365304e-01,-3.564305966377168687e-06,1.489622141309290999e-03,1.003635635316611936e-02,-4.046939108981809086e-01,-1.700922365625014317e-03,1.613323105974749649e-03,2.620187229365916748e-01
8.750000000000000000e+00,-5.686414212987961347e-01,2.689174637641416066e-01,1.000308398788022218e-01,-6.720818165990898041e-02,-1.514171642388348615e-01,-8.914328528652336149e-06,1.186312764359926828e-03,9.596056619195290904e-03,-3.719453768182941489e-01,-5.105262880424007305e-03,-6.014024548382458125e-03,2.620067726054487456e-01
9.000000000000000000e+00,-5.763644518921241522e-01,2.497071369547163022e-01,1.000295403906715369e-01,-5.692172703216857171e-02,-1.555929146723505907e-01,-1.112887981252882671e-05,8.671368190585577529e-04,8.202767880151246721e-03,-3.391979325983897064e-01,-7.068723374272430603e-03,-1.260419680494783562e-02,2.619993187398894641e-01
9.250000000000000000e+00,-5.829075178866709450e-01,2.300624066161949810e-01,1.000282306350426254e-01,-4.841775829235467343e-02,-1.583941501103151572e-01,-9.261609560928622052e-06,5.902886090342960961e-04,6.129567295728901265e-03,-3.064502204561662668e-01,-7.343917987842405251e-03,-1.682566570037546602e-02,2.619970268832021998e-01
9.500000000000000000e+00,-5.885420331425386120e-01,2.101563594165267723e-01,1.000273524844696865e-01,-4.237815859088359810e-02,-1.598457053227956004e-01,-4.703917226611930052e-06,4.052012415702652549e-04,3.775566097037084262e-03,-2.737014878919950545e-01,-6.078783830892969808e-03,-1.779568327536617395e-02,2.619980167886780120e-01
9.750000000000000000e+00,-5.935937409218171590e-01,1.901423175540088994e-01,1.000270727080209421e-01,-3.899036430706899481e-02,-1.602199329924962057e-01,-1.494339134098775643e-07,3.430462328101911641e-04,1.591845635144589419e-03,-2.409518052949042588e-01,-3.739859553894640982e-03,-1.523930277897541687e-02,2.619998563895074573e-01
1.000000000000000000e+01,-5.983767198727211190e-01,1.701280900704366661e-01,1.000272356621498965e-01,-3.789892414251766484e-02,-1.599496923411807270e-01,2.220970532886236847e-06,4.111227184590822512e-04,4.980458438720821447e-07,-2.082016812841950004e-01,-9.803211186109033609e-04,-9.545058209338994418e-03,2.620015492336268959e-01
1.025000000000000000e+01,-6.031280092450223007e-01,1.501632039525808981e-01,1.000275255870502339e-01,-3.826054379678549278e-02,-1.595129843984803564e-01,2.091935187421493853e-06,5.917862694391680953e-04,-6.808333601653625321e-04,-1.754514236654778903e-01,1.517284141545995448e-03,-1.708380083309585804e-03,2.620041067564669035e-01
1.050000000000000000e+01,-6.079554505400132092e-01,1.302409203648099700e-01,1.000277157101907149e-01,-3.889448471449966083e-02,-1.593163511909352903e-01,1.012974646341663249e-06,8.457732965765164595e-04,-2.971806955256117927e-04,-1.427007523649941045e-01,3.193177597826485966e-03,6.833615189693388083e-03,2.620093534477576647e-01
1.075000000000000000e+01,-6.128091945736912072e-01,1.103134881819541058e-01,1.000278258184285896e-01,-3.850293294505941627e-02,-1.596027670109214647e-01,1.068933142928088911e-06,1.119193913743080646e-03,1.112741707960413374e-03,-1.099489727479671525e-01,3.729168585425861587e-03,1.445742893616872374e-02,2.620178826291602037e-01
1.100000000000000000e+01,-6.174831820978802233e-01,9.031622434196777405e-02,1.000280752437189002e-01,-3.592166187022682866e-02,-1.604035675091222135e-01,3.156375939425261398e-06,1.353041889238420234e-03,3.319514017240136807e-03,-7.719560299667579950e-02,3.110752921777649050e-03,1.966212263319344969e-02,2.620277355804010999e-01
1.125000000000000000e+01,-6.216473227119363454e-01,7.019418159675919200e-02,1.000286638297790409e-01,-3.035283694216988487e-02,-1.615439372035782917e-01,6.114243095017456495e-06,1.493730876881340297e-03,5.941660407799122245e-03,-4.444099642633640712e-02,1.617795677585548864e-03,2.137672617196976002e-02,2.620349482796964780e-01
1.150000000000000000e+01,-6.249049906011908684e-01,4.992475465364447362e-02,1.000295427149269917e-01,-2.153206220452032540e-02,-1.626991972498473826e-01,7.410340779852831551e-06,1.502916914341451051e-03,8.514961185751275183e-03,-1.168645827150889029e-02,-2.568291271346782498e-04,1.919920916484567711e-02,2.620358136841136054e-01
1.175000000000000000e+01,-6.268650482983725292e-01,2.953072047525261840e-02,1.000303554233243908e-01,-9.792456644966134049e-03,-1.634870027565500927e-01,4.979469663718240841e-06,1.364813787118987921e-03,1.058034985386300392e-02,2.106631982366119829e-02,-1.943217808598078590e-03,1.350415706083473756e-02,2.620293972229943980e-01
1.200000000000000000e+01,-6.272141854013288942e-01,9.080700552194224950e-03,1.000306144522804808e-01,3.991110366437166171e-03,-1.635715359830355875e-01,-1.091813269665310956e-06,1.089485850603737682e-03,1.177284890260878701e-02,5.381619973544609498e-02,-2.950671839874828735e-03,5.380412295488350150e-03,2.620184963833726011e-01
1.225000000000000000e+01,-6.257749103749140618e-01,-1.132269999018503670e-02,1.000300052945073820e-01,1.856830540258085777e-02,-1.627525849916692524e-01,-8.315079749852288295e-06,7.112728517319012516e-04,1.189225459696857320e-02,8.656330314128898862e-02,-3.000980055335563269e-03,-3.597770211517774784e-03,2.620082188286967928e-01
1.250000000000000000e+01,-6.225373989960659715e-01,-3.156361657934263903e-02,1.000286076328491952e-01,3.255516814422013128e-02,-1.610164141524411396e-01,-1.324830349823668520e-05,2.824846759982782974e-04,1.093959897372503293e-02,1.193089988503538701e-01,-2.100158148866293831e-03,-1.171469441436344232e-02,2.620030281753617518e-01
1.275000000000000000e+01,-6.176590464049489526e-01,-5.153678727797855047e-02,1.000268752981394726e-01,4.469860255632070178e-02,-1.585358145250044537e-01,-1.363911761743562507e-05,-1.364206197743988741e-04,9.111343189588873293e-03,1.520551630679461974e-01,-5.280602943114724463e-04,-1.748620356772544529e-02,2.620042211314282388e-01
1.300000000000000000e+01,-6.114326453278906559e-01,-7.116814141479886613e-02,1.000253869587117289e-01,5.410581796399813181e-02,-1.556207665199556833e-01,-9.745876814307094448e-06,-4.881097243681093031e-04,6.753526703343484296e-03,1.848031914243861984e-01,1.249348638523828381e-03,-1.996737066365941032e-02,2.620094838075944232e-01
1.325000000000000000e+01,-6.042308374760260170e-01,-9.042677832197063004e-02,1.000245382715024972e-01,6.039081232881897410e-02,-1.526345654143017594e-01,-3.966308705438817448e-06,-7.286934456655414557e-04,4.287568151919951727e-03,2.175533822078808410e-01,2.716866570366637239e-03,-1.892220863986860194e-02,2.620146813358524840e-01
1.350000000000000000e+01,-5.964391902388122002e-01,-1.093254884264586724e-01,1.000243746870507489e-01,6.371124307292404254e-02,-1.498990526047522254e-01,8.345338697886104924e-07,-8.349783587513420020e-04,2.125244698976436718e-03,2.503050190340241898e-01,3.454983739585697818e-03,-1.482535896303048724e-02,2.620165232568955060e-01
1.375000000000000000e+01,-5.883919064788534214e-01,-1.279101199233863007e-01,1.000246503492820266e-01,6.469515742774707701e-02,-1.476144388232874527e-01,3.037478883438737533e-06,-8.073345864582978778e-04,5.912127325062199908e-04,2.830569977967382078e-01,3.252975644905692180e-03,-8.712173612465212366e-03,2.620143125960369135e-01
1.400000000000000000e+01,-5.803226520673439026e-01,-1.462410180690019712e-01,1.000250388900026932e-01,6.428074866234784190e-02,-1.458141598081074686e-01,2.896931694758611328e-06,-6.678923603008178351e-04,-1.322050852279185393e-04,3.158085228736901562e-01,2.163003198302572427e-03,-1.927759296820107148e-03,2.620098203485763944e-01
1.425000000000000000e+01,-5.723389661209611345e-01,-1.643717167293498871e-01,1.000253349751941134e-01,6.350816695694293246e-02,-1.443653301956999979e-01,1.859942921086536829e-06,-4.547488717461340368e-04,-2.952526514071323414e-05,3.485594369434613093e-01,4.860406513980049551e-04,4.160329384722746653e-03,2.620056849538044963e-01
1.450000000000000000e+01,-5.644233609517408379e-01,-1.823306302016107494e-01,1.000255206968276023e-01,6.330818830873580216e-02,-1.430136698017947516e-01,1.269283951899259708e-06,-2.135714418378751168e-04,7.557063608707683582e-04,3.813100658129618403e-01,-1.302631330232049663e-03,8.425272378696358269e-03,2.620036169457961583e-01
1.475000000000000000e+01,-5.564587693786142708e-01,-2.001106436596994664e-01,1.000256846398354799e-01,6.432883750748026597e-02,-1.414611745264711673e-01,1.438428538954380438e-06,1.166504455939478308e-05,1.956858124532927495e-03,4.140607970494182832e-01,-2.668807663385704913e-03,1.017554680397367989e-02,2.620035823364032512e-01
1.500000000000000000e+01,-5.482714976466248613e-01,-2.176695155918803304e-01,1.000258840551061651e-01,6.683029576026187912e-02,-1.394574003231995318e-01,1.670155429689598226e-06,1.870606387138347665e-04,3.240162615105941866e-03,4.468117411375267523e-01,-3.150246518687517625e-03,9.256218018499686243e-03,2.620042846144090554e-01
1.525000000000000000e+01,-5.396819780697547086e-01,-2.349413659889140193e-01,1.000260651019544977e-01,7.066366736867227272e-02,-1.368821187934590733e-01,1.057065310224242188e-06,2.948209881170073244e-04,4.270455801827082419e-03,4.795626946883179142e-01,-2.476530484144215394e-03,6.049998161458514968e-03,2.620043527133524841e-01
1.550000000000000000e+01,-5.305526972890296511e-01,-2.518567899255843567e-01,1.000260975190175733e-01,7.533326797681601239e-02,-1.337985345355567623e-01,-6.236930117031384727e-07,3.359423117814863604e-04,4.775854437707047206e-03,5.123133660011888191e-01,-6.533939545431123553e-04,1.384886765245500100e-03,2.620032792472176686e-01
1.575000000000000000e+01,-5.208236950962449319e-01,-2.683668581662992381e-01,1.000258878800028561e-01,8.012730543606429168e-02,-1.304618854276641815e-01,-2.614770922731054778e-06,3.291602481570174497e-04,4.600955288079331545e-03,5.450636325518027903e-01,2.008555304714331000e-03,-3.634528107031325794e-03,2.620014994985921941e-01
1.600000000000000000e+01,-5.105287286770967548e-01,-2.844649244307422831e-01,1.000254757837235886e-01,8.428987395461719212e-02,-1.272773210658054432e-01,-3.703153407323499710e-06,3.064214824632607208e-04,3.739404671077175158e-03,5.778136067978600909e-01,4.933862065683843577e-03,-7.846937437669855228e-03,2.619997343325999317e-01
1.625000000000000000e+01,-4.997891329995262089e-01,-3.002001129249253220e-01,1.000250303661989471e-01,8.719943208091082698e-02,-1.247123012108891371e-01,-3.167364151189277166e-06,3.057468581404098836e-04,2.338903826500508473e-03,6.105634703588127543e-01,7.393229206448491408e-03,-1.027183498081150718e-02,2.619982871819139802e-01
1.650000000000000000e+01,-4.887869699965470827e-01,-3.156777850132569951e-01,1.000247412042891693e-01,8.851671340619150785e-02,-1.231805647985993457e-01,-1.405794994383785124e-06,3.628343774319232017e-04,6.753836665504961076e-04,6.433132476074334694e-01,8.671319906693848723e-03,-1.032192215868628186e-02,2.619969721810940788e-01
1.675000000000000000e+01,-4.777234682850278191e-01,-3.310450749882752342e-01,1.000246835218382702e-01,8.826965484698051645e-02,-1.229243258706599062e-01,2.962247401930488445e-07,5.030150253933320711e-04,-9.013710163598468404e-04,6.760627564823633584e-01,8.256933113679228511e-03,-7.941718696755672643e-03,2.619957608102175817e-01
1.700000000000000000e+01,-4.667720992382967116e-01,-3.464632594143751687e-01,1.000247659501059400e-01,8.685507153179758411e-02,-1.239255244727032884e-01,7.470660624486656634e-07,7.351626294475492379e-04,-2.041426660018322813e-03,7.088118311985014408e-01,6.004250573088535867e-03,-3.629535216575621726e-03,2.619955196125170471e-01
1.725000000000000000e+01,-4.560370288205849998e-01,-3.620724156633199353e-01,1.000248099847601824e-01,8.495524617833541403e-02,-1.258730066576463358e-01,-1.802748552374302914e-07,1.048849628275608974e-03,-2.472067720198966104e-03,7.415606609048571718e-01,2.211000302217197740e-03,1.676099616567361958e-03,2.619979853629114674e-01
1.750000000000000000e+01,-4.455265626995515427e-01,-3.779564514407305897e-01,1.000247030640410845e-01,8.338847044778464890e-02,-1.281998724717348104e-01,-1.414825515118129869e-06,1.415458157102871808e-03,-2.059986666206747082e-03,7.743099379747780953e-01,-2.422519108854267762e-03,6.825848471665866765e-03,2.620046755945535932e-01
1.775000000000000000e+01,-4.351476294870381678e-01,-3.941172001923922696e-01,1.000244999462038403e-01,8.292997861521357594e-02,-1.301865738651080961e-01,-1.564771367351185191e-06,1.793171714922601892e-03,-8.417095323885006360e-04,8.070606094597216895e-01,-6.953750223874041562e-03,1.074600498823465901e-02,2.620153932364467919e-01
1.800000000000000000e+01,-4.247221477685184654e-01,-4.104644576892436669e-01,1.000243837582865253e-01,8.414781864425201208e-02,-1.311061669043722677e-01,-1.063581356871922899e-07,2.134912600595333543e-03,9.865221385064748289e-04,8.398133254431513484e-01,-1.043687430176256335e-02,1.270073087039446692e-02,2.620275321223939358e-01
1.825000000000000000e+01,-4.140207074488249095e-01,-4.268249384042073213e-01,1.000245140646989217e-01,8.729375465271192736e-02,-1.303748901644461722e-01,2.116795253727849735e-06,2.397541795953837557e-03,3.117007194398387776e-03,8.725679443267214674e-01,-1.217023824540545800e-02,1.245394556664268342e-02,2.620369516033553281e-01
1.850000000000000000e+01,-4.028049207588413338e-01,-4.429682434298135574e-01,1.000248850739262341e-01,9.227322514863227354e-02,-1.276688203789713150e-01,3.507333335515399406e-06,2.550228426474876117e-03,5.203703451686886305e-03,9.053234571212632753e-01,-1.187612009388858310e-02,1.028687949904320310e-02,2.620400294456783907e-01
1.875000000000000000e+01,-3.908682241254941570e-01,-4.586435281198694702e-01,1.000253080433721187e-01,9.869576864956677853e-02,-1.229769440622314608e-01,2.916817068161439656e-06,2.580013715849148112e-03,6.940126443111262547e-03,9.380784114301233823e-01,-9.758056936199584197e-03,6.874786237479405850e-03,2.620355702053713820e-01
1.900000000000000000e+01,-3.780661896043620573e-01,-4.736179812156944280e-01,1.000255282891184955e-01,1.059855646970226245e-01,-1.165794999167372031e-01,4.559686924501266416e-07,2.493278809056185576e-03,8.121503595902947181e-03,9.708315712981471224e-01,-6.421779837266469552e-03,3.070869209439657833e-03,2.620253303059396632e-01
1.925000000000000000e+01,-3.643309640883579115e-01,-4.877082151119385145e-01,1.000253825988120515e-01,1.135176744092325357e-01,-1.089616969840678518e-01,-2.664820125352240278e-06,2.312908398340013990e-03,8.676477044821037654e-03,1.003582410761430399e+00,-2.690021988591733120e-03,-3.298044092583538251e-04,2.620129298309875066e-01
1.950000000000000000e+01,-3.496690514259543359e-01,-5.007981099330125474e-01,1.000248838276444202e-01,1.207429235444683058e-01,-1.006900248202910048e-01,-5.014478282792865834e-06,2.072091794962749138e-03,8.663367691585181427e-03,1.036331192779593069e+00,6.271778844512453446e-04,-2.775915762184975617e-03,2.620019970541258014e-01
1.975000000000000000e+01,-3.341458463529110023e-01,-5.128406794163384852e-01,1.000241892412203487e-01,1.272726844638172317e-01,-9.228629781463162929e-02,-5.794707647241296896e-06,1.806551455347451575e-03,8.236197384525826767e-03,1.069078678742341859e+00,2.936414289670149450e-03,-4.049627107771193966e-03,2.619947188803825600e-01
2.000000000000000000e+01,-3.178629785718411482e-01,-5.238458402000139014e-01,1.000234970924553796e-01,1.329101107162669326e-01,-8.413166345794921563e-02,-5.104372586628008091e-06,1.547272256499670606e-03,7.593144527670079962e-03,1.101825713501144888e+00,3.983543081935377733e-03,-4.251023259442224256e-03,2.619914513459632999e-01
2.025000000000000000e+01,-3.009351156728261034e-01,-5.338593052919059501e-01,1.000229511199871024e-01,1.376310164955441562e-01,-7.642101082563786119e-02,-3.613086092482171097e-06,1.315463538768523724e-03,6.922982159171847845e-03,1.134572923618396345e+00,3.870401929574391730e-03,-3.701162077674559087e-03,2.619912451461846592e-01
2.050000000000000000e+01,-2.834715884926314322e-01,-5.429393537430534655e-01,1.000226029527148536e-01,1.415303575017001214e-01,-6.917211984941673553e-02,-2.045410269628776928e-06,1.120681485792890180e-03,6.363077355681396631e-03,1.167320619263177317e+00,2.976156676065264736e-03,-2.807589215664087808e-03,2.619926878845543206e-01
2.075000000000000000e+01,-2.655657557011191772e-01,-5.511377653845513924e-01,1.000224291911880753e-01,1.447560363496863678e-01,-6.227890005908601895e-02,-8.585390878419233604e-07,9.620767645051506688e-04,5.977066946144434997e-03,1.200068848522571674e+00,1.820492341609270112e-03,-1.938278472287387894e-03,2.619945425908229431e-01
2.100000000000000000e+01,-2.472923398852035215e-01,-5.584891865073031703e-01,1.000223694062727514e-01,1.474502110400226218e-01,-5.558845773902310050e-02,-2.111685566705439784e-07,8.319294609600494514e-04,5.753628778053818636e-03,1.232817505626780052e+00,9.162285517135957584e-04,-1.336994610166199670e-03,2.619960135832937742e-01
2.125000000000000000e+01,-2.287108445309039839e-01,-5.650104302680775126e-01,1.000223562777964731e-01,1.497115058879729121e-01,-4.897934689055281204e-02,-8.291807889500097243e-08,7.202028286435474156e-04,5.622123158750718004e-03,1.265566427727883747e+00,6.518840918604341169e-04,-1.092620915964593762e-03,2.619967466406273315e-01
2.150000000000000000e+01,-2.098720485330034247e-01,-5.707085885671465686e-01,1.000223308122064197e-01,1.515827732138111672e-01,-4.242235399916654409e-02,-3.732028455549858639e-07,6.188409758074813177e-04,5.477820003981164788e-03,1.298315463623167743e+00,1.225795305030516046e-03,-1.155817398529715261e-03,2.619967268861283505e-01
2.175000000000000000e+01,-1.908245128626233078e-01,-5.755949727825332429e-01,1.000222503873272190e-01,1.530613842179907869e-01,-3.601278969495656790e-02,-9.210283821353949242e-07,5.248610583707670431e-04,5.209290623214418540e-03,1.331064518186280576e+00,2.632236696731684103e-03,-1.384928055993215603e-03,2.619961567654938706e-01
2.200000000000000000e+01,-1.716187537242989114e-01,-5.797010517666433271e-01,1.000220970990476355e-01,1.541242687952435186e-01,-2.997129418918619351e-02,-1.494005267905720848e-06,4.417752265270578991e-04,4.722526912982315944e-03,1.363813570205718584e+00,4.685395035980348226e-03,-1.601177440895532392e-03,2.619953210353462292e-01
2.225000000000000000e+01,-1.523078388202636080e-01,-5.830926035880069636e-01,1.000218855411416780e-01,1.547583929388588464e-01,-2.461628484094486105e-02,-1.816056523861140715e-06,3.793441286117703684e-04,3.959040599983462694e-03,1.396562654065329312e+00,7.063357048172785348e-03,-1.638415370356055556e-03,2.619944405958432032e-01
2.250000000000000000e+01,-1.329442887776373372e-01,-5.858789395121574151e-01,1.000216630179199956e-01,1.549882527328745874e-01,-2.031465684772026242e-02,-1.657450300324104172e-06,3.519894789121194145e-04,2.907290846471389818e-03,1.429311804211412351e+00,9.359376375978303159e-03,-1.380167081882812015e-03,2.619935557413042848e-01
2.275000000000000000e+01,-1.135740879959127175e-01,-5.882149948509749482e-01,1.000214960743622261e-01,1.548940961802851846e-01,-1.741880703595274568e-02,-9.534035946962072579e-07,3.763361418201622861e-04,1.607751815690801073e-03,1.462060982810117871e+00,1.113501013778268184e-02,-7.823688157661695414e-04,2.619925069891259617e-01
2.300000000000000000e+01,-9.422923649289534354e-02,-5.902951265770778333e-01,1.000214438585092791e-01,1.546170477414550160e-01,-1.619853720964921709e-02,1.142895404549602411e-07,4.683466069457056270e-04,1.519750250073138951e-04,1.494810030607663043e+00,1.197509137613652144e-02,1.173286952435938549e-04,2.619910648806004771e-01
2.325000000000000000e+01,-7.492059763349552537e-02,-5.923385474428350950e-01,1.000215271713393028e-01,1.543496816452297749e-01,-1.677672608084103748e-02,1.134961270924271388e-06,6.404289984085731165e-04,-1.324423264692553819e-03,1.527558684176493209e+00,1.154642923999476233e-02,1.202789268017769118e-03,2.619891972711403949e-01
2.350000000000000000e+01,-5.563283252576455701e-02,-5.945674677835723898e-01,1.000217079238229362e-01,1.543128388628430270e-01,-1.907814249208166987e-02,1.613934490772168240e-06,8.988208323955610519e-04,-2.655250568867447130e-03,1.560306682153445035e+00,9.659224780760969006e-03,2.295335152800333928e-03,2.619873743915929754e-01
2.375000000000000000e+01,-3.632296709832761455e-02,-5.971802097103311446e-01,1.000218935381949198e-01,1.547217445588235096e-01,-2.280099895196856935e-02,1.212255359206159326e-06,1.241516761587848142e-03,-3.663735127384747711e-03,1.593053941257676520e+00,6.322556744674808805e-03,3.182823980490485233e-03,2.619867367080651599e-01
2.400000000000000000e+01,-1.692360819691708651e-02,-6.003227064440667116e-01,1.000219722007995166e-01,1.557467496014814379e-01,-2.741971121053736124e-02,-2.139552836656159798e-08,1.657013172322249284e-03,-4.187591540675597232e-03,1.625800733878963289e+00,1.776259346438717641e-03,3.659957467097301517e-03,2.619889430300964550e-01
2.425000000000000000e+01,2.648968422297270312e-03,-6.040626463280345249e-01,1.000218688192101441e-01,1.574758794399174211e-01,-3.222355739878434572e-02,-1.569751605669111225e-06,2.124140918432190165e-03,-4.105421231421516222e-03,1.658547768277784495e+00,-3.520918194235020480e-03,3.573053314798255685e-03,2.619956257288317825e-01
2.450000000000000000e+01,2.248259285156736093e-02,-6.083706994958600900e-01,1.000215953779375055e-01,1.598870333639464680e-01,-3.638919683856147586e-02,-2.616486084150038951e-06,2.613193224308267039e-03,-3.358813876203424909e-03,1.691296087672047754e+00,-8.956583880090407401e-03,2.857912233197811534e-03,2.620075962840026640e-01
2.475000000000000000e+01,4.265449397191563990e-02,-6.131124845967766968e-01,1.000212651533608499e-01,1.628364143095299699e-01,-3.907686852780335035e-02,-2.427083949406424755e-06,3.088391509159202873e-03,-1.964509989060559281e-03,1.724046775354818761e+00,-1.387156937149389493e-02,1.559165006715003497e-03,2.620241551418400205e-01
2.500000000000000000e+01,6.321639881405578809e-02,-6.180532133102831782e-01,1.000210555247343508e-01,1.660665736877329490e-01,-3.953375258760810640e-02,-7.496765841412582783e-07,3.511480098088543347e-03,-1.367603869316609011e-05,1.756800552465328513e+00,-1.767447706741184094e-02,-1.742335146251146956e-04,2.620428954325066950e-01
2.525000000000000000e+01,8.418188606502430282e-02,-6.228747400146814606e-01,1.000211321120791502e-01,1.692333569709602303e-01,-3.718671575687034631e-02,1.991649007778723679e-06,3.845976331272628335e-03,2.340135155888024843e-03,1.789557426141570540e+00,-1.992374158392573591e-02,-2.112597034441138655e-03,2.620601722615250595e-01
2.550000000000000000e+01,1.055181192346879432e-01,-6.272027733393172877e-01,1.000215686336973497e-01,1.719476732236390193e-01,-3.171141865251848185e-02,4.812127595597678619e-06,4.061435953935692983e-03,4.898945354925983604e-03,1.822316540722118905e+00,-2.035543142456898782e-02,-3.976537743131921925e-03,2.620720680768836575e-01
2.575000000000000000e+01,1.271434590124626285e-01,-6.306408914231376173e-01,1.000222974963653061e-01,1.738265423884874927e-01,-2.307287153423837056e-02,6.510514099307529046e-06,4.137108373583733845e-03,7.438297619168086558e-03,1.855076305406937909e+00,-1.886837190077981369e-02,-5.465901730262174955e-03,2.620754716161124986e-01
2.600000000000000000e+01,1.489317617096903579e-01,-6.328078542337457479e-01,1.000231094554205613e-01,1.745480518180963780e-01,-1.153910073849005041e-02,6.082469343684096911e-06,4.064547335433099651e-03,9.722515128994836664e-03,1.887834768122112594e+00,-1.550324577878257372e-02,-6.286896363806804278e-03,2.620689312345210187e-01
2.625000000000000000e+01,1.707235282807914034e-01,-6.333750612240599542e-01,1.000237029712960218e-01,1.739051752820877650e-01,2.329103037523071358e-03,3.092164097490913941e-06,3.849004516107339211e-03,1.151946456716355233e-02,1.920590128690597975e+00,-1.045038397050666347e-02,-6.186945406639751503e-03,2.620531198090134684e-01
2.650000000000000000e+01,1.923433884923268500e-01,-6.321011677631617198e-01,1.000237744602251039e-01,1.718523621898483955e-01,1.771315028079048157e-02,-2.050553482830647445e-06,3.509618679115704149e-03,1.261998244768396463e-02,1.953341247915943768e+00,-4.092268436933480316e-03,-5.006608586700638658e-03,2.620308422862185904e-01
2.675000000000000000e+01,2.136224900334335597e-01,-6.288604511938884478e-01,1.000231325911282304e-01,1.685362877245991375e-01,3.360182938634038996e-02,-7.999788677119149108e-06,3.078428223839213031e-03,1.286575045058276426e-02,1.986087997639458536e+00,2.949943577757359759e-03,-2.745830136674899148e-03,2.620064883408096401e-01
2.700000000000000000e+01,2.344231259270024292e-01,-6.236607439541111964e-01,1.000218025306915115e-01,1.642999360352833116e-01,4.889245456056345862e-02,-1.274374824554494886e-05,2.598114482123314254e-03,1.218396228750256646e-02,2.018831309908928784e+00,9.816715535957441785e-03,3.756030418517286411e-04,2.619848743242527145e-01
2.725000000000000000e+01,2.546615875209305435e-01,-6.166464159114619648e-01,1.000200660017881438e-01,1.596500008593265407e-01,6.252656337073093928e-02,-1.434502620194383224e-05,2.118281316135707960e-03,1.062038664709839819e-02,2.051572853392965357e+00,1.549875341848787336e-02,3.895446845352638909e-03,2.619697103791668868e-01
2.750000000000000000e+01,2.743242997981757414e-01,-6.080828786941813169e-01,1.000183872900598375e-01,1.551834401048006185e-01,7.364552753918023054e-02,-1.194692971661028356e-05,1.690172442526042705e-03,8.358022246860753734e-03,2.084314415565841294e+00,1.901974880181639752e-02,7.153678190985922510e-03,2.619623467569005548e-01
2.775000000000000000e+01,2.934724246603211961e-01,-5.983218379750097071e-01,1.000172267604109433e-01,1.514796903928547767e-01,8.173759713611580824e-02,-6.459793167824073123e-06,1.360096142732301330e-03,5.709171933784455005e-03,2.117057250316426664e+00,1.967374051302430565e-02,9.414638755785199528e-03,2.619615812757926654e-01
2.800000000000000000e+01,3.122317453754182570e-01,-5.877506687008714481e-01,1.000168250870195480e-01,1.489776093061941920e-01,8.674028537142451645e-02,-2.978687406356356938e-07,1.162372535582551891e-03,3.074951831628770869e-03,2.149801732606656302e+00,1.724381649723159132e-02,1.004706648262776794e-02,2.619648153589602679e-01
2.825000000000000000e+01,3.307677137529419498e-01,-5.767336958666948732e-01,1.000170907762394784e-01,1.478659621559855475e-01,8.906562613308829923e-02,3.919448432932379607e-06,1.113119782658056290e-03,8.761011192343227255e-04,2.182547528019088467e+00,1.212295255146517495e-02,8.714646219526042681e-03,2.619699130200484061e-01
2.850000000000000000e+01,3.492493939266162473e-01,-5.655563287467242350e-01,1.000176798650168758e-01,1.480186881789188613e-01,8.953138526173416711e-02,4.950287164738049752e-06,1.206415263035649646e-03,-5.310856736545061354e-04,2.215294164394998599e+00,5.283304238696134858e-03,5.516446271449040699e-03,2.619764576500835385e-01
2.875000000000000000e+01,3.678095753385668409e-01,-5.543836472614059874e-01,1.000182280662012674e-01,1.489989304422815464e-01,8.920472963138195710e-02,3.637035476781601362e-06,1.414151185664039691e-03,-9.333559850764326128e-04,2.248041594967992829e+00,-1.914289648803121045e-03,1.023309770454315171e-03,2.619854003282169330e-01
2.900000000000000000e+01,3.865103623289079526e-01,-5.432426265398319076e-01,1.000185749913316685e-01,1.501396990006729770e-01,8.918914193816286640e-02,2.109398252271969668e-06,1.690229493515701086e-03,-3.123050137909200922e-04,2.280790319169645919e+00,-8.029748669911457651e-03,-3.818403052266169852e-03,2.619973089473479066e-01
2.925000000000000000e+01,4.053231904884203041e-01,-5.320320927615230788e-01,1.000188153813754977e-01,1.506879076281602003e-01,9.040302293122194632e-02,2.034392663094357478e-06,1.978731872676475420e-03,1.146790241010966788e-03,2.313540947681044457e+00,-1.189255542887335086e-02,-7.906217979833976214e-03,2.620106489996088528e-01
2.950000000000000000e+01,4.241292177485312953e-01,-5.205579624652159065e-01,1.000191448271892103e-01,1.499784082539132035e-01,9.340361862580005836e-02,3.310919754626923189e-06,2.224603005972897868e-03,3.095050116867349363e-03,2.346293542637694962e+00,-1.289320581796593243e-02,-1.027397731320995981e-02,2.620216674798019896e-01
2.975000000000000000e+01,4.427409472292554993e-01,-5.085850876324347070e-01,1.000196357346833931e-01,1.475921314924898420e-01,9.830015933752839219e-02,4.297957333223153682e-06,2.384518490594417922e-03,5.101926660260749403e-03,2.379047270457590457e+00,-1.113047570197579425e-02,-1.037565662365262480e-02,2.620262434011810804e-01
3.000000000000000000e+01,4.609400683447282265e-01,-4.958929112818964979e-01,1.000201369690948972e-01,1.434526900438906072e-01,1.047771536110790186e-01,3.363402512976358005e-06,2.435287360173045423e-03,6.759511105420230002e-03,2.411800678516852425e+00,-7.365021585514271857e-03,-8.268927884662708241e-03,2.620224381008074976e-01
3.025000000000000000e+01,4.785216047601232869e-01,-4.823214343007435900e-01,1.000203803386365414e-01,1.378305410134741948e-01,1.122186603866436871e-01,3.770553746023099522e-07,2.377557729812319713e-03,7.781787620990550727e-03,2.444552418209027689e+00,-2.787689823931582562e-03,-4.628163491023802589e-03,2.620118297334961266e-01
3.050000000000000000e+01,4.953321945510380520e-01,-4.677970369023565778e-01,1.000201944366156809e-01,1.312498846918785933e-01,1.198961049349616947e-01,-3.152586979019310645e-06,2.233722657605170456e-03,8.071314208571621351e-03,2.477301896940706794e+00,1.328151572606311613e-03,-5.684293049052880449e-04,2.619986581891231570e-01
3.075000000000000000e+01,5.112916504780741223e-01,-4.523336395096789198e-01,1.000196385164928564e-01,1.243230504319070701e-01,1.271650829358972612e-01,-5.325268941161754026e-06,2.040478139045388134e-03,7.734612100611152306e-03,2.510049434424714843e+00,3.980765790074643554e-03,2.672200739409537947e-03,2.619875190038340462e-01
3.100000000000000000e+01,5.263916443934368861e-01,-4.360117008615924106e-01,1.000189538846157356e-01,1.175600738340736306e-01,1.336165426977806714e-01,-5.266590591651191272e-06,1.837998359939533666e-03,7.042848671362927047e-03,2.542795915254425054e+00,4.690106276881535370e-03,4.091908421514016403e-03,2.619813123246065301e-01
3.125000000000000000e+01,5.406720218563961788e-01,-4.189434386093668361e-01,1.000183982823446005e-01,1.112091508521338007e-01,1.391446541712466345e-01,-3.487107335400704675e-06,1.658666318753853437e-03,6.350843927016240793e-03,2.575542280502952863e+00,3.573735946166874643e-03,3.210940256753996337e-03,2.619806217673857351e-01
3.150000000000000000e+01,5.541817575503462656e-01,-4.012356545811880948e-01,1.000181160944686592e-01,1.051738632003486329e-01,1.439211604321108950e-01,-1.084335866195608514e-06,1.518395238729803795e-03,5.998902501963554457e-03,2.608289200508264738e+00,1.243095717682704982e-03,1.988187884051939060e-04,2.619843557573903747e-01
3.175000000000000000e+01,5.669358823117960355e-01,-3.829609641790144292e-01,1.000181329669073277e-01,9.902954700227602214e-02,1.482940320182920269e-01,1.244764452631304177e-06,1.412771707487857744e-03,6.224635118034339311e-03,2.641036996629784639e+00,-1.425455237822209576e-03,-4.182680141685790956e-03,2.619906565466847415e-01
3.200000000000000000e+01,5.788803809583357163e-01,-3.641452099037406631e-01,1.000186326784907043e-01,9.209761751623608828e-02,1.525772440324406620e-01,1.537266419591834553e-05,-2.472752368167631734e-04,7.091199967631488243e-03,2.671776907471235862e+00,8.014486703488413188e-02,-5.015980396616150777e-02,1.373933757649828946e-01
3.225000000000000000e+01,5.896080270723664807e-01,-3.453216217105304353e-01,1.000332172584331297e-01,7.736767533547087017e-02,1.440478524416698713e-01,3.186793659597914313e-04,-2.786335231121249076e-02,7.939810209138271208e-03,2.665880770151026535e+00,2.495949110752831435e-01,-1.333843488126487120e-01,-1.555964191118002493e-01
3.250000000000000000e+01,5.972978732176343897e-01,-3.297211009890420041e-01,1.001056237515409869e-01,4.352519320588856683e-02,1.013189378204691210e-01,6.980557699735907970e-04,-5.937497052241981488e-02,8.049776651837842190e-03,2.640135828596349654e+00,1.687722263454642657e-01,-9.007629331562827524e-02,-2.330709723645456866e-01
3.275000000000000000e+01,5.996838630704838247e-01,-3.212343076279634002e-01,1.001582089708639572e-01,-5.209201978798438243e-03,3.472187858932739707e-02,1.151231978969340444e-05,-7.070171588787703409e-02,7.657940995068061169e-03,2.609288489647165310e+00,-4.150086891598373136e-03,5.786198658510675885e-03,-2.539863089873313218e-01
3.300000000000000000e+01,5.957200174748477073e-01,-3.212554365147733959e-01,1.001005142327092007e-01,-5.565866060304182350e-02,-3.065905456400833465e-02,-7.977207760404345224e-04,-5.900997409145162381e-02,7.618672340193013461e-03,2.577176082912595145e+00,-1.363813416732150008e-01,8.302585753283169001e-02,-2.598400573915031764e-01
3.325000000000000000e+01,5.860162005604118152e-01,-3.282312815050355548e-01,9.999742311436286835e-02,-9.591303738337574047e-02,-7.504986811563293947e-02,-7.077792782906523099e-04,-3.507879614003441004e-02,8.353749475275503572e-03,2.544754467715413249e+00,-1.725258569421742050e-01,1.072368520918291768e-01,-2.615654992819191893e-01
3.350000000000000000e+01,5.722417328645786894e-01,-3.390161866128973966e-01,9.994392811902272356e-02,-1.211498202829636439e-01,-9.273770954251771281e-02,-1.654879780415886316e-04,-1.220444665204600820e-02,9.366469100057218250e-03,2.512216449860710465e+00,-1.279514289211487743e-01,8.489083006523721886e-02,-2.621691447409015274e-01
3.375000000000000000e+01,5.561898896991310792e-01,-3.505983219676973017e-01,9.994640953615470391e-02,-1.335547619625614135e-01,-9.022714035674930799e-02,1.318024903711020510e-04,1.469286768491113613e-03,9.620208004215939981e-03,2.479560312414262224e+00,-5.086040803382616687e-02,4.390995158078430521e-02,-2.623675336856070572e-01
3.400000000000000000e+01,5.391209096926610211e-01,-3.611893939406480292e-01,9.996502168932332177e-02,-1.386309217674793481e-01,-7.912626880677124663e-02,1.382334448986078117e-04,4.934382054150658961e-03,8.287915786491911393e-03,2.446798449530461994e+00,1.409242445009034790e-02,1.114426192069403743e-02,-2.623125400420147635e-01
3.425000000000000000e+01,5.216146998165175352e-01,-3.704017135464296451e-01,9.997890937646083942e-02,-1.412436097879317676e-01,-6.940862719910118050e-02,8.996618784298716259e-05,2.039573404889445576e-03,5.277258228379478472e-03,2.414000492017202681e+00,4.528646187751089042e-02,-1.105450186056289525e-03,-2.621518830433698932e-01
3.450000000000000000e+01,5.038082150882697841e-01,-3.787872438600358715e-01,9.998892952249112398e-02,-1.435642629271562665e-01,-6.606918916896822869e-02,7.481468693327535048e-05,-2.250322590672378976e-03,1.251556061532751790e-03,2.381225809454771358e+00,4.461274943494888956e-02,3.871726352357833262e-03,-2.620298833573003749e-01
3.475000000000000000e+01,4.857396908257416990e-01,-3.871962785095540704e-01,9.999769126798123409e-02,-1.452659771182774062e-01,-6.929634528763638224e-02,6.406764704782926532e-05,-4.636689170990798171e-03,-2.741972277066269306e-03,2.348476296905414706e+00,2.656250644268050645e-02,1.460967740583337705e-02,-2.619914700307950928e-01
3.500000000000000000e+01,4.675703461004285799e-01,-3.963028398287186671e-01,1.000044716499731701e-01,-1.450303688171035166e-01,-7.658119388138916184e-02,4.433874062310153811e-05,-4.340360034324587148e-03,-5.740186116170266535e-03,2.315725134135515173e+00,6.179396628339781442e-03,2.041417417833402484e-02,-2.620000184141620947e-01
3.525000000000000000e+01,4.496035803107423789e-01,-4.064186097057964075e-01,1.000087747029315549e-01,-1.420861952423528585e-01,-8.496422085869648200e-02,2.608474209402339073e-05,-2.395791943977571437e-03,-7.179184371181836048e-03,2.282961365123533870e+00,-7.915455602351474315e-03,1.675499975991396814e-02,-2.620112033110573724e-01
3.550000000000000000e+01,4.321591640970792736e-01,-4.175335260814021510e-01,1.000111845428371254e-01,-1.369365997662732592e-01,-9.234970330058391019e-02,1.376194025295286486e-05,-3.584752817587529114e-04,-6.965716720589021013e-03,2.250195129675277350e+00,-1.433868292212310547e-02,5.657588939614851056e-03,-2.620124102180357850e-01
3.575000000000000000e+01,4.154195077681797077e-01,-4.294485765706889668e-01,1.000123667488686946e-01,-1.311422437665822616e-01,-9.774186966786924113e-02,6.191007059207009750e-06,7.108994151067214284e-04,-5.364203158507468983e-03,2.217436681498278439e+00,-1.590772445018814527e-02,-7.314503973690805912e-03,-2.620141088884748726e-01
3.600000000000000000e+01,3.993442634567217486e-01,-4.418910158558059798e-01,1.000129362180638554e-01,-1.265525248277706849e-01,-1.008451050263547838e-01,3.953951184537006731e-06,6.049407003902611876e-04,-2.822650111751729730e-03,2.184684499005022928e+00,-1.594228639323600275e-02,-1.679833124962191310e-02,-2.620257165754709128e-01
3.625000000000000000e+01,3.836870759375626272e-01,-4.545692353153212850e-01,1.000135631045390161e-01,-1.245230994707347966e-01,-1.015811876089503796e-01,6.539426521057452954e-06,-2.379203256978134446e-04,1.657236242854764484e-04,2.151931151240219720e+00,-1.604625869098378135e-02,-2.004644289410313987e-02,-2.620440379739774617e-01
3.650000000000000000e+01,3.680893958471675997e-01,-4.671817651881283173e-01,1.000146198359796873e-01,-1.254922205262124224e-01,-9.985988921710008126e-02,9.995682412114163958e-06,-1.179020393046508559e-03,3.134775318305172819e-03,2.119173081621977150e+00,-1.587056204440905061e-02,-1.735498742388973115e-02,-2.620588037846123264e-01
3.675000000000000000e+01,3.521978728872848796e-01,-4.794173779662851409e-01,1.000159341687014425e-01,-1.290044822055943508e-01,-9.564159107400643789e-02,1.031750197738352019e-05,-1.752600532043673215e-03,5.674636390564944365e-03,2.086412875137216183e+00,-1.416335108299544843e-02,-1.102197445076409307e-02,-2.620633118791842464e-01
3.700000000000000000e+01,3.357565474807606698e-01,-4.909738377538391818e-01,1.000170198603343302e-01,-1.340456744139380263e-01,-8.913465871923274830e-02,6.603759362532347458e-06,-1.815868144028816430e-03,7.455309609893706092e-03,2.053654845662986617e+00,-1.004330983917362669e-02,-3.836684340862062895e-03,-2.620586259571190402e-01
3.725000000000000000e+01,3.186490606614601484e-01,-5.015992942059009918e-01,1.000174734335581989e-01,-1.394684296955625291e-01,-8.093464088410212698e-02,7.193846052134055066e-07,-1.492869770714305060e-03,8.263623041291029078e-03,2.020900637466692018e+00,-3.725573173962240265e-03,2.072391464272849149e-03,-2.620502003809561109e-01
3.750000000000000000e+01,3.008919673984081222e-01,-5.111406782940758342e-01,1.000172034418649880e-01,-1.443297468045274812e-01,-7.199411335418116897e-02,-4.540186290419476326e-06,-1.020381831045602018e-03,8.044648647552159193e-03,1.988148757908449804e+00,3.517289761807236050e-03,5.691009754710394351e-03,-2.620428015778063502e-01
3.775000000000000000e+01,2.825963876153213539e-01,-5.195771205781958280e-01,1.000164422123226288e-01,-1.480610532944472146e-01,-6.342807235481877359e-02,-6.981238236363843390e-06,-6.063378751719974589e-04,6.923073246913686619e-03,1.955396868939124122e+00,9.930465719518156292e-03,6.980571619687227398e-03,-2.620382731855241398e-01
3.800000000000000000e+01,2.639189276270216822e-01,-5.270229222535717239e-01,1.000155994603621756e-01,-1.504823864930389943e-01,-5.624217945450191158e-02,-6.024103416427195304e-06,-3.599280218395438727e-04,5.184066236266676557e-03,1.922643766788383557e+00,1.398709751071459256e-02,6.466056017488766919e-03,-2.620361905346818010e-01
3.825000000000000000e+01,2.450178045701007501e-01,-5.336975583589961269e-01,1.000150358598815431e-01,-1.517193247239698728e-01,-5.109287481400582448e-02,-2.911693043259250391e-06,-2.942312093849745779e-04,3.210716994490505748e-03,1.889889605512869997e+00,1.490265643638821573e-02,4.842840213391832148e-03,-2.620353939464620807e-01
3.850000000000000000e+01,2.260222045702875993e-01,-5.398723449653654027e-01,1.000148846191279556e-01,-1.520844089456073189e-01,-4.815939314329898552e-02,2.250205128785035469e-07,-3.679721573573954446e-04,1.394198037781034516e-03,1.857135053733395047e+00,1.280525788090132802e-02,2.743717505034199474e-03,-2.620350901509872488e-01
3.875000000000000000e+01,2.070164036442410371e-01,-5.458101249121118936e-01,1.000150366457662060e-01,-1.519640614049324878e-01,-4.715551382225144361e-02,1.846033112061353382e-06,-5.292621012525687910e-04,4.387686651260026393e-05,1.824380562722297983e+00,8.584207900999975965e-03,6.594953541157859162e-04,-2.620352618959886359e-01
3.900000000000000000e+01,1.880365969114950742e-01,-5.517144849097532777e-01,1.000152793682095587e-01,-1.517290829345142866e-01,-4.745950128085822672e-02,1.822761541636001123e-06,-7.399913149730611523e-04,-6.758232057106906528e-04,1.791626172732546429e+00,3.536401163620534437e-03,-1.064268436085283927e-03,-2.620364415658810731e-01
3.925000000000000000e+01,1.690771126871633001e-01,-5.577000676826796566e-01,1.000154596401263418e-01,-1.516732577332804699e-01,-4.830924438524066694e-02,1.053648682626687859e-06,-9.789168353000494288e-04,-7.650399053504648630e-04,1.758871648810026223e+00,-1.044927800280509578e-03,-2.221856318079853607e-03,-2.620390291491190293e-01
3.950000000000000000e+01,1.501024628548803808e-01,-5.637880826402333900e-01,1.000155481471367014e-01,-1.519804078119067758e-01,-4.900008467571163179e-02,4.566527516013130067e-07,-1.233321358613683350e-03,-3.625909607714405242e-04,1.726116693625992626e+00,-4.215418599663765115e-03,-2.752699343606408462e-03,-2.620426451472351870e-01
3.975000000000000000e+01,1.310616917996903219e-01,-5.699237419535289062e-01,1.000155917864320038e-01,-1.527194338266502638e-01,-4.903217673702302964e-02,3.082899521136487938e-07,-1.490630257327358156e-03,3.133891163622162129e-04,1.693361141064691600e+00,-5.577885360332770874e-03,-2.738613969755504616e-03,-2.620460881641862860e-01
4.000000000000000000e+01,1.119016783940962045e-01,-5.760070229406224485e-01,1.000156323743653791e-01,-1.538643131150531640e-01,-4.817605078219991399e-02,3.367459653637910907e-07,-1.736098311497082406e-03,1.037634113842624949e-03,1.660605069667016265e+00,-5.303952175533400981e-03,-2.369007514217498674e-03,-2.620479967244565556e-01
4.025000000000000000e+01,9.257673731845067477e-02,-5.819259539747236865e-01,1.000156691940054798e-01,-1.553309340190678900e-01,-4.645172147092676423e-02,2.181934200471412633e-07,-1.956166460811899557e-03,1.640910453141354933e-03,1.627848769753345470e+00,-3.998396506827995786e-03,-1.871192359453703602e-03,-2.620477051599386931e-01
4.050000000000000000e+01,7.305321076685253323e-02,-5.875826577599924105e-01,1.000156776759508204e-01,-1.570179117805494129e-01,-4.404080370370177383e-02,-9.237970069368690421e-08,-2.143332637111950399e-03,2.047830357386138962e-03,1.595092579172027847e+00,-2.463116156338559289e-03,-1.428581504422066347e-03,-2.620456554053996467e-01
4.075000000000000000e+01,5.330945780215939206e-02,-5.929059455812780710e-01,1.000156444453316751e-01,-1.588376621361070884e-01,-4.116686674445938637e-02,-4.117243241641922534e-07,-2.298410355373125321e-03,2.282360724421368149e-03,1.562336700754692886e+00,-1.436355597467407199e-03,-1.120916566224771727e-03,-2.620431458488612364e-01
4.100000000000000000e+01,3.333313153806194418e-02,-5.978490666254140384e-01,1.000155812667358757e-01,-1.607284171257781780e-01,-3.798363395955043492e-02,-5.563628870276139399e-07,-2.428539701140962955e-03,2.443910384224593207e-03,1.529581112424078793e+00,-1.380570149567576657e-03,-9.119439962741405711e-04,-2.620416839640664075e-01
4.125000000000000000e+01,1.311829601202173061e-02,-6.023758288962405283e-01,1.000155151263435183e-01,-1.626460002936324367e-01,-3.450374842197047320e-02,-4.667300463904946353e-07,-2.542129017809975893e-03,2.664404726307794714e-03,1.496825595582923274e+00,-2.371554380152843776e-03,-6.878473540150246545e-04,-2.620423473896552058e-01
4.150000000000000000e+01,-7.335474361662865268e-03,-6.064414828194786278e-01,1.000154741372367290e-01,-1.645425191145537536e-01,-3.058567320875260273e-02,-1.676062548710082615e-07,-2.643455390749212350e-03,3.060457571713886670e-03,1.464069840991670590e+00,-4.109330552958841490e-03,-3.269923300143624248e-04,-2.620453861885901903e-01
4.175000000000000000e+01,-2.802113607969292097e-02,-6.099757634027787034e-01,1.000154816684617198e-01,-1.663441249347774875e-01,-2.597774096871332400e-02,2.945446534873630445e-07,-2.729494564657949148e-03,3.694339093058098596e-03,1.431313585870146232e+00,-6.036307785381674930e-03,2.308420142354301462e-04,-2.620501108712904870e-01
4.200000000000000000e+01,-4.892004056016233809e-02,-6.128742469308341434e-01,1.000155527644671638e-01,-1.679397281682252219e-01,-2.040180627968141841e-02,8.224932021247575472e-07,-2.790207338474293142e-03,4.553567063422741569e-03,1.398556748244879078e+00,-7.519548915474062040e-03,9.450226320375726755e-04,-2.620550629212895499e-01
4.225000000000000000e+01,-6.999750208643522320e-02,-6.150012494671009966e-01,1.000156830310697381e-01,-1.691874936657631057e-01,-1.364888148602258315e-02,1.199345911262978842e-06,-2.811892503253195924e-03,5.552925166072887435e-03,1.365799515114438867e+00,-8.039232812463898564e-03,1.678956835436231591e-03,-2.620584644546441466e-01
4.250000000000000000e+01,-9.120033031054136652e-02,-6.162038676722814134e-01,1.000158340239704763e-01,-1.699384684121739153e-01,-5.657908056538132370e-03,1.118484685685624250e-06,-2.782083017348487529e-03,6.556316722479846315e-03,1.333042330802988618e+00,-7.329374780807710633e-03,2.244823360973632019e-03,-2.620588556858006180e-01
4.275000000000000000e+01,-1.124580465340469376e-01,-6.163335407948055122e-01,1.000159321500219967e-01,-1.700699089195289448e-01,3.444072963537298405e-03,3.581998684334566855e-07,-2.694136787724933212e-03,7.410916147961455619e-03,1.300285762751685725e+00,-5.436920912740565888e-03,2.468825267737971129e-03,-2.620556797698117557e-01
4.300000000000000000e+01,-1.336882974584958916e-01,-6.152695647087050856e-01,1.000158929735539964e-01,-1.695172261299565664e-01,1.334965431930811193e-02,-1.017148832806759572e-06,-2.550062835575516839e-03,7.983827011478797711e-03,1.267530291319239000e+00,-2.693552277761091136e-03,2.252433224534706666e-03,-2.620495243248670003e-01
4.325000000000000000e+01,-1.548055799588029524e-01,-6.129387068515660397e-01,1.000156625342269873e-01,-1.682938769062793105e-01,2.362255276163690784e-02,-2.605923861381005539e-06,-2.360899087315102701e-03,8.192185960538323625e-03,1.234776125140522263e+00,3.800091197302784803e-04,1.609697384723437780e-03,-2.620418782121777257e-01
4.350000000000000000e+01,-1.757312745931251807e-01,-6.093263155345702842e-01,1.000152506474579067e-01,-1.664923395567555475e-01,3.377817253709305967e-02,-3.838506416413605501e-06,-2.144764313820770110e-03,8.020546058416594404e-03,1.202023135182031632e+00,3.204065384315690681e-03,6.707622831068037195e-04,-2.620345282362132600e-01
4.375000000000000000e+01,-1.964024805406241192e-01,-6.044765629628107151e-01,1.000147334374324043e-01,-1.642649220543658251e-01,4.337307325154295123e-02,-4.268153227076227790e-06,-1.923299958976475111e-03,7.522916222572538676e-03,1.169270931701705374e+00,5.272056117760390639e-03,-3.483827959505357325e-04,-2.620289106546056512e-01
4.400000000000000000e+01,-2.167773659282003773e-01,-5.984820563040349484e-01,1.000142218993812920e-01,-1.617889069732239560e-01,5.208277445529786026e-02,-3.794557274034746850e-06,-1.717502897253171158e-03,6.809866522123800281e-03,1.136519028956672006e+00,6.260089708648799295e-03,-1.202577446374198701e-03,-2.620257198790361119e-01
4.425000000000000000e+01,-2.368356259188211244e-01,-5.914654252861897277e-01,1.000138149975241947e-01,-1.592251539796094850e-01,5.975091819122803349e-02,-2.682217108536000474e-06,-1.543950062907772621e-03,6.023427708618239208e-03,1.103767005877198004e+00,6.096105105092087910e-03,-1.687761428946344018e-03,-2.620248914935104922e-01
4.450000000000000000e+01,-2.565739693207353955e-01,-5.835572241172319874e-01,1.000135642026100113e-01,-1.566817810703391989e-01,6.639930500981292005e-02,-1.379739211569221323e-06,-1.412211645710063565e-03,5.304626554606314652e-03,1.071014594219594107e+00,4.973652212509850276e-03,-1.706468873283790381e-03,-2.620258586818973168e-01
4.475000000000000000e+01,-2.759980088621215022e-01,-5.748752493443888278e-01,1.000134664106812621e-01,-1.541940131265866487e-01,7.219711569892191261e-02,-2.776349485508161892e-07,-1.323926592758047300e-03,4.760785408800862102e-03,1.038261683563812099e+00,3.298906267224030117e-03,-1.305616590037486646e-03,-2.620278701950070066e-01
4.500000000000000000e+01,-2.951130812671204917e-01,-5.655099280130980732e-01,1.000134820076824943e-01,-1.517270265858751688e-01,7.739795107124894380e-02,4.335573160686087462e-07,-1.273635114436208948e-03,4.441490883176062859e-03,1.005508280259070464e+00,1.572787148665558783e-03,-6.656564684653973720e-04,-2.620302059718413457e-01
