time_total,x,y,z,vx,vy,vz,roll,pitch,yaw,roll_rate,pitch_rate,yaw_rate
e-02,9.989713980082902400e-02,4.883593512779924734e-02,1.706011599199909468e-01,3.687548807407738777e-04,1.199144915450871870e-03,2.232896637181117170e-03,-1.990469144245579358e-01,-2.770887264401086791e-02,-6.092089289074044400e-02,-3.699921522782088634e-01
2.500000000000000000e-01,-4.785682344949594991e-01,5.470655353528401654e-02,9.993788000127404314e-02,4.684069757874392143e-02,1.697957613203904537e-01,2.921270999175463946e-04,-1.156528558471785293e-03,-5.698342635991475967e-03,-2.452843772376264997e-01,-3.334309191076910428e-02,-5.234101903200404776e-02,-3.698974776073853943e-01
5.000000000000000000e-01,-4.732779171777791727e-01,7.616180482936975304e-02,9.997025722561768413e-02,3.706266180267014931e-02,1.741707032108016917e-01,2.262432513536920058e-04,-3.258537734886194151e-03,-1.181663017385359109e-02,-2.915007125464836313e-01,-2.358085357889278325e-02,-3.266895962191560671e-02,-3.698680950300023973e-01
7.500000000000000000e-01,-4.695473548811031628e-01,9.844999032253916316e-02,9.999356495527791933e-02,2.263795812897082677e-02,1.826874429164371816e-01,1.481633152844487333e-04,-4.391498145580622833e-03,-1.489730325542667003e-02,-3.377192627360527388e-01,-9.245192984865750752e-03,-9.469538582685524397e-03,-3.698763909034459840e-01
1.000000000000000000e+00,-4.677219636083050358e-01,1.219632466336763865e-01,1.000072943776181139e-01,7.205605365388823708e-03,1.933643881887621152e-01,7.736918407277363599e-05,-4.827574941249712127e-03,-1.484026980313109430e-02,-3.839492289760947918e-01,1.937605588042637383e-03,1.122692332547494537e-02,-3.699116086713518103e-01
1.250000000000000000e+00,-4.677126285491448043e-01,1.468527591365503815e-01,1.000138949348702566e-01,-6.027815392173248472e-03,2.044582090603862534e-01,3.509689251995957467e-05,-5.194289723881076112e-03,-1.235061394250140145e-02,-4.301868116161624012e-01,7.476305965696150579e-03,2.602038046432293694e-02,-3.699713347369436578e-01
1.500000000000000000e+00,-4.690871351232186459e-01,1.730954646182213119e-01,1.000171883778193105e-01,-1.479713900124056750e-02,2.149180492940076515e-01,2.197010869466512026e-05,-5.933019754194007039e-03,-8.439897702880552396e-03,-4.764304004605066090e-01,8.863634691735788884e-03,3.404740487562846890e-02,-3.700460267015632798e-01
1.750000000000000000e+00,-4.711989725101796700e-01,2.005761741480779348e-01,1.000200241070527407e-01,-1.789625738153749826e-02,2.242483181353497890e-01,2.467093250369936571e-05,-7.086719647884243654e-03,-3.998426012893185021e-03,-5.226838207122320723e-01,9.010743983173931035e-03,3.628825650497690541e-02,-3.701173730363383485e-01
2.000000000000000000e+00,-4.733118587624198237e-01,2.291334189120480258e-01,1.000234655451022470e-01,-1.502362869037143951e-02,2.321344519604314760e-01,2.987129348323310681e-05,-8.390220428850327095e-03,4.306975376971604102e-04,-5.689498085355937373e-01,1.018604572019820784e-02,3.470432753425114342e-02,-3.701700108379386012e-01
2.250000000000000000e+00,-4.746947008432114146e-01,2.585604426198595540e-01,1.000273420680354991e-01,-6.489869245128080701e-03,2.381342590194211184e-01,3.137928120791489014e-05,-9.493344820293691394e-03,4.671802169183944704e-03,-6.152259808620170745e-01,1.322159527598357719e-02,3.141996253410981460e-02,-3.702013488030695965e-01
2.500000000000000000e+00,-4.746776601347378888e-01,2.885796693919600586e-01,1.000311747217560721e-01,7.093643260076405894e-03,2.415618791837753354e-01,2.972963554717507093e-05,-1.014792114969392638e-02,8.802561019386768645e-03,-6.615066448698460055e-01,1.775701455113757460e-02,2.805624192075905146e-02,-3.702196533502056242e-01
2.750000000000000000e+00,-4.726732732709165719e-01,3.188142635238396250e-01,1.000347736874831195e-01,2.505201158595281655e-02,2.415397006465997143e-01,2.817062898839052266e-05,-1.027587697272398792e-02,1.299067783779824480e-02,-7.077862462195004811e-01,2.284999346402874845e-02,2.530909705307637578e-02,-3.702337537080903074e-01
3.000000000000000000e+00,-4.681760891619269893e-01,3.487725612819705390e-01,1.000383065878188982e-01,4.675152223708481380e-02,2.371360763189802046e-01,2.868335526316738782e-05,-9.929461901439486093e-03,1.734216589826616944e-02,-7.540607887431087786e-01,2.740521937245998102e-02,2.285691840014709292e-02,-3.702437601390772826e-01
3.250000000000000000e+00,-4.607587124861526329e-01,3.778517939024725880e-01,1.000419820909827090e-01,7.155956080165605526e-02,2.275296228581549507e-01,2.989450735386810768e-05,-9.206085629359414546e-03,2.179149597204260366e-02,-8.003269165385158423e-01,3.026990684294161502e-02,1.962830374283688895e-02,-3.702391725993183225e-01
3.500000000000000000e+00,-4.500803110337028290e-01,4.053631984158750368e-01,1.000456146266653912e-01,9.869953124381400378e-02,2.121875299539850712e-01,2.716290657696559949e-05,-8.180262502933435126e-03,2.604632908748206674e-02,-8.465803195168750683e-01,3.018389103617561894e-02,1.435671131769993697e-02,-3.702051510767028208e-01
3.750000000000000000e+00,-4.359157123226512498e-01,4.305807570815182728e-01,1.000483307179516057e-01,1.270833852557941845e-01,1.910650885626860029e-01,1.467442506011756003e-05,-6.883732428091696685e-03,2.959536382191575374e-02,-8.928154789211661946e-01,2.586978497262511570e-02,6.239227263765148579e-03,-3.701337665580122782e-01
4.000000000000000000e+00,-4.182015038354092162e-01,4.528156385855187649e-01,1.000486581732564911e-01,1.552203223456778969e-01,1.648110435894490078e-01,-1.067145074495880685e-05,-5.329397028623479061e-03,3.178585074087260376e-02,-9.390279958555953765e-01,1.640984867087065882e-02,-4.540696957118771707e-03,-3.700344468824145472e-01
4.250000000000000000e+00,-3.970841937747320305e-01,4.715136376792797845e-01,1.000451539970865639e-01,1.812792233213331994e-01,1.349184277578309721e-01,-4.493255962610162677e-05,-3.553707187477367097e-03,3.196705979583400192e-02,-9.852188209152804577e-01,1.816284763211367843e-03,-1.663507914315625821e-02,-3.699363879582112657e-01
4.500000000000000000e+00,-3.729490116507087616e-01,4.863630364711677978e-01,1.000374330841704296e-01,2.033282992324326188e-01,1.037295547401992646e-01,-7.559761582553028785e-05,-1.649880485877730897e-03,2.967593234246041975e-02,-1.031397427516516085e+00,-1.648099499742967239e-02,-2.779056057448354988e-02,-3.698778991554649287e-01
4.750000000000000000e+00,-3.464094484535895635e-01,4.973891402287238805e-01,1.000270139853914747e-01,2.197059061195406060e-01,7.421585423438856188e-02,-8.619605456266239815e-05,2.250156013391761938e-04,2.481926043803816054e-02,-1.077580396199839141e+00,-3.553328797825656971e-02,-3.547995423562115558e-02,-3.698852726580823536e-01
5.000000000000000000e+00,-3.182474695611546833e-01,5.050053085658952057e-01,1.000171868263339536e-01,2.294171517657530301e-01,4.951407516139217507e-02,-6.656552137433503259e-05,1.871499689134196098e-03,1.779504979671838252e-02,-1.123784443389207688e+00,-5.132959423910336827e-02,-3.770098537770204955e-02,-3.699532230709628444e-01
5.250000000000000000e+00,-2.893095636425119799e-01,5.099936279920841420e-01,1.000115531044265121e-01,2.324260725373843706e-01,3.228941209169379489e-02,-2.239516651265652589e-05,3.088622759702534457e-03,9.503181925627521981e-03,-1.170017360991346012e+00,-5.975605519181993036e-02,-3.366820025463086730e-02,-3.700421023005285304e-01
5.500000000000000000e+00,-2.603791624810861682e-01,5.134026710331196508e-01,1.000119050560882433e-01,2.297346807440431848e-01,2.407644097889454285e-02,2.468105491057424262e-05,3.720424919775278897e-03,1.222596601272784005e-03,-1.216273052523769493e+00,-5.779025784446978342e-02,-2.415402949713885833e-02,-3.700984196211996036e-01
5.750000000000000000e+00,-2.320559125723636595e-01,5.163716381516199050e-01,1.000169293234522833e-01,2.232016042144945867e-01,2.478612645953332319e-02,4.962578264021182752e-05,3.694779074680807577e-03,-5.629162744062054212e-03,-1.262534999406149216e+00,-4.454479105883187018e-02,-1.135132644004414014e-02,-3.700883805987518205e-01
6.000000000000000000e+00,-2.046730668379545814e-01,5.199128835947101068e-01,1.000229410711633987e-01,2.151332501751248849e-01,3.254432627067352368e-02,4.169901608645270116e-05,3.045568599588547015e-03,-9.800541090600070268e-03,-1.308786739706536251e+00,-2.179155719497625002e-02,1.709971743712208588e-03,-3.700214712151243535e-01
6.250000000000000000e+00,-1.782752678341499308e-01,5.247008767337133506e-01,1.000264042704309547e-01,2.077525593216662247e-01,4.394774248076544626e-02,1.334061849468569284e-05,1.913773442020102718e-03,-1.049714052441247381e-02,-1.355022418816608454e+00,6.250497915658405693e-03,1.200987166323336242e-02,-3.699448086944552294e-01
6.500000000000000000e+00,-1.526628388487451249e-01,5.309192386723794455e-01,1.000264515552548444e-01,2.026905685122096512e-01,5.470955614277304285e-02,-8.533312415815635907e-06,5.270419976235458503e-04,-7.580767146817233258e-03,-1.401249731654661712e+00,3.384154172280378486e-02,1.738095834694618896e-02,-3.699097077701171687e-01
6.750000000000000000e+00,-1.274903836793768452e-01,5.382065329921748020e-01,1.000253973175261601e-01,2.006409589349721911e-01,6.055427852742505807e-02,-3.400447316231764087e-06,-8.391280720130241989e-04,-1.621295007725043506e-03,-1.447482825734874412e+00,5.510152737710463655e-02,1.708672595626982774e-02,-3.699344335076731327e-01
7.000000000000000000e+00,-1.023926787859474330e-01,5.457185259391340582e-01,1.000267286618972268e-01,2.012700038813003411e-01,5.814619954601446539e-02,2.623430608461728729e-05,-1.911990492189720968e-03,6.213391541907199202e-03,-1.493730335671231924e+00,6.545101231961278354e-02,1.196809534938218268e-02,-3.699917553072817888e-01
7.250000000000000000e+00,-7.710391635559446510e-02,5.522961034041009576e-01,1.000320988073337136e-01,2.034002075794334452e-01,4.582220694543659434e-02,5.620634248768790564e-05,-2.474157981563877319e-03,1.440175489071280832e-02,-1.539987696169451858e+00,6.272440497517345337e-02,4.126841735137393684e-03,-3.700312323443506468e-01
7.500000000000000000e+00,-5.153917642773887114e-02,5.567020115155904003e-01,1.000397017839000646e-01,2.054081639188723163e-01,2.394976258399678787e-02,5.932361603781785889e-05,-2.406764740075318775e-03,2.138817545841157144e-02,-1.586239790678213080e+00,4.767836686489285158e-02,-3.747387781590865840e-03,-3.700189111564274325e-01
7.750000000000000000e+00,-2.581855086289138249e-02,5.578730202456801957e-01,1.000453327331488340e-01,2.057181459654417177e-01,-5.173568665334652740e-03,2.654579250782980519e-05,-1.712914416719740589e-03,2.590344469549217543e-02,-1.632472038527000402e+00,2.377307568353086847e-02,-9.193924898671660545e-03,-3.699634765318937646e-01
8.000000000000000000e+00,-2.310814022001619070e-04,5.551309963349939647e-01,1.000453231503494328e-01,2.032497633389962477e-01,-3.784824121695619381e-02,-2.583698765046691168e-05,-5.153984987880760827e-04,2.721306917739413009e-02,-1.678681488541400757e+00,-3.720006288511264452e-03,-1.068672483986536463e-02,-3.699089460430250442e-01
8.250000000000000000e+00,2.484742899919862441e-02,5.483072756364298916e-01,1.000391108058566042e-01,1.976972658981393516e-01,-6.979207742514283164e-02,-6.808110549851770536e-05,9.711364140784501785e-04,2.523765386949204312e-02,-1.724879602829808345e+00,-2.904843447376086879e-02,-8.013752550482011391e-03,-3.699007330340077782e-01
8.500000000000000000e+00,4.905662810581740835e-02,5.377568237809559060e-01,1.000295775182926256e-01,1.895731471090808806e-01,-9.704390724124643819e-02,-7.792987464728599975e-05,2.486836369482432144e-03,2.052162464383862350e-02,-1.771084963633524412e+00,-4.737628269703231948e-02,-2.227304329279076057e-03,-3.699521968952503848e-01
8.750000000000000000e+00,7.214399436952459443e-02,5.242661278216594889e-01,1.000210758023808294e-01,1.800221028253609912e-01,-1.167301461091287823e-01,-5.442241637195751680e-05,3.780301407143793306e-03,1.406598335106765650e-02,-1.817311647678351960e+00,-5.585571440522776876e-02,4.791914324482280003e-03,-3.700363338959468673e-01
9.000000000000000000e+00,9.402286528650014019e-02,5.088839234320911009e-01,1.000167517566759035e-01,1.704794210801581222e-01,-1.275213592256747852e-01,-1.547515026360079049e-05,4.655939021420355504e-03,7.075496491779577693e-03,-1.863561539425668379e+00,-5.409227239490697198e-02,1.098664212443503305e-02,-3.701060202917056396e-01
9.250000000000000000e+00,1.147838099676051771e-01,4.927196305065598136e-01,1.000170505625176676e-01,1.622876731274037199e-01,-1.297017391920539109e-01,1.654265591984197182e-05,5.004513057561655459e-03,6.894884472308425655e-04,-1.909825034978407388e+00,-4.392637627041122428e-02,1.475799029917820686e-02,-3.701252194896225700e-01
9.500000000000000000e+00,1.346616695741304770e-01,4.767568601145209528e-01,1.000201436655233089e-01,1.563850295728941298e-01,-1.248841782932888222e-01,2.901587722070791397e-05,4.812098795572867897e-03,-4.236729976027480034e-03,-1.956088242653116094e+00,-2.866737000719640771e-02,1.537623244650388431e-02,-3.700886349854423107e-01
9.750000000000000000e+00,1.539726858268457566e-01,4.617192321885670303e-01,1.000235602413391128e-01,1.531417640307355110e-01,-1.154910713437758280e-01,2.358714188803665216e-05,4.148710307729230884e-03,-7.253774130527390271e-03,-2.002340981710243106e+00,-1.206975141312992272e-02,1.306248386582357923e-02,-3.700192275924897300e-01
1.000000000000000000e+01,1.730421931175571415e-01,4.480075335013476989e-01,1.000256885428727066e-01,1.523658148240779331e-01,-1.041618776178278583e-01,1.061230848998428765e-05,3.142364080670653238e-03,-8.329717190628832535e-03,-2.048580734230216471e+00,2.615404152625307784e-03,8.769500521717484703e-03,-3.699499273767913876e-01
1.025000000000000000e+01,1.921424253502536372e-01,4.357073406961990414e-01,1.000262811515090916e-01,1.534457385918936156e-01,-9.323713507213191032e-02,2.152685385462568269e-07,1.946531456963803862e-03,-7.769751918202835901e-03,-2.094811467300166541e+00,1.325956049094115415e-02,3.792007153065303504e-03,-3.699045227428914839e-01
1.050000000000000000e+01,2.114536882577811583e-01,4.246505075173007127e-01,1.000260106558426842e-01,1.555672713809223007e-01,-8.441778587072805429e-02,-3.258948179717706059e-06,7.088703024269656398e-04,-6.083448475616274644e-03,-2.141039581902331346e+00,1.905006894494186420e-02,-6.338113801505176935e-04,-3.698890132442613221e-01
1.075000000000000000e+01,2.310535403852856662e-01,4.145058109074092889e-01,1.000256956845420181e-01,1.579339897650186841e-01,-7.863245788599820818e-02,-1.241161706090877820e-06,-4.526902440093208370e-04,-3.843157890440911800e-03,-2.187270119228598819e+00,2.031968247399521324e-02,-3.622663233944016861e-03,-3.698948285851650919e-01
1.100000000000000000e+01,2.509307639356033182e-01,4.048738727807625892e-01,1.000257776926224695e-01,1.599379154994361452e-01,-7.608787777557092513e-02,2.385804512129125459e-06,-1.463235385989654315e-03,-1.566649502784231603e-03,-2.233505063855313555e+00,1.816819213893030791e-02,-4.778967574011539106e-03,-3.699079709065956623e-01
1.125000000000000000e+01,2.710157143060106244e-01,3.953670524485017879e-01,1.000262405535363164e-01,1.612508943174500997e-01,-7.644358110436898224e-02,4.566022262963052386e-06,-2.293154871914369203e-03,3.602633027159781419e-04,-2.279743737630597789e+00,1.404200707192820516e-02,-4.201025684194676334e-03,-3.699171682407023098e-01
1.150000000000000000e+01,2.912165759265754050e-01,3.856631398500481311e-01,1.000268245602490697e-01,1.618312560577142567e-01,-7.904372877681985210e-02,4.433913674709182004e-06,-2.951396008713061316e-03,1.720990258193798739e-03,-2.325984204975272807e+00,9.384026853404539917e-03,-2.397976248211322603e-03,-3.699175549986146727e-01
1.175000000000000000e+01,3.114515221973301884e-01,3.755295781829611768e-01,1.000272839391572327e-01,1.618569147744339520e-01,-8.314862198300444762e-02,2.841101429403068455e-06,-3.472972895153378023e-03,2.473535842506315377e-03,-2.372224598180330268e+00,5.392563452446211963e-03,-1.592118965817745663e-04,-3.699102283276284875e-01
1.200000000000000000e+01,3.316688646087747605e-01,3.648210488911848293e-01,1.000275232631736011e-01,1.616059221369166021e-01,-8.812544297687893713e-02,1.116538755581563188e-06,-3.904284457597398394e-03,2.732680359620533791e-03,-2.418463843471003294e+00,2.876643009200903836e-03,1.606281721890647721e-03,-3.698998436473146523e-01
1.225000000000000000e+01,3.518503212916987977e-01,3.534572448851903692e-01,1.000275876272671283e-01,1.613115961704662260e-01,-9.357375154609630374e-02,9.173541266578666976e-08,-4.289209650800761796e-03,2.734182140416228490e-03,-2.464701826698699527e+00,2.183042548339422968e-03,2.054789528255121511e-03,-3.698921721928114525e-01
1.250000000000000000e+01,3.719962205182160697e-01,3.413898645342858251e-01,1.000275781224097826e-01,1.610236306242347204e-01,-9.937400738426981073e-02,-1.156478288843981008e-07,-4.657984570339251083e-03,2.783545240981360417e-03,-2.510939269591012657e+00,3.184764739106777601e-03,6.033413026810042525e-04,-3.698924029682472137e-01
1.275000000000000000e+01,3.920955239999635578e-01,3.285686004375609759e-01,1.000275858739783780e-01,1.605082031518229868e-01,-1.056585612618504422e-01,3.271130338441438366e-07,-5.019989002080125010e-03,3.192519929726008419e-03,-2.557177506570937897e+00,5.336057587558035165e-03,-2.895000743052344484e-03,-3.699039890695630661e-01
1.300000000000000000e+01,4.120875229773584003e-01,3.149152251766634270e-01,1.000276931829162247e-01,1.592166210459560749e-01,-1.127161828256919851e-01,1.500100009075709259e-06,-5.361013921808950762e-03,4.209851619551446301e-03,-2.603418149924652258e+00,7.800335346075491436e-03,-8.039612472740258198e-03,-3.699275359349654124e-01
1.325000000000000000e+01,4.318251521854217234e-01,3.003127105535261521e-01,1.000280141502509074e-01,1.563415402487372541e-01,-1.208532509990296322e-01,3.767483217300855866e-06,-5.645272502665236482e-03,5.956923345694887031e-03,-2.649662525850911887e+00,9.644477722124173216e-03,-1.387977546745958364e-02,-3.699596621593849721e-01
1.350000000000000000e+01,4.510511697365623962e-01,2.846127252598171231e-01,1.000286942556278119e-01,1.509620469039134882e-01,-1.302450520763515085e-01,7.130638194782516378e-06,-5.822087815393684959e-03,8.382012640875078149e-03,-2.695910885329995565e+00,1.007218298018625405e-02,-1.905461880588976004e-02,-3.699925662126493098e-01
1.375000000000000000e+01,4.693971635530523323e-01,2.676602664155889322e-01,1.000298086136881676e-01,1.422559137858457334e-01,-1.408158477582599211e-01,1.039733789153478853e-05,-5.836600342695750197e-03,1.124727269259438202e-02,-2.742161694511171977e+00,8.646776659466568274e-03,-2.207992553231608729e-02,-3.700154693560949171e-01
1.400000000000000000e+01,4.864110898808116090e-01,2.493294568937662881e-01,1.000311954886221044e-01,1.297338919984631078e-01,-1.521830868497708600e-01,1.110840914123651811e-05,-5.642958315943332262e-03,1.415860612544073312e-02,-2.788411547491524978e+00,5.439173792325260361e-03,-2.173877244736360792e-02,-3.700184536274840896e-01
1.425000000000000000e+01,5.016122251686230271e-01,2.295608958029312363e-01,1.000323664378114236e-01,1.134344077762050318e-01,-1.636874062501696980e-01,6.811214509588178104e-06,-5.217509849376772424e-03,1.663949810804904450e-02,-2.834656116825980288e+00,1.041823450099683534e-03,-1.747916999738040322e-02,-3.699974711399189875e-01
1.450000000000000000e+01,5.145644294936146945e-01,2.083896439162315206e-01,1.000326394584229034e-01,9.401573276963723358e-02,-1.745072518148652607e-01,-2.875712326019307567e-06,-4.568893689129906004e-03,1.823696088991332703e-02,-2.880891970657962542e+00,-3.577841617315983495e-03,-9.686892105978318901e-03,-3.699576207247869397e-01
1.475000000000000000e+01,5.249517712566428296e-01,1.859547748405863399e-01,1.000314954886706575e-01,7.270188731456014852e-02,-1.838306818018493050e-01,-1.503303162069247890e-05,-3.742013584714988430e-03,1.863494389816992836e-02,-2.927118362495396919e+00,-7.356414572209519706e-03,2.885104383808395644e-04,-3.699118922424027844e-01
1.500000000000000000e+01,5.326374015958234009e-01,1.624863059598598003e-01,1.000289502131192498e-01,5.107675613698803990e-02,-1.910360562075895108e-01,-2.448158760761089963e-05,-2.813919493988614566e-03,1.774326089882065360e-02,-2.973337845450814587e+00,-9.461832870455240754e-03,1.041076966166518125e-02,-3.698751721891841981e-01
1.525000000000000000e+01,5.376889134511335655e-01,1.382719694298886470e-01,1.000256525799153862e-01,3.076817446223552299e-02,-1.958267488381352506e-01,-2.681763220656526388e-05,-1.881554613646239200e-03,1.573281636683911133e-02,-3.019555161328748127e+00,-9.554168296019021830e-03,1.848699830053494864e-02,-3.698568360694044488e-01
1.550000000000000000e+01,5.403613924516280642e-01,1.136125380860225492e-01,1.000225869446500632e-01,1.310375057210216333e-02,-1.982774489752927027e-01,-2.127742887331600068e-05,-1.043703183410418789e-03,1.300171759345312983e-02,-3.065774998323523626e+00,-7.879941481960391417e-03,2.279594245875811789e-02,-3.698567310347636306e-01
1.575000000000000000e+01,5.410409532199799143e-01,8.877799749976944543e-02,1.000205610396976419e-01,-1.163524044580667048e-03,-1.987783728008979400e-01,-1.111382012733120011e-05,-3.814815972719700840e-04,1.007787351370630254e-02,-3.112000014248424762e+00,-5.160104778203530689e-03,2.260569512711654155e-02,-3.698670869334105271e-01
1.600000000000000000e+01,5.401630555364382857e-01,6.397632970369186711e-02,1.000257610565512961e-01,-1.197897695945355188e-02,-1.978968813013124994e-01,9.764672343807895304e-05,5.655706934351781284e-05,7.484651270278456885e-03,3.124152702985707464e+00,-2.256195762044955685e-03,1.839768056145115252e-02,-3.613255007800467156e-01
1.625000000000000000e+01,5.381277438234317589e-01,3.934226123099756472e-02,1.000289284559980063e-01,-1.991664849428449735e-02,-1.962154510934860929e-01,-5.843805011832183113e-06,2.633190081904589219e-04,5.607253801927641890e-03,3.078507394850727774e+00,-1.135925373667913700e-04,1.171267858590413838e-02,-3.675678664956572028e-01
1.650000000000000000e+01,5.352340162858905126e-01,1.494444830275816136e-02,1.000276595795202145e-01,-2.595627481536229991e-02,-1.941855249993877930e-01,-1.035783926276553872e-05,2.760581933862247639e-04,4.603729820506526418e-03,3.032428930789559551e+00,1.024536117779245277e-03,4.646432967351586674e-03,-3.692685186887436632e-01
1.675000000000000000e+01,5.316500072102725571e-01,-9.191233100664743944e-03,1.000266258025833827e-01,-3.115447808085182110e-02,-1.920484048573120051e-01,-6.317502637934150505e-06,1.515995753610101205e-04,4.382005259628418171e-03,2.986234479957693644e+00,1.246617622963558554e-03,-8.086894864345365534e-04,-3.697216666508753580e-01
1.700000000000000000e+01,5.274236373120639865e-01,-3.305685011263220785e-02,1.000260358981765879e-01,-3.634083644220006265e-02,-1.898646963809086652e-01,-3.510673568875423746e-06,-4.353170540533925057e-05,4.652748048828795994e-03,2.940009011140480411e+00,1.019638259166360259e-03,-3.394090286631072390e-03,-3.698419157322413442e-01
1.725000000000000000e+01,5.225253373695756265e-01,-5.664457715632079809e-02,1.000256851541484054e-01,-4.191992244638784865e-02,-1.875960677150586009e-01,-2.399458577787493777e-06,-2.517918713036591209e-04,5.040204077950391319e-03,2.893775296378240824e+00,9.173554366506527164e-04,-2.949473965298236074e-03,-3.698733605550220682e-01
1.750000000000000000e+01,5.169049654717656761e-01,-7.994116836955790506e-02,1.000253827441701521e-01,-4.784131207705347860e-02,-1.852104534790698920e-01,-2.594932503980449726e-06,-4.386583252608411833e-04,5.214374139577699144e-03,2.847539572759694160e+00,1.321108219716166793e-03,-3.947592423972290853e-04,-3.698806061521425215e-01
1.775000000000000000e+01,5.105414261857874614e-01,-1.029341649556638066e-01,1.000250145823045611e-01,-5.373533221170460200e-02,-1.827575090365559651e-01,-3.263554790160272275e-06,-5.981637328496683999e-04,5.001684914133766244e-03,2.801303624254809055e+00,2.216252870695646377e-03,2.657983109187994630e-03,-3.698808516805769386e-01
1.800000000000000000e+01,5.034675817673006648e-01,-1.256234608021982169e-01,1.000245872871018266e-01,-5.915539820364340562e-02,-1.803772059620067370e-01,-3.422949364845070588e-06,-7.484479722517709118e-04,4.438811269007421345e-03,2.755067903672337337e+00,3.173139507451694114e-03,4.516992887952906571e-03,-3.698792457246344312e-01
1.825000000000000000e+01,4.957630087923635132e-01,-1.480291032943145679e-01,1.000241991084562798e-01,-6.383290822531370590e-02,-1.782353425822228443e-01,-2.675909391626722588e-06,-9.191037726498740932e-04,3.753526134123978935e-03,2.708832392529690658e+00,3.525638645658828695e-03,4.026191871170664398e-03,-3.698780392988753607e-01
1.850000000000000000e+01,4.875193250885932472e-01,-1.701876537831697733e-01,1.000239449164385813e-01,-6.785003566844034772e-02,-1.764135182816392866e-01,-1.394976084825482997e-06,-1.134834907113243391e-03,3.280424708552814178e-03,2.662596860804974153e+00,2.677519814353555242e-03,9.700617484690353745e-04,-3.698789315747663675e-01
1.875000000000000000e+01,4.787928365953593168e-01,-1.921345302841522551e-01,1.000238577582621552e-01,-7.166835372834987061e-02,-1.748040209348848961e-01,-4.507940553702358985e-08,-1.401162945093282347e-03,3.339975814217927691e-03,2.616360878210457042e+00,4.119584311209181283e-04,-3.862968876971569626e-03,-3.698834715749337865e-01
1.900000000000000000e+01,4.695637057965068584e-01,-2.138764589370672764e-01,1.000239454800482403e-01,-7.600426665475878973e-02,-1.730625485653836948e-01,1.456513644447589038e-06,-1.697189695401783889e-03,4.120410213151518702e-03,2.570123831237578038e+00,-2.927283200448152142e-03,-8.968331201343139603e-03,-3.698922576971780396e-01
1.925000000000000000e+01,4.597183652293377332e-01,-2.353637175923378733e-01,1.000242487680842313e-01,-8.159668610512087195e-02,-1.706520561132732761e-01,3.401455360228075714e-06,-1.978029150185602741e-03,5.600667677617071974e-03,2.523885230576976557e+00,-6.470377550340396765e-03,-1.265606716951085155e-02,-3.699035773105623925e-01
1.950000000000000000e+01,4.490635496634916013e-01,-2.564738614079887791e-01,1.000248036808737556e-01,-8.894973997758827411e-02,-1.669761094079111607e-01,5.299642958552122568e-06,-2.186293026698741485e-03,7.539789449633122267e-03,2.477645275607959885e+00,-9.079620117766182275e-03,-1.363882714573975974e-02,-3.699130829050139013e-01
1.975000000000000000e+01,4.373723233095881957e-01,-2.770122551139817535e-01,1.000263021185486406e-01,-9.788351177301533868e-02,-1.612673482852800266e-01,3.344185974690782221e-05,1.567347101304765108e-03,9.476217857479067239e-03,2.438163855735128394e+00,-1.208096436068595569e-01,8.638415966281423608e-02,-1.027490312037201287e-01
2.000000000000000000e+01,4.250635360471390345e-01,-2.960419975701285011e-01,1.000485498896480641e-01,-9.510578694409306533e-02,-1.388936417893689157e-01,4.333478780312036757e-04,3.374874097061803663e-02,9.991764392285428301e-03,2.452666378117702717e+00,-2.303243216999799614e-01,1.958846350215410204e-01,2.434141802915759933e-01
2.025000000000000000e+01,4.148016729438525063e-01,-3.101573267616935525e-01,1.001339223680866308e-01,-6.595929544484531448e-02,-8.361532242404422222e-02,7.445710274628890291e-04,6.559902506441980807e-02,8.231432308160747252e-03,2.490507789144985384e+00,-1.303763176134250246e-01,1.266729504931483341e-01,3.346794654314899642e-01
2.050000000000000000e+01,4.094172242537273410e-01,-3.157779481068465066e-01,1.001792271306269633e-01,-2.055274891042216390e-02,-7.295067226052989393e-03,-1.311229776343416004e-04,7.451126298519256119e-02,5.142291824900719135e-03,2.534329868363235150e+00,3.939015101341925007e-02,2.820324705834278099e-03,3.594598326353103945e-01
2.075000000000000000e+01,4.097476073500334603e-01,-3.118010952875889807e-01,1.001014388058249910e-01,2.267006373085398915e-02,6.608506595835661468e-02,-9.393759127268511274e-04,5.988719846351530512e-02,2.686605618071618521e-03,2.579757544103578493e+00,1.593452300215816020e-01,-8.505357294598600570e-02,3.665678707412164949e-01
2.100000000000000000e+01,4.145926536370679871e-01,-2.999105621516401921e-01,9.998844693317301968e-02,5.088621251133891576e-02,1.180183748814778999e-01,-7.277142414780932373e-04,3.417376759616905235e-02,2.131411036884555462e-03,2.625689884344771574e+00,1.815910965681228340e-01,-1.070190021135120906e-01,3.688063749491114485e-01
2.125000000000000000e+01,4.218004839521453664e-01,-2.832474561575009653e-01,9.993730565657663045e-02,6.138637647418979798e-02,1.436763358583551808e-01,-1.261393575447254819e-04,1.117171421182258997e-02,3.312457531229749414e-03,2.671795434241209133e+00,1.264326343924548346e-01,-7.959157299435079547e-02,3.696844913358747764e-01
2.150000000000000000e+01,4.294133662230649184e-01,-2.647375095220915742e-01,9.994446432341581865e-02,5.893936453309245316e-02,1.499896930860155908e-01,1.628232289068737987e-04,-1.435395867249536191e-03,5.133428727582743829e-03,2.717981864988285867e+00,4.539031729359358641e-02,-3.582894453342413965e-02,3.700442394392892131e-01
2.175000000000000000e+01,4.362696732386492360e-01,-2.460643831460806175e-01,9.996623071999527488e-02,5.059049043408105073e-02,1.484324817495607518e-01,1.607597667689253005e-04,-3.502243178346688048e-03,6.507031600727298561e-03,2.764231620598790240e+00,-1.589827104601410426e-02,-1.858019027074046380e-03,3.700904664297618440e-01
2.200000000000000000e+01,4.420052268066531620e-01,-2.275702410702828693e-01,9.998297935635365452e-02,4.165593876828648651e-02,1.481843379258208915e-01,1.126358732350739940e-04,3.973321892446008080e-04,6.966281610218312027e-03,2.810514161964126956e+00,-3.789992291860425772e-02,1.280264180443857827e-02,3.699973211556652486e-01
2.225000000000000000e+01,4.467215592515371703e-01,-2.087945562516791698e-01,9.999524452321595369e-02,3.436199911152204578e-02,1.529072636689855769e-01,8.591672568714352372e-05,4.987511453076743685e-03,6.655861387611223395e-03,2.856788981210775180e+00,-2.690220204967903178e-02,1.262239123325626690e-02,3.699051609671832330e-01
2.250000000000000000e+01,4.506349620993276295e-01,-1.891581651732697489e-01,1.000041421984268764e-01,2.863893356808662125e-02,1.613427874828961273e-01,5.616874880794384828e-05,7.052537489391747828e-03,5.919480594955380502e-03,2.903037053487465879e+00,-2.191441403239276740e-03,7.697737374480830529e-03,3.698620802902392035e-01
2.275000000000000000e+01,4.538924652444869534e-01,-1.684146849037394256e-01,1.000092221988584940e-01,2.373820309262099013e-02,1.700056206829940464e-01,2.802770355277754780e-05,6.103941976578979890e-03,4.897714848789820608e-03,2.949264470085529055e+00,1.801695870806786781e-02,6.214712204754418122e-03,3.698611445131324560e-01
2.300000000000000000e+01,4.565765520154059787e-01,-1.467446261943730068e-01,1.000117790823923242e-01,1.949871424761967509e-02,1.759044877185320654e-01,1.610566533898803520e-05,3.478668586174232281e-03,3.418290964950018371e-03,2.995487426939237086e+00,2.467031471413787605e-02,1.088938219108219821e-02,3.698827685307404800e-01
2.325000000000000000e+01,4.588130226628278630e-01,-1.245831378464695438e-01,1.000137056027535221e-01,1.673002373962245715e-02,1.780047890124720755e-01,1.566472039680512091e-05,9.369484146627431089e-04,1.195415694348899577e-03,3.041718162573170403e+00,1.850314214484581957e-02,1.934074042764344012e-02,3.699060407025405728e-01
2.350000000000000000e+01,4.608721798198814334e-01,-1.023617384635088917e-01,1.000157736898391325e-01,1.680172857299385217e-02,1.772367015618290242e-01,1.738577653380065784e-05,-3.629444287946119864e-04,-1.848167635911120588e-03,3.087957162712354542e+00,5.889015116852669950e-03,2.666444476890429682e-02,3.699153521647063902e-01
2.375000000000000000e+01,4.631896902537490646e-01,-8.031517791302235365e-02,1.000180628128119198e-01,2.086192544388743714e-02,1.755987547005878613e-01,1.915682053445755308e-05,-1.775653673460886859e-04,-5.364757956523613300e-03,3.134195220434440987e+00,-6.187362857629669609e-03,2.829791267445305042e-02,3.699088444652715024e-01
2.400000000000000000e+01,4.662908709304247612e-01,-5.841805486051706436e-02,1.000293490275999120e-01,2.913538489074194923e-02,1.750956979273762815e-01,3.447972616261439388e-05,1.069620541678039088e-03,-8.601912210849927548e-03,-3.102346730233083161e+00,-1.333412104119866687e-02,2.195148316732891888e-02,3.654135178420178098e-01
2.425000000000000000e+01,4.706489856485926992e-01,-3.643676895365842439e-02,1.000302879311935622e-01,4.059118948529831516e-02,1.769972716511847011e-01,-6.122847162860138069e-06,2.757250137176392359e-03,-1.063391157218906286e-02,-3.056430351033730286e+00,-1.455202722158334405e-02,8.241883857393328405e-03,3.687044845075718724e-01
2.450000000000000000e+01,4.765318306959984151e-01,-1.404048121460236415e-02,1.000286803391413903e-01,5.306377415974761202e-02,1.816206358171642554e-01,-1.840636589824353408e-05,4.399792571807808160e-03,-1.070019526843050094e-02,-3.010289757371131802e+00,-1.105420786194502569e-02,-9.772075582191980248e-03,3.696186764281647608e-01
2.475000000000000000e+01,4.838883845491339653e-01,9.084844303601208315e-03,1.000258341876999607e-01,6.374401809309215849e-02,1.884474054942120724e-01,-2.552764219333834077e-05,5.772313402491917669e-03,-8.476046140637752413e-03,-2.964078063209568015e+00,-4.989705816034099330e-03,-2.773554137743952305e-02,3.699302206805960003e-01
2.500000000000000000e+01,4.923116243650828006e-01,3.315051037219856472e-02,1.000228094024820241e-01,6.986219173571148189e-02,1.964259524415043756e-01,-2.058228252021385504e-05,6.847047242795122751e-03,-4.192907615367028225e-03,-2.917832210467006693e+00,1.631185942442771666e-03,-4.130340491657038399e-02,3.701004005866095348e-01
2.525000000000000000e+01,5.010878101265179296e-01,5.821977086339333307e-02,1.000212844080725361e-01,6.935730513274755704e-02,2.042971867242692197e-01,-2.918241931265358509e-06,7.660194914616609389e-03,1.420631188431782654e-03,-2.871562601296196782e+00,7.303796284252993959e-03,-4.730526591404798226e-02,3.702225755547016717e-01
2.550000000000000000e+01,5.093188520904108341e-01,8.420048867899361522e-02,1.000222364666602665e-01,6.135834925365561687e-02,2.108730961798605252e-01,1.653420010617911209e-05,8.216775235957946705e-03,7.336982358964668459e-03,-2.825277548392648885e+00,1.098512311985884622e-02,-4.451501638598660826e-02,3.702873311077237162e-01
2.575000000000000000e+01,5.160860738531144465e-01,1.108688926532915564e-01,1.000249518167512369e-01,4.636267562085143873e-02,2.152579132816278551e-01,2.378589294379821495e-05,8.474312376884831841e-03,1.249392774097913585e-02,-2.778989219890406037e+00,1.201385890406420076e-02,-3.389965864804653922e-02,3.702736153931516783e-01
2.600000000000000000e+01,5.206143703413834700e-01,1.379171526653961422e-01,1.000274165781804003e-01,2.607640744437021707e-02,2.170078891787847464e-01,1.328421638669482425e-05,8.385618856905150201e-03,1.605077381806313888e-02,-2.732711444712141002e+00,1.019689033579016316e-02,-1.831773261693125585e-02,3.701856203231851938e-01
2.625000000000000000e+01,5.223968029105862110e-01,1.650156935280630288e-01,1.000277517011961131e-01,2.965371027001317914e-03,2.162042157897842987e-01,-7.895814155500168361e-06,7.953514600332679471e-03,1.757738595943460214e-02,-2.686453736267747416e+00,6.005586271423264330e-03,-1.741650587000845903e-03,3.700571709294248612e-01
2.650000000000000000e+01,5.212506155252110140e-01,1.918769594045001969e-01,1.000254924656763938e-01,-2.036257018679151973e-02,2.134018704868194949e-01,-2.606049791059481875e-05,7.257564238069622378e-03,1.713868776520713344e-02,-2.640216999756295202e+00,6.705618895315330332e-04,1.180511127262573456e-02,3.699338938259477683e-01
2.675000000000000000e+01,5.172939800679281497e-01,2.183036508589143443e-01,1.000217422808162143e-01,-4.177912239564644803e-02,2.094377429150141023e-01,-3.129083729730885234e-05,6.438720772572593780e-03,1.526048562168445116e-02,-2.593994503441923172e+00,-4.009917951185287648e-03,1.931409824583570425e-02,3.698504679121713545e-01
2.700000000000000000e+01,5.108539014123805178e-01,2.442053339779909904e-01,1.000182307407069121e-01,-6.009570951563299179e-02,2.051301460985104630e-01,-2.346098841328910476e-05,5.653090909401719232e-03,1.278645798496596056e-02,-2.547776803232263187e+00,-6.175642949151607421e-03,1.956535690079111087e-02,3.698190317680670747e-01
2.725000000000000000e+01,5.023338920494698767e-01,2.695748443549792484e-01,1.000161655696220758e-01,-7.524238084263215609e-02,2.009543684374233141e-01,-9.770454807826243321e-06,5.018981684509652569e-03,1.065895292937090073e-02,-2.501556362184296223e+00,-4.572487718963888503e-03,1.339160644697590628e-02,3.698327038071902995e-01
2.750000000000000000e+01,4.920800611900315591e-01,2.944286768645557606e-01,1.000157824410350949e-01,-8.812612555222494592e-02,1.968069061125735653e-01,2.678883638817146269e-06,4.579971254100635020e-03,9.674299809810429571e-03,-2.455329120850334057e+00,8.775799901265865901e-04,3.363046786802031257e-03,3.698760763070992885e-01
2.775000000000000000e+01,4.802832256478263284e-01,3.187291834627167808e-01,1.000167402575994069e-01,-1.002210898414297308e-01,1.919567379434342913e-01,1.190136635363636687e-05,4.296156925477305662e-03,1.027212382873777564e-02,-2.409093807350557892e+00,8.856343186989157693e-03,-7.009893843837673028e-03,3.699324029812976478e-01
2.800000000000000000e+01,4.669428877034333958e-01,3.423154623937542107e-01,1.000187258362210951e-01,-1.130190497884670520e-01,1.852263244821336363e-01,1.944315728727278548e-05,4.063289481594358453e-03,1.241343176936200547e-02,-2.362851364928444386e+00,1.691118519037558554e-02,-1.431866594538140636e-02,3.699846897738697238e-01
2.825000000000000000e+01,4.518999904270482593e-01,3.648701960912781872e-01,1.000215512159019771e-01,-1.275057301370899066e-01,1.753667346148966577e-01,2.495904096459412603e-05,3.750510456239659202e-03,1.558246709853176176e-02,-2.316605356165284846e+00,2.215266084176637992e-02,-1.623612041305722009e-02,3.700160700022611659e-01
2.850000000000000000e+01,4.349249284063177456e-01,3.859403597674554987e-01,1.000246928989268758e-01,-1.438163737442331724e-01,1.615189774201497563e-01,2.369484350576613057e-05,3.243679268768106042e-03,1.891617179821242570e-02,-2.270361871791544139e+00,2.217886207617410926e-02,-1.214958215026324187e-02,3.700151656048636384e-01
2.875000000000000000e+01,4.158314126304830660e-01,4.050132120218688514e-01,1.000269393301201626e-01,-1.611667932580935492e-01,1.436137056529754041e-01,1.054752902098101751e-05,2.481973476962517824e-03,2.143096140675594674e-02,-2.224127217156586678e+00,1.592889491297550669e-02,-3.271978833351482478e-03,3.699845910801601301e-01
2.900000000000000000e+01,3.945800452730876540e-01,4.216304597243002439e-01,1.000268101010682864e-01,-1.780718416762762102e-01,1.225689089077312416e-01,-1.289614990994385195e-05,1.478762228039263256e-03,2.228896517592185433e-02,-2.177903921632587725e+00,4.174779539843104237e-03,7.788586755337408192e-03,3.699437894496861445e-01
2.925000000000000000e+01,3.713396548875293468e-01,4.355090283083262181e-01,1.000236266157037701e-01,-1.927770092462277041e-01,1.001998147383530713e-01,-3.602887849578830935e-05,3.222131857322484963e-04,2.103252542669781927e-02,-2.131688059496315457e+00,-1.054067850986993397e-02,1.786145493903398829e-02,3.699195440556348746e-01
2.950000000000000000e+01,3.464881467603647125e-01,4.466315493781261581e-01,1.000183155361569487e-01,-2.037660336466854960e-01,7.884229352332378093e-02,-4.551167326065845120e-05,-8.440392221098903629e-04,1.772105507754247883e-02,-2.085470704970011635e+00,-2.454661333805256349e-02,2.418870016524765632e-02,3.699283202545882721e-01
2.975000000000000000e+01,3.205535814917407911e-01,4.552759828018021482e-01,1.000130775959132967e-01,-2.101870987399353241e-01,6.078481094480904512e-02,-3.560095622043360226e-05,-1.855032361248351710e-03,1.292846915546641030e-02,-2.039243214408530847e+00,-3.410513951346264699e-02,2.523850325819654294e-02,3.699638925536596901e-01
3.000000000000000000e+01,2.941144793491269338e-01,4.619705836023288992e-01,1.000100162530523085e-01,-2.120695764030526842e-01,4.767381271300737133e-02,-1.315993807159709780e-05,-2.564458607470399866e-03,7.597074326652675062e-03,-1.993002616606219579e+00,-3.657578353491020701e-02,2.110231174964037962e-02,3.700013736152252264e-01
3.025000000000000000e+01,2.676901345212628347e-01,4.673829501783721696e-01,1.000098057843552823e-01,-2.102736858262579389e-01,4.007765536570546266e-02,7.702190282599677973e-06,-2.879920647309215133e-03,2.785130944657547309e-03,-1.946752983974412654e+00,-3.130427440052967192e-02,1.335689348462097865e-02,3.700154960603136423e-01
3.050000000000000000e+01,2.416532590251178614e-01,4.721730400779660664e-01,1.000114946091253676e-01,-2.062037026972448339e-01,3.735368827361547350e-02,1.674430690891028767e-05,-2.784179196214856336e-03,-6.212490937820780651e-04,-1.900501875990782352e+00,-1.990950443555137769e-02,4.450987976244639814e-03,3.699985608561452977e-01
3.075000000000000000e+01,2.161882545185789539e-01,4.768525550224271270e-01,1.000135184657744147e-01,-2.013913955519827936e-01,3.787024600903400595e-02,1.437305974689030443e-05,-2.336928961312129561e-03,-2.145896290310572892e-03,-1.854254964538455619e+00,-5.812378619975242140e-03,-3.160480105030830187e-03,3.699636716473769793e-01
3.100000000000000000e+01,1.913021535135369655e-01,4.816920013829212865e-01,1.000149267579565210e-01,-1.970938167715583500e-01,3.951699566639058081e-02,8.489412468776196747e-06,-1.656906903243784762e-03,-1.833752494646015245e-03,-1.808013122522867056e+00,6.896920145966893914e-03,-7.820688559300088133e-03,3.699319857156416758e-01
3.125000000000000000e+01,1.668776464855061259e-01,4.867012994725121722e-01,1.000157636392691313e-01,-1.940349449772134638e-01,4.033262268465364481e-02,5.733519891147046276e-06,-8.895854065484354615e-04,-1.948033444144893175e-04,-1.761773652985798355e+00,1.489333074859979476e-02,-9.118857274641288188e-03,3.699164194187194443e-01
3.150000000000000000e+01,1.427450163530376570e-01,4.916844753999450313e-01,1.000165019869292127e-01,-1.923588273178604702e-01,3.902919252365362468e-02,6.345084769927639724e-06,-1.699519964681205282e-04,2.004773531863023300e-03,-1.715533644310959005e+00,1.681327430706346451e-02,-7.820396058939698899e-03,3.699155257443548228e-01
