time_total,x,y,z,vx,vy,vz,roll,pitch,yaw,roll_rate,pitch_rate,yaw_rate
-01,9.990612331227002874e-02,5.203655044286897152e-02,-1.258789596988916515e-01,3.728545582173130226e-04,2.681796836523779246e-03,-1.934070822138345873e-03,-2.476096137739779213e+00,3.075815067645846796e-03,2.144927672919959630e-02,-2.858520318948912231e-01
2.500000000000000000e-01,3.351879679783792421e-01,3.009950911779398774e-01,9.994506081797265018e-02,5.311488967365417257e-02,-1.215387106066918577e-01,2.611517012103360463e-04,4.470592624525925127e-04,-3.513669787509981352e-03,-2.511821451968762720e+00,8.372671711479125548e-03,1.838887504910512519e-02,-2.858523186920765013e-01
5.000000000000000000e-01,3.420582149188198806e-01,2.860128169122381214e-01,9.997238102317196340e-02,5.703230132445545608e-02,-1.185122324065029792e-01,1.825650623041965626e-04,-1.285849664007892657e-03,-4.252269713978666481e-03,-2.547546266565893447e+00,6.894759563303625403e-03,6.755553572038606666e-03,-2.858539995263812417e-01
7.500000000000000000e-01,3.495115142127111496e-01,2.713247368679111982e-01,9.999123694432893172e-02,6.206394104068079648e-02,-1.167318262572382276e-01,1.240911446651424158e-04,-1.840350632207503074e-03,-3.848686054187807053e-03,-2.583275756679731305e+00,4.233258195183254267e-03,-6.645573875794823053e-03,-2.858547034020734179e-01
1.000000000000000000e+00,3.575544405931865288e-01,2.567994160380543955e-01,1.000039548787928084e-01,6.618323189574253085e-02,-1.158238130886897477e-01,8.372286108352023802e-05,-1.450616543457743275e-03,-2.309069079241207311e-03,-2.619008600842927414e+00,3.453025083355912208e-03,-1.645345050827874342e-02,-2.858521273918285810e-01
1.250000000000000000e+00,3.659670287588536186e-01,2.423433689926817181e-01,1.000127058353220272e-01,6.787819956985902126e-02,-1.155909405423313219e-01,5.931880443207082496e-05,-7.379763821605075545e-04,-7.985667524637503231e-06,-2.654740772962234985e+00,4.489795847899102910e-03,-2.007552802442373260e-02,-2.858493284483993313e-01
1.500000000000000000e+00,3.743975314698058110e-01,2.278719652340495672e-01,1.000190985831209411e-01,6.655344523595300987e-02,-1.160592920800557759e-01,4.440919628522366490e-05,-2.228737259823324155e-04,2.420663882985544038e-03,-2.690471281406362714e+00,5.537959681869809164e-03,-1.746895444415619628e-02,-2.858478849367099839e-01
1.750000000000000000e+00,3.824815923469541690e-01,2.132940620615750016e-01,1.000238638837223637e-01,6.254942440127213288e-02,-1.172636257875594307e-01,3.233754914635004839e-05,-9.730472385859552961e-05,4.294464224577358887e-03,-2.726201756421932298e+00,4.939697472796622003e-03,-1.023906938355600288e-02,-2.858452552396316682e-01
2.000000000000000000e+00,3.899462507284879864e-01,1.985258533357936173e-01,1.000271351244423901e-01,5.691311308085778703e-02,-1.190349622722628314e-01,2.047032040951036799e-05,-2.633101473211449189e-04,5.099851421265537074e-03,-2.761932864411654975e+00,2.365840763130515941e-03,-7.511042248525831100e-04,-2.858391463387208176e-01
2.250000000000000000e+00,3.966765403413108348e-01,1.835209024281379830e-01,1.000290098104998499e-01,5.105126630344145044e-02,-1.209639932517133920e-01,1.041707509695100714e-05,-5.090550093118294218e-04,4.641102383016278664e-03,-2.797663463239321580e+00,-1.134363208037208982e-03,8.475619806956389071e-03,-2.858311072073891346e-01
2.500000000000000000e+00,4.027361694014956472e-01,1.682918864776473677e-01,1.000298994245358841e-01,4.635472936245550041e-02,-1.225536207798519767e-01,4.886327556144615340e-06,-6.766285073713457568e-04,3.086304169627221775e-03,-2.833392579767743502e+00,-3.911353741895475834e-03,1.515403597330656701e-02,-2.858246651372057245e-01
2.750000000000000000e+00,4.083425218994575223e-01,1.529066186279973982e-01,1.000304220916095332e-01,4.385056189301993895e-02,-1.234515458389924963e-01,4.120381293267714272e-06,-7.370102072349594101e-04,9.129515733997860477e-04,-2.869120561060152674e+00,-4.686717806755396828e-03,1.755168801536258552e-02,-2.858214617675700064e-01
3.000000000000000000e+00,4.138026419606335438e-01,1.374575816464615463e-01,1.000310046583398199e-01,4.393156951610104749e-02,-1.236224065056673316e-01,5.123897815504101062e-06,-7.666652193246992772e-04,-1.220150257081148611e-03,-2.904848167856078689e+00,-3.171207320098275682e-03,1.481083125577653883e-02,-2.858207666693456384e-01
3.250000000000000000e+00,4.194232180281622924e-01,1.220191579309626295e-01,1.000316259842619071e-01,4.621482097696674729e-02,-1.233694354656639236e-01,4.376195785920304667e-06,-8.715774008015829020e-04,-2.637020235494553447e-03,-2.940575618630262067e+00,-1.053244120993129633e-04,7.191502832754463267e-03,-2.858225551268975817e-01
3.500000000000000000e+00,4.254135643738699568e-01,1.066125288188023296e-01,1.000319875084047100e-01,4.957019245933801804e-02,-1.232015993402231363e-01,1.290556316151625793e-06,-1.114158131144521533e-03,-2.805043447952336802e-03,-2.976303126174119296e+00,3.171924516627590111e-03,-3.898329615352839721e-03,-2.858295974939537576e-01
3.750000000000000000e+00,4.318038386260961148e-01,9.119373527418986325e-02,1.000319659485937179e-01,5.232732914387025480e-02,-1.236139134495856384e-01,-1.076353932232389361e-06,-1.477960461547569212e-03,-1.456642920915172642e-03,-3.012031926647111391e+00,5.336296355377961355e-03,-1.616965151610613716e-02,-2.858452476786102481e-01
4.000000000000000000e+00,4.383988214880935597e-01,7.566959230861762531e-02,1.000319126598408631e-01,5.262269102154996242e-02,-1.248769228446562352e-01,1.109196351079407755e-06,-1.875863446063583823e-03,1.352821860312472882e-03,-3.047763972769621077e+00,5.580641941131528512e-03,-2.697605935064284824e-02,-2.858687226460251418e-01
4.250000000000000000e+00,4.447799557751021537e-01,5.993484168931754313e-02,1.000324887105587535e-01,4.880699248463226531e-02,-1.269144123065262253e-01,8.528927268196470149e-06,-2.186350100089203951e-03,5.259880406353291925e-03,-3.083500119892876867e+00,3.835662519663545367e-03,-3.393772105350290058e-02,-2.858927341721103632e-01
4.500000000000000000e+00,4.503569415901113038e-01,4.391674022764232438e-02,1.000341325383531238e-01,3.981593626042524703e-02,-1.293042466053526407e-01,1.715623609180968971e-05,-2.296011414324655459e-03,9.671181756179335343e-03,-3.119238483835987008e+00,6.948007728997694426e-04,-3.546800226312772641e-02,-2.859064494397227651e-01
4.750000000000000000e+00,4.544585298252505901e-01,2.761210465053041269e-02,1.000428783855435988e-01,2.541902897744918732e-02,-1.313867334426014055e-01,1.105511534702120763e-04,-2.134426891125621676e-03,1.388158893303980367e-02,3.127442561647426178e+00,-2.785532422798000021e-03,-3.105434364336855796e-02,-2.776503615054524143e-01
5.000000000000000000e+00,4.564443787314467760e-01,1.110597504301374765e-02,1.000475495228310141e-01,6.311048845519093634e-03,-1.324541135377142187e-01,1.821235116317257606e-06,-1.682875042975115129e-03,1.719671709907208412e-02,3.092276820969394713e+00,-5.765987309388305102e-03,-2.125098945327125524e-02,-2.836631457955696711e-01
5.250000000000000000e+00,4.558163691540553786e-01,-5.435837024259785807e-03,1.000461564789729835e-01,-1.598254610157256658e-02,-1.319314026392794104e-01,-2.038348503952410354e-05,-9.665873552973685461e-04,1.904946311526173330e-02,3.056707099748312562e+00,-7.216679512298427787e-03,-7.502843605880368805e-03,-2.852617346686955879e-01
5.500000000000000000e+00,4.523097234659800847e-01,-2.179129485554117882e-02,1.000425935242191394e-01,-3.932017485806004603e-02,-1.295159062714816289e-01,-3.571213600735092289e-05,-7.014611749801532084e-05,1.907216757949888736e-02,3.021034112808011596e+00,-6.660711686455915263e-03,8.233643867595371105e-03,-2.856779451970886119e-01
5.750000000000000000e+00,4.459504781872155599e-01,-3.772502496635482538e-02,1.000373904424858712e-01,-6.125682282925441063e-02,-1.252919245008775606e-01,-4.575078164180251263e-05,8.964680342199511827e-04,1.714165764954412446e-02,2.985332995202890860e+00,-4.070512905229543323e-03,2.373309611581553291e-02,-2.857978969574153649e-01
6.000000000000000000e+00,4.370708960272312593e-01,-5.303803003603109467e-02,1.000316284537113021e-01,-7.939624140630507920e-02,-1.197387346197864022e-01,-4.419970047299348040e-05,1.813853271714431156e-03,1.339794667041828771e-02,2.949618396212788873e+00,1.445113150601768401e-04,3.675600760076575685e-02,-2.858574278811578107e-01
6.250000000000000000e+00,4.262803425877271235e-01,-6.761332333646746795e-02,1.000269486726735879e-01,-9.174448890780806387e-02,-1.136605350555267846e-01,-2.913838748268418800e-05,2.567514354940047313e-03,8.239103426201675739e-03,2.913891153368500131e+00,5.194514967373654174e-03,4.528053523138766967e-02,-2.859091600088130569e-01
6.500000000000000000e+00,4.143940564243639435e-01,-8.144817261509658401e-02,1.000247859057831340e-01,-9.702456959933136726e-02,-1.080468028911060335e-01,-5.589030543132216467e-06,3.060457335756866688e-03,2.289496173475230514e-03,2.878152379796183435e+00,1.001740879398565001e-02,4.777373364079502693e-02,-2.859511994889701869e-01
6.750000000000000000e+00,4.023274457494576128e-01,-9.466535892614937053e-02,1.000255757595675532e-01,-9.490831686419151647e-02,-1.038819958557766626e-01,1.626749490095722285e-05,3.224451551575556636e-03,-3.667225449522884713e-03,2.842407067366655493e+00,1.345966974531322483e-02,4.351246571231134203e-02,-2.859689948996286257e-01
7.000000000000000000e+00,3.909693602977025173e-01,-1.074990118450630250e-01,1.000284116893246783e-01,-8.611726691340765294e-02,-1.019360681268841051e-01,2.616624154244310370e-05,3.029590829212083086e-03,-8.796234682080744313e-03,2.806662946752841670e+00,1.453258487227194508e-02,3.287765586730219403e-02,-2.859542791374810600e-01
7.250000000000000000e+00,3.810535708889002393e-01,-1.202553444522750370e-01,1.000314322380449622e-01,-7.235081600913828570e-02,-1.025796031680758363e-01,1.978566738983711113e-05,2.490631590694741045e-03,-1.235324928954494375e-02,2.770926979931421119e+00,1.269892338252781583e-02,1.747942166856069485e-02,-2.859136724697962650e-01
7.500000000000000000e+00,3.730514103165933903e-01,-1.332545411009751490e-01,1.000328197320490553e-01,-5.602657052004954286e-02,-1.056725803972488748e-01,1.944075924926629546e-06,1.667901318579869362e-03,-1.383382278506549087e-02,2.735201796234819405e+00,8.097166968377571966e-03,-1.944813479635000650e-05,-2.858671179681325225e-01
7.750000000000000000e+00,3.671076370496024754e-01,-1.467657506180930771e-01,1.000318441111950757e-01,-3.986300632865847487e-02,-1.105664020433598654e-01,-1.591471423611026488e-05,6.609179625471648181e-04,-1.309035909487245124e-02,2.699484327775270920e+00,1.599054198123587341e-03,-1.641711572297167507e-02,-2.858373703626906348e-01
8.000000000000000000e+00,3.630345503249708949e-01,-1.609505456763856701e-01,1.000292494122935194e-01,-2.638428928870920412e-02,-1.162323420386256190e-01,-2.301354314094920309e-05,-4.056998536089511352e-04,-1.037717861120911710e-02,2.663767671202923903e+00,-5.360091973272052349e-03,-2.871706057986535623e-02,-2.858368678879917857e-01
8.250000000000000000e+00,3.603669466507244956e-01,-1.758294839133498766e-01,1.000266797218485881e-01,-1.746100173839204919e-02,-1.214920269851544332e-01,-1.630007836318846269e-05,-1.402416931755505946e-03,-6.301139910831414503e-03,2.628045133149139012e+00,-1.115321834149623180e-02,-3.488030494103387669e-02,-2.858607368585894259e-01
8.500000000000000000e+00,3.584658232247934229e-01,-1.912809940403920050e-01,1.000255454363551261e-01,-1.400154473756462341e-02,-1.252907237771161419e-01,-1.884302175665102824e-06,-2.217443643331688634e-03,-1.684301466383591279e-03,2.592313899655619647e+00,-1.442472498240743306e-02,-3.433246507312755214e-02,-2.858908251909658693e-01
8.750000000000000000e+00,3.566464373341377003e-01,-2.070730605158071780e-01,1.000261590962692460e-01,-1.587138490410529290e-02,-1.269371305256738747e-01,1.015247756783409308e-05,-2.776765963734658966e-03,2.625771254205917435e-03,2.556576047361169834e+00,-1.449125257462366596e-02,-2.805112794119686559e-02,-2.859077175133276638e-01
9.000000000000000000e+00,3.543007199055262513e-01,-2.229188991415584353e-01,1.000277275550025130e-01,-2.205212480208350312e-02,-1.262414503447396585e-01,1.316426359169785272e-05,-3.056238821993975674e-03,5.945400839184072916e-03,2.520836561234153894e+00,-1.154287604513223355e-02,-1.821125586001084984e-02,-2.859020492710538930e-01
9.250000000000000000e+00,3.509870728977825816e-01,-2.385410707130751207e-01,1.000290842077545261e-01,-3.098388643084472663e-02,-1.235140980745589590e-01,7.703735973738953639e-06,-3.082228002809761763e-03,7.892460889237500055e-03,2.485100086841642852e+00,-6.575118521573662320e-03,-7.520419516674352149e-03,-2.858778071761128858e-01
9.500000000000000000e+00,3.464710218271161990e-01,-2.537264775273851414e-01,1.000295081419041998e-01,-4.098711646706613282e-02,-1.194300998629551913e-01,-5.663666316375085117e-07,-2.920594133786171259e-03,8.438593431663945349e-03,2.449368692254864310e+00,-1.075576039436828982e-03,1.531254348987073520e-03,-2.858470572357707518e-01
9.750000000000000000e+00,3.407143696730021709e-01,-2.683580292339577400e-01,1.000290369082265513e-01,-5.064758008994806743e-02,-1.148046291512308525e-01,-6.028477102522031610e-06,-2.657292030147262625e-03,7.868982167856124893e-03,2.413641720403676416e+00,3.429058755369772393e-03,7.277210798506537903e-03,-2.858215468309417417e-01
1.000000000000000000e+01,3.338238742142065063e-01,-2.824162612650999438e-01,1.000281913092055386e-01,-5.907120680333513563e-02,-1.103499363982657494e-01,-6.746122627635321834e-06,-2.376202674704010545e-03,6.668744782132409940e-03,2.377917128174259265e+00,5.820241778702400608e-03,9.180342933831919100e-03,-2.858072786728581560e-01
1.025000000000000000e+01,3.259792752230180612e-01,-2.959533572254119393e-01,1.000274857113747362e-01,-6.596234615818398483e-02,-1.064860986090921668e-01,-4.332597897164625220e-06,-2.140282070611567670e-03,5.372534455196920945e-03,2.342192944007242428e+00,5.695589986793034472e-03,7.793553290304662193e-03,-2.858041999799604271e-01
1.050000000000000000e+01,3.173628047231075167e-01,-3.090500121472134487e-01,1.000271392674283305e-01,-7.153285076389888364e-02,-1.032584262849070011e-01,-1.392766101113551743e-06,-1.980685268927836421e-03,4.419194702579890520e-03,2.306467953741445864e+00,3.456230383371464154e-03,4.436399172438099982e-03,-2.858089427169016039e-01
1.075000000000000000e+01,3.081083555572582400e-01,-3.217700882931964768e-01,1.000271070890033920e-01,-7.629367713651213911e-02,-1.003805566313506759e-01,6.200386346165489892e-07,-1.895850159811296714e-03,4.046846819274476162e-03,2.270741662888539736e+00,1.629854202663892746e-04,7.192300460035185505e-04,-2.858174364758017671e-01
1.100000000000000000e+01,2.982802519320036927e-01,-3.341279790656102033e-01,1.000272571228975338e-01,-8.080426991040462470e-02,-9.738529663370470990e-02,1.599536702752600674e-06,-1.859604498591053805e-03,4.249290245989736578e-03,2.235014063055507094e+00,-2.783100199820107232e-03,-1.934222829843602453e-03,-2.858259753167368689e-01
1.125000000000000000e+01,2.878819383814100186e-01,-3.460793335316473263e-01,1.000274746134303672e-01,-8.545469384604958973e-02,-9.383593795296213402e-02,1.728920079381212228e-06,-1.835105954472146571e-03,4.797234457259497674e-03,2.199285529719020804e+00,-4.038576375843619566e-03,-2.641491508200310544e-03,-2.858314112342453250e-01
1.150000000000000000e+01,2.768866577400663220e-01,-3.575387728083004868e-01,1.000276437457778278e-01,-9.033552106866982179e-02,-8.953627343984980891e-02,8.047870859155655981e-07,-1.790348015026404583e-03,5.312559563589300780e-03,2.163556759455369072e+00,-2.687136338113630535e-03,-1.223861368873997236e-03,-2.858315920852904646e-01
1.175000000000000000e+01,2.652772446924178129e-01,-3.684204972070824757e-01,1.000276192107523443e-01,-9.521961285967411870e-02,-8.468001742678532562e-02,-1.288699164500013690e-06,-1.711110509395014512e-03,5.373766395796298820e-03,2.127828537780546370e+00,1.506329165152637270e-03,1.831644876641828467e-03,-2.858261186072851290e-01
1.200000000000000000e+01,2.530812480712930079e-01,-3.786912345544194980e-01,1.000272990190976263e-01,-9.964789133519871833e-02,-7.989717395723767990e-02,-3.657368984408914532e-06,-1.608318733358122784e-03,4.627170544813945588e-03,2.092101383838086193e+00,8.007075086366815392e-03,5.569288489132466664e-03,-2.858165222214477663e-01
1.225000000000000000e+01,2.403903160840701880e-01,-3.884212666306037232e-01,1.000267701368838802e-01,-1.030859454335856101e-01,-7.618042856440750132e-02,-4.312907934690620705e-06,-1.518370036184001548e-03,2.880640886961304600e-03,2.056375392698127857e+00,1.559447106628473675e-02,8.849868669618642103e-03,-2.858052299206685354e-01
1.250000000000000000e+01,2.273579437585020180e-01,-3.978189438761970953e-01,1.000263747727879599e-01,-1.051045491272009497e-01,-7.470213280917230303e-02,-1.456864604835040981e-06,-1.496660562062860798e-03,1.629606988887434256e-04,2.020650529979715504e+00,2.259059327609615891e-02,1.064749690410000081e-02,-2.857939194702542873e-01
1.275000000000000000e+01,2.141757532021885402e-01,-4.072370121576469049e-01,1.000265656495930994e-01,-1.055359018633646312e-01,-7.655613901238242369e-02,4.676661530935748261e-06,-1.605947483517439775e-03,-3.260327678603242105e-03,1.984927218818670847e+00,2.718611677977503596e-02,1.029445454848415195e-02,-2.857828092919921237e-01
1.300000000000000000e+01,2.010339980326294185e-01,-4.171445029924329972e-01,1.000275798952526413e-01,-1.045666079033064633e-01,-8.247515547226853816e-02,1.099025974482142049e-05,-1.902082526020104462e-03,-6.916625510292205223e-03,1.949206646275442489e+00,2.781086611015355300e-02,7.633061419941171259e-03,-2.857720333398290902e-01
1.325000000000000000e+01,1.880758692386761133e-01,-4.280648723557461399e-01,1.000291409375443086e-01,-1.027444923293858725e-01,-9.258217142549721168e-02,1.281473010638972668e-05,-2.419966557138538820e-03,-1.019775487928052844e-02,1.913490213926866801e+00,2.349392696789122728e-02,3.054442961369553938e-03,-2.857645897463519935e-01
1.350000000000000000e+01,1.753568122401633345e-01,-4.404884169408205818e-01,1.000304493032348474e-01,-1.008956574457317151e-01,-1.062333872615125185e-01,6.980829131861086117e-06,-3.162380179682405465e-03,-1.246404012717080428e-02,1.877778095369708300e+00,1.415106208941257528e-02,-2.579698278762850971e-03,-2.857685523840843844e-01
1.375000000000000000e+01,1.628192431462644751e-01,-4.547735720398222714e-01,1.000305761164174134e-01,-9.996768242019545003e-02,-1.219990124706711310e-01,-5.207496297179600761e-06,-4.093840270580543714e-03,-1.316584506997802925e-02,1.842067657318607665e+00,7.299354539736633727e-04,-8.121086503745699250e-03,-2.857957626599182954e-01
1.400000000000000000e+01,1.502899252502372662e-01,-4.710561734896050456e-01,1.000290902856723757e-01,-1.008318842339463312e-01,-1.378060752306212444e-01,-1.747214242467543479e-05,-5.140993424139361605e-03,-1.196144992243983185e-02,1.806352990279772364e+00,-1.484802667067158972e-02,-1.239425036524856825e-02,-2.858559335833367188e-01
1.425000000000000000e+01,1.375023319125194821e-01,-4.891867815266882635e-01,1.000265150907179296e-01,-1.040891010133593864e-01,-1.512350566989577594e-01,-2.167070530958347736e-05,-6.200244543997333879e-03,-8.806703952834300103e-03,1.770626483376068983e+00,-2.997541785463964450e-02,-1.447854447305614058e-02,-2.859484346471264371e-01
1.450000000000000000e+01,1.241404862735586145e-01,-5.087127661830592729e-01,1.000242236465068713e-01,-1.099260498428548394e-01,-1.599253616713733339e-01,-1.313994864798530106e-05,-7.152120094957585723e-03,-3.993637883676123129e-03,1.734882226188965149e+00,-4.184748421754921205e-02,-1.394391629646564434e-02,-2.860568624439691621e-01
1.475000000000000000e+01,1.098953429138860849e-01,-5.289140654689034049e-01,1.000237067546095732e-01,-1.180602905723629331e-01,-1.620127226636689510e-01,5.223529767463855707e-06,-7.880310151103615476e-03,1.876923656453693664e-03,1.699119640442029899e+00,-4.806471685419880929e-02,-1.097275021302179798e-02,-2.861513481319173380e-01
1.500000000000000000e+01,9.452122893735154241e-02,-5.488905940345032430e-01,1.000256044799640170e-01,-1.277915789687217862e-01,-1.565041749156081963e-01,2.349953346455315774e-05,-8.291914865979526858e-03,7.990742817133010892e-03,1.663345126365070925e+00,-4.721629423952510701e-02,-6.323493340304280758e-03,-2.861995913562750959e-01
1.525000000000000000e+01,7.787935365662429499e-02,-5.676874885488667477e-01,1.000291500593636501e-01,-1.381502608096215334e-01,-1.435000774474448626e-01,3.038001252006285088e-05,-8.334741477320477959e-03,1.346962604154054895e-02,1.627570315590244787e+00,-3.928968657912718793e-02,-1.133671162929203707e-03,-2.861818462174274824e-01
1.550000000000000000e+01,5.995833828208502192e-02,-5.844345991957117237e-01,1.000324805926619542e-01,-1.481066282180123761e-01,-1.242002262813895752e-01,2.052164736150420771e-05,-8.007824482054198834e-03,1.754547897793350825e-02,1.591807461267687573e+00,-2.576926340775905280e-02,3.390249168545288530e-03,-2.861014305506217048e-01
1.575000000000000000e+01,4.086752729585318294e-02,-5.984716914504244478e-01,1.000336918117554069e-01,-1.567870259832414293e-01,-1.006790477979422060e-01,-1.600872533138038409e-06,-7.362553500801716916e-03,1.971881247372812146e-02,1.556064347058028652e+00,-9.353742226596992865e-03,6.307139293690641919e-03,-2.859839913837080028e-01
1.600000000000000000e+01,2.080599260629162686e-02,-6.094326671606933310e-01,1.000319586265562832e-01,-1.636395025715246809e-01,-7.547294140463016443e-02,-2.441422089379045225e-05,-6.493618972518233959e-03,1.986070722219581558e-02,1.520341513652879284e+00,6.668000519571906648e-03,7.194930397433798100e-03,-2.858654460755107873e-01
1.625000000000000000e+01,1.653765978250636062e-05,-6.172710142467006111e-01,1.000279640328647912e-01,-1.685061620714069508e-01,-5.107483167475036778e-02,-3.671979577628720374e-05,-5.521169426366513526e-03,1.822911855091243621e-02,1.484633167462029224e+00,1.922436471963522367e-02,6.239901122046450158e-03,-2.857757861904148267e-01
1.650000000000000000e+01,-2.126234178621552728e-02,-6.222227292599763482e-01,1.000233799474018331e-01,-1.715873960990044467e-01,-2.945926354902868652e-02,-3.440546384243752919e-05,-4.567781742444003770e-03,1.539327705027132911e-02,1.448930822364560500e+00,2.621516330802490732e-02,4.131596707847020114e-03,-2.857282411434248215e-01
1.675000000000000000e+01,-4.283385956521898463e-02,-6.247183008552620320e-01,1.000198339691430877e-01,-1.733160350150165507e-01,-1.175412087518575011e-02,-2.167559198470376175e-05,-3.735477068062743877e-03,1.208684427835034908e-02,1.413227220216756175e+00,2.698025413626073399e-02,1.802451893002309739e-03,-2.857188594949393590e-01
1.700000000000000000e+01,-6.456111863681479601e-02,-6.252674177993974292e-01,1.000181093809450750e-01,-1.741860823314018425e-01,1.867633447048815121e-03,-6.697123961066512203e-06,-3.088296017972219556e-03,9.031621749940743279e-03,1.377518406499999903e+00,2.234422801424769053e-02,1.082951636444873304e-04,-2.857341767604296145e-01
1.725000000000000000e+01,-8.636396889351229123e-02,-6.243451894669029834e-01,1.000180361452136513e-01,-1.745916164415413918e-01,1.206737273642765479e-02,4.199081697846093746e-06,-2.644466984101063491e-03,6.780826078380279044e-03,1.341803512933067877e+00,1.424719668653930994e-02,-4.348010085247219032e-04,-2.857602324743108713e-01
1.750000000000000000e+01,-1.081990361493811725e-01,-6.223055078655265193e-01,1.000189485080993645e-01,-1.747229104182085047e-01,2.004649094770587225e-02,9.363305046933927180e-06,-2.379408168060965275e-03,5.621600139556063788e-03,1.306083336119399974e+00,5.112318087440419732e-03,2.290001846348951376e-04,-2.857874987700321778e-01
1.775000000000000000e+01,-1.300318783953846313e-01,-6.193372985384332230e-01,1.000202273449109502e-01,-1.745431497592517811e-01,2.717481076105742951e-02,1.062805866450062265e-05,-2.237792195939841775e-03,5.554728591082259623e-03,1.270359108881036203e+00,-2.824798102864806409e-03,1.740478515588795346e-03,-2.858109388272944695e-01
1.800000000000000000e+01,-1.518113002864099059e-01,-6.154665308115866429e-01,1.000215443575002555e-01,-1.738407205400094024e-01,3.464509361062508008e-02,1.032048174502622146e-05,-2.150728492481600394e-03,6.344330889193607222e-03,1.234632077942670714e+00,-8.016491790366684148e-03,3.493495310641643158e-03,-2.858279570853724527e-01
1.825000000000000000e+01,-1.734536935442605454e-01,-6.105952834678946006e-01,1.000227783683500099e-01,-1.723300336033651570e-01,4.323184665465156645e-02,9.331892027859961582e-06,-2.053340491617142247e-03,7.611152683133529280e-03,1.198903588356774907e+00,-9.817175811752683334e-03,4.845836298367754182e-03,-2.858371005353541605e-01
1.850000000000000000e+01,-1.948411677898555516e-01,-6.045620990554688712e-01,1.000238255906411716e-01,-1.697649551051350070e-01,5.318915830904747538e-02,7.255871298545875596e-06,-1.898636267955073698e-03,8.936169753837173990e-03,1.163175090142790413e+00,-8.415891429581382616e-03,5.295804132768682643e-03,-2.858382159881138196e-01
1.875000000000000000e+01,-2.158329033108972173e-01,-5.972064152614842136e-01,1.000245150694751006e-01,-1.660331654511445210e-01,6.427883740076043018e-02,3.645279807871353146e-06,-1.665184846492040417e-03,9.947060139102088111e-03,1.127447819930340378e+00,-4.586941391171417068e-03,4.582268444918048168e-03,-2.858329838603517192e-01
1.900000000000000000e+01,-2.362859343528165845e-01,-5.884230148078068989e-01,1.000246734936668103e-01,-1.612118703142570997e-01,7.589130418244029175e-02,-1.039098634965485689e-06,-1.358088624263132640e-03,1.037378881203682504e-02,1.091722361654907436e+00,6.087028196930233375e-04,2.708174079630243630e-03,-2.858246642498245005e-01
1.925000000000000000e+01,-2.560799890250904931e-01,-5.781978983802152916e-01,1.000242479811991742e-01,-1.555783422701960961e-01,8.721290372273404756e-02,-5.438640150516923948e-06,-1.004443305330796066e-03,1.007357941271206161e-02,1.055998439668290878e+00,6.069658445691884785e-03,-8.612646199165055114e-05,-2.858168983691556919e-01
1.950000000000000000e+01,-2.751408503865705457e-01,-5.666224438638621796e-01,1.000233762925306497e-01,-1.495781280787792100e-01,9.740028093455137259e-02,-8.014691903805244217e-06,-6.454476594586545154e-04,9.033659636422435024e-03,1.020275119129568919e+00,1.081252827988863317e-02,-3.373178007014651127e-03,-2.858122593044849502e-01
1.975000000000000000e+01,-2.934574206689039566e-01,-5.538868048621655715e-01,1.000223538483186042e-01,-1.437588343149693304e-01,1.057354634716860808e-01,-7.881213797878797528e-06,-3.274442807037678243e-04,7.360308128743994066e-03,9.845513100057233791e-01,1.406536030384025748e-02,-6.603989432976291318e-03,-2.858113625753973541e-01
2.000000000000000000e+01,-3.110888728559388916e-01,-5.402560732302926771e-01,1.000215159757943395e-01,-1.386806624410506783e-01,1.117455974256565399e-01,-5.282758216585239308e-06,-9.365592502380088108e-05,5.257651765328255102e-03,9.488263010806849973e-01,1.533831292746470377e-02,-9.197128665534818823e-03,-2.858129522393965116e-01
2.025000000000000000e+01,-3.281599130856007185e-01,-5.260343915822355276e-01,1.000210965302734123e-01,-1.348188328909464273e-01,1.152758035237875511e-01,-1.497409552788373562e-06,2.235923411667709170e-05,2.994824497177927397e-03,9.131000538316315085e-01,1.449056608390228776e-02,-1.065745556713744088e-02,-2.858148752199418108e-01
2.050000000000000000e+01,-3.448443701577904030e-01,-5.115235250648799692e-01,1.000211354371189632e-01,-1.324775941379537636e-01,1.165054861734488023e-01,1.802312871131567810e-06,1.096898754828792267e-06,8.601265742119562066e-04,8.773731243053326523e-01,1.177125530391461700e-02,-1.070736206024737631e-02,-2.858154351140724247e-01
2.075000000000000000e+01,-3.613399621609615919e-01,-4.969833475939544609e-01,1.000214853176092655e-01,-1.317373744278717007e-01,1.159034030698063295e-01,3.412025623808180808e-06,-1.608242432372368068e-04,-8.934239476343961523e-04,8.416462796457703233e-01,7.787839233969649604e-03,-9.384978067465814602e-03,-2.858143802241869258e-01
2.100000000000000000e+01,-3.778395472775440966e-01,-4.826016132413541992e-01,1.000219123993343062e-01,-1.324515807319704419e-01,1.141282322186078224e-01,3.163152906835435059e-06,-4.510167921046253736e-04,-2.098741334019207580e-03,8.059200417964791363e-01,3.369466494496234539e-03,-7.053467649220700533e-03,-2.858129197330963045e-01
2.125000000000000000e+01,-3.945054305353084545e-01,-4.684785444640151564e-01,1.000222266662884607e-01,-1.342959086975812621e-01,1.118970116673888293e-01,1.816958384844189405e-06,-8.440966596019342872e-04,-2.704465914434293558e-03,7.701944256154974466e-01,-6.588549186092764864e-04,-4.288568151137637542e-03,-2.858127636178997011e-01
2.150000000000000000e+01,-4.114524543340498663e-01,-4.546280759467542509e-01,1.000223586819783267e-01,-1.368540970587072136e-01,1.098565336712490903e-01,4.023935688035430112e-07,-1.306504606384832319e-03,-2.769970906436096825e-03,7.344690010178714923e-01,-3.720871185242316005e-03,-1.663457798459555114e-03,-2.858149125855475869e-01
2.175000000000000000e+01,-4.287424570873717422e-01,-4.409929445472426379e-01,1.000223469518229102e-01,-1.397076346765860067e-01,1.084946088464514430e-01,-4.482029679172297103e-07,-1.802405861172137053e-03,-2.422923178467033690e-03,6.987431815717641825e-01,-5.655153701689877646e-03,4.933479546232644349e-04,-2.858191597845293752e-01
2.200000000000000000e+01,-4.463881351243544904e-01,-4.274668769438964566e-01,1.000222704512177818e-01,-1.424917697665404881e-01,1.081153561288861475e-01,-6.831941394784716513e-07,-2.299117286904077146e-03,-1.791920819303851773e-03,6.630164958064604930e-01,-6.725818499751676401e-03,2.261267244664693418e-03,-2.858247089923734441e-01
2.225000000000000000e+01,-4.643601787134866710e-01,-4.139155794922914078e-01,1.000221915183812788e-01,-1.448912345243318078e-01,1.088787047837237454e-01,-5.401195660628027904e-07,-2.770342504140397687e-03,-9.389530719387308719e-04,6.272886457096307211e-01,-7.462884921697364622e-03,4.123342451116352933e-03,-2.858313936437856251e-01
2.250000000000000000e+01,-4.825897418278292661e-01,-4.001899122587641022e-01,1.000221470618722908e-01,-1.465742065031251651e-01,1.108786232329143917e-01,-1.315388426927536318e-07,-3.196017542146158911e-03,1.803531388992726575e-04,5.915593494178496003e-01,-8.391275571804903896e-03,6.767122530900645909e-03,-2.858404646297989515e-01
2.275000000000000000e+01,-5.009600710886322750e-01,-3.861290079553747479e-01,1.000221835200884313e-01,-1.470930450088197006e-01,1.142184336888488472e-01,8.216024569923054641e-07,-3.558759689445838842e-03,1.708666472058668158e-03,5.558281483291631631e-01,-9.757900833425099674e-03,1.074399312330509906e-02,-2.858541525057866628e-01
2.300000000000000000e+01,-5.192862831848741312e-01,-3.715564396132315927e-01,1.000224110364382329e-01,-1.458028850112821906e-01,1.190424389156578278e-01,3.027316796437802694e-06,-3.838386287682149858e-03,3.827463018950432068e-03,5.200944233157984709e-01,-1.137064796433857189e-02,1.610610471113092454e-02,-2.858739322549014306e-01
2.325000000000000000e+01,-5.372891865546628454e-01,-3.562766163146338649e-01,1.000230400599930458e-01,-1.418537732149612318e-01,1.255013352459025955e-01,7.275257941030831404e-06,-4.007117621285119849e-03,6.661602092308160222e-03,4.843577928225126783e-01,-1.262134381622354029e-02,2.216571237729880392e-02,-2.858982205277685873e-01
2.350000000000000000e+01,-5.545750873940226144e-01,-3.400795965261591003e-01,1.000243365952020180e-01,-1.342942862231226719e-01,1.336577244054895364e-01,1.348729913943958805e-05,-4.028330715833717060e-03,1.017865998835493398e-02,4.486188585563805065e-01,-1.269491914865748285e-02,2.749686457781232163e-02,-2.859209155178374373e-01
2.375000000000000000e+01,-5.706360518953571548e-01,-3.227598213152458873e-01,1.000264319485993508e-01,-1.222879938548745438e-01,1.433663850519467930e-01,1.948146255818023726e-05,-3.860833869396401805e-03,1.411982396783451749e-02,4.128799310656646182e-01,-1.089474034389611816e-02,3.022803801998878021e-02,-2.859324473156660829e-01
2.400000000000000000e+01,-5.848823974281078808e-01,-3.041486920812504491e-01,1.000290240599980146e-01,-1.053995740311736984e-01,1.541805992698704886e-01,2.070798696857054777e-05,-3.468782534900411840e-03,1.799341977310438614e-02,3.771450602747059566e-01,-6.965015834460728562e-03,2.857481147263147420e-02,-2.859241736335498829e-01
2.425000000000000000e+01,-5.967112192022500095e-01,-2.841544436335102786e-01,1.000311878681584277e-01,-8.387010116557849781e-02,1.653334574584223171e-01,1.231998419812492323e-05,-2.835144461214981083e-03,2.114518876404672051e-02,3.414187710473321480e-01,-1.283911802950715893e-03,2.146416897494049861e-02,-2.858946747903173824e-01
2.450000000000000000e+01,-6.056034297518870790e-01,-2.627978837260984135e-01,1.000315899602588626e-01,-5.878593999877224086e-02,1.758211167214000226e-01,-6.777376815942331748e-06,-1.974806811812233279e-03,2.289542243352611292e-02,3.057036370039741824e-01,5.158901616387358280e-03,9.042407560479892234e-03,-2.858539062009114451e-01
2.475000000000000000e+01,-6.112305535913283849e-01,-2.402313681106383048e-01,1.000291897465213492e-01,-3.206202156343308102e-02,1.845801847502227533e-01,-3.079868534705764132e-05,-9.426859384959105064e-04,2.270934172200727436e-02,2.699979367331071800e-01,1.100955996501704580e-02,-7.130700994090794290e-03,-2.858208300488539466e-01
2.500000000000000000e+01,-6.135453668554559092e-01,-2.167317185072235031e-01,1.000240715899972238e-01,-6.207077564202559752e-03,1.907158639138100964e-01,-4.841338925625437127e-05,1.670084030080736740e-04,2.035236938893393924e-02,2.342952093846259742e-01,1.494488930967409653e-02,-2.430849948625281656e-02,-2.858138042419002267e-01
2.525000000000000000e+01,-6.128305013363720688e-01,-1.926648765505434013e-01,1.000177642640980302e-01,1.609708746965864135e-02,1.937147520128337519e-01,-4.914995374926320044e-05,1.231871654181204484e-03,1.598269445725403193e-02,1.985867170495626000e-01,1.607734711443519274e-02,-3.916883049599068772e-02,-2.858388468476876776e-01
2.550000000000000000e+01,-6.096872255735945600e-01,-1.684286199530211359e-01,1.000126301583769972e-01,3.250952873090470763e-02,1.935760570573138994e-01,-3.086767196274221837e-05,2.121075540460146298e-03,1.015056744935518944e-02,1.628658531296228174e-01,1.422683009158658834e-02,-4.863677377587823092e-02,-2.858840263891471722e-01
2.575000000000000000e+01,-6.049608073704170197e-01,-1.443866400703378294e-01,1.000105798059101742e-01,4.150997069174866549e-02,1.908186029106837822e-01,-2.369372186038858307e-06,2.719295709821229184e-03,3.700975244357829555e-03,1.271318524503017855e-01,9.968082996638684412e-03,-5.067340997781782930e-02,-2.859250683389722436e-01
2.600000000000000000e+01,-5.996149293944067482e-01,-1.208102048487724178e-01,1.000119523608596350e-01,4.272130604500062184e-02,1.863595063954001652e-01,2.158226820602843584e-05,2.948958852527166271e-03,-2.396221296428730982e-03,9.139026853148658758e-02,4.445913104259818782e-03,-4.480154473823396571e-02,-2.859394816183329913e-01
2.625000000000000000e+01,-5.945807342362701142e-01,-9.784155817412237832e-02,1.000153630795166948e-01,3.699208307240635374e-02,1.812993634514351304e-01,2.962483984789668169e-05,2.785469302476531721e-03,-7.245482020125095304e-03,5.564973257503319504e-02,-9.707333899610162686e-04,-3.222448792009652285e-02,-2.859200343530727828e-01
2.650000000000000000e+01,-5.906124921360226265e-01,-7.548697392117180438e-02,1.000186352667355588e-01,2.621912685955047131e-02,1.766750006960978170e-01,2.071949488199890168e-05,2.261959007838322891e-03,-1.020449719681400767e-02,1.991703036269354410e-02,-5.077401695009424627e-03,-1.551313919688678857e-02,-2.858785020628653584e-01
2.675000000000000000e+01,-5.881800141987848507e-01,-5.363913781149887150e-02,1.000201478057897164e-01,1.295685937141384178e-02,1.732468451062094683e-01,3.732681601092904613e-06,1.462669603770022902e-03,-1.100005806834207164e-02,-1.580637240324050952e-02,-7.142785659834384633e-03,2.042855956971758452e-03,-2.858374377488245299e-01
2.700000000000000000e+01,-5.874185314134178215e-01,-3.212089681051401302e-02,1.000196702532893528e-01,-8.828343202666193070e-05,1.713733920238958153e-01,-9.486406016118272206e-06,5.066611591580962547e-04,-9.755913364046615507e-03,-5.152434680787257998e-02,-7.050754118394113312e-03,1.723306949981263589e-02,-2.858160612691297287e-01
2.725000000000000000e+01,-5.881425845691650167e-01,-1.073762842824982182e-02,1.000182030901478891e-01,-1.055611910252302055e-02,1.709962274323483522e-01,-1.197920336311101048e-05,-4.744047092761606381e-04,-6.931355890226734498e-03,-8.724306343330137659e-02,-5.249894321274392248e-03,2.765186560949349850e-02,-2.858198689471742049e-01
2.750000000000000000e+01,-5.899154657401992630e-01,1.067528909564478649e-02,1.000170898544516518e-01,-1.681100269605913938e-02,1.717258419713030004e-01,-4.952715590592536861e-06,-1.359545391133070357e-03,-3.192217534239640605e-03,-1.229671864533021658e-01,-2.547460069762843594e-03,3.216243613832657500e-02,-2.858399722664790032e-01
2.775000000000000000e+01,-5.921539240456296094e-01,3.222036494995691308e-02,1.000171178768841512e-01,-1.812631496868088304e-02,1.729917804057664321e-01,4.908632959450209574e-06,-2.057906929823196708e-03,7.483992437648666514e-04,-1.586976861063668920e-01,1.715713483735537741e-04,3.099760583401923661e-02,-2.858609013107247798e-01
2.800000000000000000e+01,-5.942421285599346348e-01,5.392615187566116020e-02,1.000181857191995843e-01,-1.465701104977519369e-02,1.742078705531208138e-01,1.097629305811859082e-05,-2.520488370082542284e-03,4.278133928531402744e-03,-1.944321835504281004e-01,2.205896037054224865e-03,2.550831832227251628e-02,-2.858704054197493405e-01
2.825000000000000000e+01,-5.956302680581818665e-01,7.575446934872605287e-02,1.000196017217066524e-01,-7.237128833095181173e-03,1.749064688404730061e-01,1.066984874007431283e-05,-2.742166152024526089e-03,6.988323183011046699e-03,-2.301669906202493399e-01,3.202693720313052640e-03,1.767139916093830518e-02,-2.858649593100254238e-01
2.850000000000000000e+01,-5.959004844494762976e-01,9.762067656534974269e-02,1.000206468888639871e-01,2.922700980743985887e-03,1.748118754205448822e-01,5.740246655609570704e-06,-2.754514733558573701e-03,8.714461583720042523e-03,-2.658992204254603253e-01,3.190189632054829440e-03,9.525620143055650926e-03,-2.858489763000776618e-01
2.875000000000000000e+01,-5.947932812284311144e-01,1.194186760891597643e-01,1.000209749602420928e-01,1.455068556776219386e-02,1.738455455153427864e-01,-1.638593397082782010e-07,-2.612204416717704963e-03,9.515911399565455536e-03,-3.016278019640954433e-01,2.491502236222513812e-03,2.701813580355287656e-03,-2.858301494022894573e-01
2.900000000000000000e+01,-5.921977830568424528e-01,1.410427979027673862e-01,1.000206673512967215e-01,2.656882045236491630e-02,1.720763600927472103e-01,-4.171451378051105114e-06,-2.377087889686952098e-03,9.612077444877154334e-03,-3.373532625987502032e-01,1.569599418459980290e-03,-1.846355363164715576e-03,-2.858148287880808991e-01
2.925000000000000000e+01,-5.881165483689079210e-01,1.624012901032910738e-01,1.000200404443242347e-01,3.824430455217105868e-02,1.696418540922603191e-01,-5.374366137946516158e-06,-2.104087187990879952e-03,9.299427748086560447e-03,-3.730768808680475779e-01,8.635308340679777100e-04,-3.889187891866757209e-03,-2.858058570722796787e-01
2.950000000000000000e+01,-5.826187787123711104e-01,1.834196470261842682e-01,1.000194133399584240e-01,4.922867333645224164e-02,1.666688747483402733e-01,-4.431719103329595565e-06,-1.831822426804833107e-03,8.871986873795718181e-03,-4.087998944227126397e-01,6.626914701745443463e-04,-3.794706019360464307e-03,-2.858028990958880744e-01
2.975000000000000000e+01,-5.758808853369428160e-01,2.038505502945352765e-01,1.000240697428226577e-01,5.674898065911833378e-02,1.573142180215231500e-01,1.392757551928167396e-04,1.678449471183986533e-02,8.216361679950970678e-03,-4.164926289010900673e-01,2.328295543489476149e-01,-1.119409186327339073e-01,1.130868873294292448e-01
3.000000000000000000e+01,-5.690763439077456409e-01,2.212777444271759597e-01,1.000759469554827891e-01,4.951745879606523487e-02,1.166331800087185150e-01,6.443915794691653775e-04,5.010834789522847915e-02,6.737206842665054846e-03,-3.922949445982366612e-01,2.110088060683781297e-01,-1.036527357881622119e-01,2.387972091699667732e-01
3.025000000000000000e+01,-5.641377217689631518e-01,2.314450667176255194e-01,1.001462936637509960e-01,2.873472239714075505e-02,4.482800283417933546e-02,2.984718624922547223e-04,6.846303310269682973e-02,4.739282765235722054e-03,-3.597181926981982136e-01,4.509063865973150786e-02,-3.328739979689505912e-02,2.725062229436582828e-01
3.050000000000000000e+01,-5.620982675872393530e-01,2.318247518243440053e-01,1.001235072140658350e-01,5.177786122717838689e-03,-3.522936540250094783e-02,-5.983973568867614326e-04,6.324745620048738415e-02,3.373313782214486505e-03,-3.249403182143365543e-01,-1.154650909992154667e-01,3.308564966296446280e-02,2.820051489763102381e-01
3.075000000000000000e+01,-5.626243384104921974e-01,2.230036188682123222e-01,1.000265117641169765e-01,-1.133789784340450725e-02,-9.974704219128660565e-02,-7.866702461629765603e-04,4.216967278872167657e-02,3.542619016695880679e-03,-2.895434535387906849e-01,-1.853795229366728692e-01,6.328767263052588465e-02,2.848319069102500656e-01
3.100000000000000000e+01,-5.645086977497897340e-01,2.078206358224517769e-01,9.995605720544423201e-02,-1.678099649706552704e-02,-1.372942066553267948e-01,-3.125692766574040258e-04,1.854178435850462395e-02,5.069511660485741256e-03,-2.539688856052261801e-01,-1.601248011779025926e-01,5.716247541320860354e-02,2.857658881812374374e-01
3.125000000000000000e+01,-5.664222850085475214e-01,1.895993016609438253e-01,9.994570204206268405e-02,-1.272114594103879864e-02,-1.505238958718562170e-01,7.860303435005413868e-05,2.289333819347843645e-03,6.845097605760582828e-03,-2.183186920567696254e-01,-8.478324066057267572e-02,3.085558857493224394e-02,2.860964164275522914e-01
3.150000000000000000e+01,-5.674521406993368045e-01,1.707346333475116829e-01,9.996272264735821256e-02,-3.636743071396242658e-03,-1.500386373646056537e-01,1.508767486801296752e-04,-3.632184795912082875e-03,7.590536294996269757e-03,-1.825954911880345866e-01,-1.184078469386985917e-02,1.794148223182621005e-03,2.861206088223914312e-01
3.175000000000000000e+01,-5.672786575383631513e-01,1.522107439600690060e-01,9.997868099583286094e-02,5.839471582809293605e-03,-1.466700178944737032e-01,1.036522624300632926e-04,-1.978221414895939279e-03,6.584218430745305932e-03,-1.468268091634514771e-01,2.749870064876122969e-02,-1.930583014092596833e-02,2.859847448497036537e-01
3.200000000000000000e+01,-5.660788106275974618e-01,1.339269569929885384e-01,9.998949660830588893e-02,1.249497993661215917e-02,-1.466443922353191098e-01,7.531725080513467386e-05,2.334109798290272438e-03,3.938673383324034147e-03,-1.110654663085079014e-01,3.034168562242359896e-02,-2.941849168777227463e-02,2.858403700389251512e-01
3.225000000000000000e+01,-5.643162749229352348e-01,1.153594400995835711e-01,9.999800064788570697e-02,1.487557996703983178e-02,-1.508623993769912519e-01,6.110822714242444235e-05,5.414575922423172163e-03,4.111025810835659171e-04,-7.533330546694277929e-02,1.230493568485735087e-02,-3.011953190551956011e-02,2.857702598329093235e-01
3.250000000000000000e+01,-5.625402896268080211e-01,9.610904778846886265e-02,1.000045145525362139e-01,1.293814731317695366e-02,-1.570063370946508385e-01,4.330798606385195354e-05,5.809386012329637028e-03,-2.999265774825372356e-03,-3.961241595264250459e-02,-7.502319643203136934e-03,-2.412687270953750920e-02,2.857683790059243889e-01
3.275000000000000000e+01,-5.612401106241413640e-01,7.612124134377930285e-02,1.000088585145384318e-01,7.586892757947398883e-03,-1.623082607515952680e-01,2.761939260475179008e-05,4.165878538824763049e-03,-5.401690466361281848e-03,-3.882540560079264080e-03,-1.727282311731929629e-02,-1.349419653158240306e-02,2.857921531273012183e-01
3.300000000000000000e+01,-5.607482063986733989e-01,5.561180430744380732e-02,1.000115615140262509e-01,3.698514114261221546e-04,-1.653378884625763823e-01,1.647313596584431969e-05,2.016685179431238796e-03,-6.186539426246028504e-03,3.185570562834825342e-02,-1.548136030823726340e-02,4.558506647210786846e-04,2.858137866119924153e-01
3.325000000000000000e+01,-5.611709883757364237e-01,3.486604247946867990e-02,1.000130103488035965e-01,-6.683135883983118246e-03,-1.662962493438526757e-01,7.431870973347108595e-06,6.250135111746514364e-04,-5.047240685087528954e-03,6.759184116124682118e-02,-7.632014049711154796e-03,1.633362816488632616e-02,2.858340426734951034e-01
3.350000000000000000e+01,-5.623389641028014863e-01,1.407765250752876507e-02,1.000136254637794125e-01,-1.123620575176053141e-02,-1.662444034006297089e-01,4.039197510755532086e-06,4.246334543205852199e-04,-1.952290700517931177e-03,1.033239757836355577e-01,-7.567468926550932704e-04,3.198809459642927566e-02,2.858651517725679936e-01
3.375000000000000000e+01,-5.637870608033277442e-01,-6.690713715541845436e-03,1.000145072034225174e-01,-1.096194469249096859e-02,-1.660695551706002637e-01,1.180835499747626249e-05,1.086906548439268289e-03,2.855919775541746440e-03,1.390602604087722016e-01,8.317163716558305993e-04,4.445544559248971322e-02,2.859080394085087851e-01
3.400000000000000000e+01,-5.647842986371809371e-01,-2.743767030312379770e-02,1.000170155824396112e-01,-4.002288641445669697e-03,-1.658352900437763122e-01,2.852169982592978777e-05,1.933871431990798369e-03,8.830465293215522191e-03,1.748061992637356121e-01,-3.015649030622023601e-03,5.055699020790434955e-02,2.859459438594019742e-01
3.425000000000000000e+01,-5.644252944101204594e-01,-4.811213788136323860e-02,1.000216019319546124e-01,1.052840726529386851e-02,-1.647561965326453659e-01,4.272696709953333299e-05,2.365031802580452262e-03,1.510961025283565073e-02,2.105553846267626261e-01,-9.292914359051961115e-03,4.782634741340157508e-02,2.859575354314105589e-01
3.450000000000000000e+01,-5.617789297962542117e-01,-6.853374346178782439e-02,1.000270105733297166e-01,3.215458314933984652e-02,-1.616646068511466694e-01,4.010543799149774878e-05,2.094043331823970937e-03,2.058791017251673447e-02,2.462937670536465284e-01,-1.397340600198756187e-02,3.537294383265393583e-02,2.859356110566105280e-01
3.475000000000000000e+01,-5.560703699688971380e-01,-8.838649296702770497e-02,1.000305255477988570e-01,5.890517139257796936e-02,-1.556538318180098190e-01,1.305205048341520623e-05,1.164348273128489606e-03,2.409320486525595370e-02,2.820120714828838193e-01,-1.395978355338831599e-02,1.437508879528730590e-02,2.858961352869515693e-01
3.500000000000000000e+01,-5.468589203531267762e-01,-1.072873146468027589e-01,1.000293975680533881e-01,8.750913140299387827e-02,-1.465953945408742243e-01,-3.089009010430542968e-05,-1.718445068636755869e-04,2.463954486121252077e-02,3.177142359689309470e-01,-8.132909875030236435e-03,-1.195348788254627613e-02,2.858718239302069919e-01
3.525000000000000000e+01,-5.341702572769073676e-01,-1.249008165348243354e-01,1.000228861586884566e-01,1.139101746661728976e-01,-1.353547902253214863e-01,-6.861605015964006760e-05,-1.600784998986076214e-03,2.168474447138572792e-02,3.534155058879021039e-01,2.564302002273553382e-03,-3.892550192477347432e-02,2.858936773366858031e-01
3.550000000000000000e+01,-5.185484305172936015e-01,-1.410592424094191111e-01,1.000135335605622650e-01,1.340064197804173574e-01,-1.236752409868445701e-01,-7.382408946848980323e-05,-2.848045406212550146e-03,1.531168580607422842e-02,3.891330793542335797e-01,1.568352899984138196e-02,-6.133708230650060378e-02,2.859697679384106128e-01
3.575000000000000000e+01,-5.010091115992331146e-01,-1.558500699156986635e-01,1.000063183480097567e-01,1.444593465055391546e-01,-1.138026257186100926e-01,-3.635873444579145575e-05,-3.716125552971411526e-03,6.275400242259664141e-03,4.248761115494870677e-01,2.807254364951002404e-02,-7.458623558252909513e-02,2.860738751148668713e-01
3.600000000000000000e+01,-4.828969237734108688e-01,-1.696464756399006790e-01,1.000057322730648207e-01,1.433940891454760225e-01,-1.079725140340692252e-01,2.626945792709012956e-05,-4.080495259036689623e-03,-4.100793386340850950e-03,4.606402001033262916e-01,3.664765063310147092e-02,-7.568598697504627659e-02,2.861544572784200380e-01
3.625000000000000000e+01,-4.656709344512665050e-01,-1.830716292773842402e-01,1.000126000087152162e-01,1.308353763234521849e-01,-1.078845573024717897e-01,7.652978757537137299e-05,-3.875750066714467573e-03,-1.415629972914498290e-02,4.964086181884277971e-01,3.902274196465452955e-02,-6.394548100337753282e-02,2.861636917378212464e-01
3.650000000000000000e+01,-4.506584336933917023e-01,-1.969024176746519694e-01,1.000230160938932605e-01,1.087807496494881676e-01,-1.142717760179737391e-01,8.072592561571941743e-05,-3.091997037787490559e-03,-2.219999997380606160e-02,5.321603095056105515e-01,3.397303830981688449e-02,-4.117103118184261418e-02,2.860909903786416075e-01
3.675000000000000000e+01,-4.388245979224737470e-01,-2.119301068673938304e-01,1.000304689286262427e-01,8.088914722350243336e-02,-1.266480599188081480e-01,3.286945367128514295e-05,-1.783217109737327217e-03,-2.682856330756845653e-02,5.678817222918433050e-01,2.171467115315120489e-02,-1.133464925119193924e-02,2.859774813995215048e-01
3.700000000000000000e+01,-4.306031612344152215e-01,-2.288041269336890393e-01,1.000299577020029862e-01,5.184301798838143044e-02,-1.432894278249046138e-01,-3.897970436850866982e-05,-7.668822886557142746e-05,-2.719225799812614863e-02,6.035762445105588014e-01,3.948866143020078948e-03,2.022697145706080918e-02,2.858971435884243295e-01
3.725000000000000000e+01,-4.258213780244599622e-01,-2.478898852029428057e-01,1.000213721068262396e-01,2.650949005212686893e-02,-1.614682752725283832e-01,-8.960000910616984786e-05,1.829436816772400838e-03,-2.315597868445542704e-02,6.392645960827789686e-01,-1.637889264894273542e-02,4.790655142323958782e-02,2.859128061910556906e-01
3.750000000000000000e+01,-4.237338814026767042e-01,-2.691708533245937285e-01,1.000097752970228598e-01,9.067769119259161403e-03,-1.779103905039368938e-01,-8.591175948150672173e-05,3.687626771204829002e-03,-1.532498800441717789e-02,6.749742516831093164e-01,-3.559052128122026232e-02,6.696495301658732247e-02,2.860345639362720793e-01
3.775000000000000000e+01,-4.231580842151099198e-01,-2.922178886621677463e-01,1.000022974207483012e-01,2.280814470874199806e-03,-1.893915280612268326e-01,-2.882953077633044418e-05,5.240730959316920907e-03,-4.933709070673957670e-03,7.107233932898934237e-01,-4.996606918429415123e-02,7.445028104437181882e-02,2.862089449476050151e-01
3.800000000000000000e+01,-4.226829912689732960e-01,-3.162358910982609461e-01,1.000036471636616825e-01,7.058965955292569386e-03,-1.933566095679759567e-01,4.707767928186728341e-05,6.270765215490140682e-03,6.376576127377652815e-03,7.465094558421387916e-01,-5.649763556722517399e-02,6.970251891386555765e-02,2.863474850130403038e-01
3.825000000000000000e+01,-4.209090694189807080e-01,-3.401825007019266267e-01,1.000131593285549236e-01,2.239304702619909077e-02,-1.884360882387712821e-01,9.563007532498038823e-05,6.642283980126604571e-03,1.684902387297064486e-02,7.823099199070012721e-01,-5.357980299547791814e-02,5.437601621426549348e-02,2.863771897789987309e-01
3.850000000000000000e+01,-4.166724669613283139e-01,-3.629384214826486543e-01,1.000252497235143423e-01,4.565223718174378498e-02,-1.747461060952454626e-01,8.809765664839705479e-05,6.327916645424144088e-03,2.492213960501546074e-02,8.180949616346947506e-01,-4.147401556543769963e-02,3.200797692500466363e-02,2.862814714643410752e-01
3.875000000000000000e+01,-4.092122909835448352e-01,-3.834968173729480512e-01,1.000329129016629265e-01,7.316973929425649170e-02,-1.538946892909635877e-01,3.040600361430837644e-05,5.410579363493532579e-03,2.950588832483727608e-02,8.538438324399242330e-01,-2.238005921677991769e-02,7.223574283041163391e-03,2.861067387494068970e-01
3.900000000000000000e+01,-3.982529579870575098e-01,-4.011331744487494633e-01,1.000319436735859074e-01,1.009857680752339060e-01,-1.286765136981717628e-01,-4.234845560435648973e-05,4.063707144759309310e-03,3.016855674315463420e-02,8.895548469643933531e-01,-3.158825165504861639e-05,-1.526472271507857068e-02,2.859320641928078666e-01
3.925000000000000000e+01,-3.839920326226495262e-01,-4.155195692317152911e-01,1.000231689044952382e-01,1.255898111731152678e-01,-1.025125946520786258e-01,-8.960751616927799896e-05,2.515109012643745173e-03,2.719261338211362983e-02,9.252436113443671672e-01,2.111954826035856297e-02,-3.164655838879350952e-02,2.858229977108998066e-01
3.950000000000000000e+01,-3.670037813994165843e-01,-4.267587754433117553e-01,1.000114181471968566e-01,1.445086718354589017e-01,-7.875700155073120379e-02,-9.052096908893241304e-05,1.002335321631152949e-03,2.148464118221070709e-02,9.609319847775533718e-01,3.693338951952968019e-02,-3.976102450735789079e-02,2.857993742553692762e-01
3.975000000000000000e+01,-3.480857528676207790e-01,-4.353317218314334269e-01,1.000022167192096967e-01,1.566245266570793493e-01,-6.003074144054092176e-02,-5.365316488882992160e-05,-2.709828024920858734e-04,1.435816029925293669e-02,9.966357344657638118e-01,4.456391116248261536e-02,-3.942115452856966018e-02,2.858348439289921661e-01
4.000000000000000000e+01,-3.280861093290956543e-01,-4.419722065023108937e-01,9.999860656693941585e-02,1.621739919678207298e-01,-4.774182027804008133e-02,-6.464969862236257059e-06,-1.168293642073394388e-03,7.238689225094247469e-03,1.032358407440816750e+00,4.313357764160324903e-02,-3.224651704080415404e-02,2.858829474630712464e-01
4.025000000000000000e+01,-3.077503554915412831e-01,-4.475001992987691080e-01,1.000000998522251744e-01,1.624600875505853859e-01,-4.190580402733818516e-02,2.539142150251578713e-05,-1.636266091676581193e-03,1.359078294867990810e-03,1.068093598434032288e+00,3.391111291401985306e-02,-2.107502196526126956e-02,2.859084292250730908e-01
4.050000000000000000e+01,-2.876174190001983266e-01,-4.526545367246112006e-01,1.000040025270568789e-01,1.593778145843323113e-01,-4.130282025821829794e-02,3.305242899668115028e-05,-1.702361900894093158e-03,-2.484534424657846696e-03,1.103832024654778587e+00,1.992754680975146117e-02,-9.134282872440772916e-03,2.859032678429375141e-01
4.075000000000000000e+01,-2.679797073846688638e-01,-4.579645215961720139e-01,1.000076791852951702e-01,1.548903869041451109e-01,-4.391763186230576710e-02,2.453945075476470403e-05,-1.456687172721982896e-03,-4.059668234752216581e-03,1.139567701960432888e+00,5.113012332412071072e-03,7.988909410168215566e-04,2.858812913850862225e-01
4.100000000000000000e+01,-2.489043913180480627e-01,-4.636880983189551331e-01,1.000100005444077428e-01,1.505908093436940653e-01,-4.753324694068893075e-02,1.349117810359675459e-05,-1.023743630917630775e-03,-3.678183673417757121e-03,1.175299731509968471e+00,-6.826123077206166720e-03,7.032842140778960624e-03,2.858610079852094699e-01
4.125000000000000000e+01,-2.302983990239472201e-01,-4.698248881605656124e-01,1.000112555697118266e-01,1.474465495063581322e-01,-5.030584944000038999e-02,7.842006721201947661e-06,-5.310499673927964208e-04,-2.037634496263484273e-03,1.211030198646917411e+00,-1.347575100170877831e-02,9.231369212525493417e-03,2.858518189566133794e-01
4.150000000000000000e+01,-2.119911320312966585e-01,-4.761906408771506283e-01,1.000121533053090345e-01,1.457644400644268756e-01,-5.115423655797270153e-02,7.009232996458642507e-06,-8.177119031183099180e-05,3.139336876989025078e-05,1.246761151209958340e+00,-1.438416164567958740e-02,8.259219656498034690e-03,2.858518965572581783e-01
