time_total,x,y,z,vx,vy,vz,roll,pitch,yaw,roll_rate,pitch_rate,yaw_rate
-01,9.990163385773534466e-02,6.908608649806885493e-02,-1.609140398917664194e-01,3.853374940810377750e-04,-1.559979275095585750e-05,4.822865642132479098e-03,-2.803848374616193073e+00,1.675349081901616327e-02,1.034820969222369734e-02,-3.699473245604812943e-01
2.500000000000000000e-01,4.436946152276505795e-01,1.991868665923137716e-01,9.994189406436637668e-02,6.389379681333366701e-02,-1.630957113351033938e-01,2.701585789261786948e-04,-2.669198810283686298e-03,4.062374871615843409e-03,-2.850100366991135559e+00,1.723082878729826142e-02,1.280322789821446497e-02,-3.698988963313660783e-01
5.000000000000000000e-01,4.514405859202091920e-01,1.785276731155563956e-01,9.997016866132166224e-02,6.040792831112408445e-02,-1.676043179110862369e-01,1.890266756953923137e-04,-4.533954913745113190e-03,3.144548354841130919e-03,-2.896342686434842939e+00,7.069354056328515552e-03,8.830001359517111043e-03,-3.698745847849443935e-01
7.500000000000000000e-01,4.588300440660754709e-01,1.572236925519735762e-01,9.998971344231601110e-02,5.801187018313325866e-02,-1.730976492370958353e-01,1.288788998996088998e-04,-4.843605240450421685e-03,2.468528032293569943e-03,-2.942577757307260011e+00,-3.729383117974217378e-03,3.118041949531974964e-03,-3.698746305431998560e-01
1.000000000000000000e+00,4.659437481718334273e-01,1.352567081081575140e-01,1.000029599896806592e-01,5.585674398255321277e-02,-1.780158373563301144e-01,8.740537775530007067e-05,-3.996701287482879589e-03,2.236939462098887655e-03,-2.988810906253763555e+00,-8.972055155313417990e-03,-1.307503547828440171e-03,-3.698875687607997009e-01
1.250000000000000000e+00,4.727678194825130631e-01,1.127618555715308724e-01,1.000120581061638148e-01,5.331473226771401425e-02,-1.815350927189086361e-01,6.104809338516452603e-05,-2.862874099688286333e-03,2.422232762156064680e-03,-3.035045235191285773e+00,-7.782195207599533482e-03,-3.573090779484838775e-03,-3.699025395527499871e-01
1.500000000000000000e+00,4.792315953938129924e-01,8.991587966281659738e-02,1.000185031983868850e-01,5.008903581751882744e-02,-1.837564905423859363e-01,4.371340790891527678e-05,-2.146541467915397041e-03,2.863386348994694571e-03,-3.081281935938995353e+00,-2.923650841898790560e-03,-4.253159280643011714e-03,-3.699130621067168168e-01
1.750000000000000000e+00,4.852434269712153636e-01,6.684145624800341690e-02,1.000231274896536404e-01,4.610634834982169084e-02,-1.853390342720311890e-01,3.133857351936800053e-05,-2.093546424441401245e-03,3.399406460139650123e-03,-3.127521274735761914e+00,1.983646175283915354e-03,-4.366472210846462400e-03,-3.699174786375420410e-01
2.000000000000000000e+00,4.907079749823905490e-01,4.357170484568302637e-02,1.000348279769138760e-01,4.135457583849196789e-02,-1.869741535399108423e-01,5.630692042970027758e-05,-2.545069486459733670e-03,3.954080916672746832e-03,3.108905985610121991e+00,4.579558586962509913e-03,-4.650704590986172622e-03,-3.643291882491247469e-01
2.250000000000000000e+00,4.955264806378887887e-01,2.007202865714434112e-02,1.000369604937750151e-01,3.578250717834319944e-02,-1.890296739677183868e-01,-8.441774581728169258e-07,-3.162974352662833652e-03,4.543058102357499205e-03,3.063043009031547026e+00,4.362249755252255168e-03,-5.337943895134674224e-03,-3.684249335598019370e-01
2.500000000000000000e+00,4.995894444710472504e-01,-3.710826640626386109e-03,1.000363912287210583e-01,2.927475411580871337e-02,-1.914541181775588630e-01,-5.790274850307731621e-06,-3.660766026729786547e-03,5.218394273924086002e-03,3.016902160695634993e+00,2.345496843123697026e-03,-6.164549392570830080e-03,-3.695201508841334803e-01
2.750000000000000000e+00,5.027714871518350614e-01,-2.780316818310196031e-02,1.000357117474228869e-01,2.170530272350461309e-02,-1.939122350193364375e-01,-4.924262008032731737e-06,-3.914095498043305629e-03,5.999822824189406101e-03,2.970687784114676155e+00,-5.752305859348983991e-05,-6.671982265371391441e-03,-3.698153603259802247e-01
3.000000000000000000e+00,5.049348964371118687e-01,-5.218262404355537842e-02,1.000351689317092452e-01,1.301294580992830123e-02,-1.959967482600693534e-01,-3.851025520243817047e-06,-3.947872570315653917e-03,6.838130522167088637e-03,2.924454371795757623e+00,-1.768404790526899263e-03,-6.441054676418691768e-03,-3.698963649513700713e-01
3.250000000000000000e+00,5.059419691151989529e-01,-7.678079756906591724e-02,1.000347314688007638e-01,3.262381667674508958e-03,-1.973961110970864075e-01,-3.273241131924356547e-06,-3.860064422922528018e-03,7.621166605113960206e-03,2.878216281491264184e+00,-2.360247225183593339e-03,-5.271798045668119742e-03,-3.699175326320436885e-01
3.500000000000000000e+00,5.056727331911118339e-01,-1.015011119636268500e-01,1.000343223951160598e-01,-7.332282460369710098e-03,-1.979699066193340573e-01,-3.384582816205857052e-06,-3.744276510573661849e-03,8.214544483528415930e-03,2.831977287477219996e+00,-1.963300106165565776e-03,-3.268728454963355009e-03,-3.699190597751044751e-01
3.750000000000000000e+00,5.040426179996833067e-01,-1.262403407505400810e-01,1.000338598857604261e-01,-1.843058963153326041e-02,-1.977401379440058837e-01,-4.053412792884109956e-06,-3.649621607655697056e-03,8.513946609998962467e-03,2.785738575677475293e+00,-9.893539807625363960e-04,-8.249159033005872823e-04,-3.699123749031205111e-01
4.000000000000000000e+00,5.010144455773994920e-01,-1.509056075475325165e-01,1.000333032928028137e-01,-2.963020155527658697e-02,-1.968358233533374912e-01,-4.787301278074990021e-06,-3.581674570315721701e-03,8.485813181070651565e-03,2.739500727620923115e+00,1.155471556174829671e-04,1.486786028100145832e-03,-3.699026200798101738e-01
4.250000000000000000e+00,4.966005759843655776e-01,-1.754234541903310907e-01,1.000326823787326125e-01,-4.055542208464089915e-02,-1.954266228829296403e-01,-5.020197297338812818e-06,-3.525898412888809046e-03,8.182227495485213872e-03,2.693263973412221013e+00,9.981749140463291869e-04,3.086505090031659015e-03,-3.698935913126903952e-01
4.500000000000000000e+00,4.908537996119963220e-01,-1.997410615038570370e-01,1.000320820249637754e-01,-5.094413873550423383e-02,-1.936652497412069684e-01,-4.473442119005948948e-06,-3.471018430479862020e-03,7.727449275012828432e-03,2.647028117723805529e+00,1.424395259981886454e-03,3.572547033441771623e-03,-3.698879978134762547e-01
4.750000000000000000e+00,4.838489477764587043e-01,-2.238211977283831866e-01,1.000315950262232745e-01,-6.070619480486440234e-02,-1.916444981321621666e-01,-3.278382324396375491e-06,-3.419000829773147492e-03,7.282929817470119860e-03,2.600792618594622851e+00,1.270719276393512910e-03,2.856974732228982281e-03,-3.698870584512720106e-01
5.000000000000000000e+00,4.756601792407801343e-01,-2.476327938056418210e-01,1.000312793720831150e-01,-6.993360286802136061e-02,-1.893699546281367163e-01,-1.808953869903002358e-06,-3.380799273406241093e-03,7.002714967675845864e-03,2.554556825320262625e+00,5.295876080597115062e-04,1.202302064121455252e-03,-3.698905301142497160e-01
5.250000000000000000e+00,4.663404562035142198e-01,-2.711392682454502601e-01,1.000311448995170049e-01,-7.885770198746942794e-02,-1.867514302042786734e-01,-4.262531814153359817e-07,-3.365276312497009984e-03,6.992047764699406594e-03,2.508320216304277039e+00,-6.687213500435588596e-04,-8.562102614398088649e-04,-3.698970916071894210e-01
5.500000000000000000e+00,4.559092187827608056e-01,-2.942872668960775373e-01,1.000311645355720092e-01,-8.776556106370743404e-02,-1.836181520191152439e-01,6.381500638787266937e-07,-3.370134974671225130e-03,7.279867158194434744e-03,2.462082549220840910e+00,-2.049067654869662306e-03,-2.677488106443970395e-03,-3.699047687010796892e-01
5.750000000000000000e+00,4.443517858014781052e-01,-3.169989799204091518e-01,1.000312879519306419e-01,-9.690148301676572429e-02,-1.797597006630095029e-01,1.223801576167020325e-06,-3.380072124404602529e-03,7.811930628875502804e-03,2.415843931695885072e+00,-3.233723374085118330e-03,-3.714585798502116273e-03,-3.699113331653003378e-01
6.000000000000000000e+00,4.316303504050929551e-01,-3.391709433251524630e-01,1.000314446438155119e-01,-1.063844471517401274e-01,-1.749862533787684415e-01,1.164551603390504979e-06,-3.372242113727723107e-03,8.466230618093083596e-03,2.369604815791118035e+00,-3.842470768504598674e-03,-3.680723921802349190e-03,-3.699148082394154713e-01
6.250000000000000000e+00,4.177028284367004796e-01,-3.606807842554983212e-01,1.000315454230711609e-01,-1.161669172051796317e-01,-1.691919949884863883e-01,3.493191350652783869e-07,-3.325453803705024757e-03,9.086812740418779774e-03,2.323365879561881453e+00,-3.622646726488358386e-03,-2.626831843846310147e-03,-3.699140878050432013e-01
6.500000000000000000e+00,4.025434718686616287e-01,-3.814009401910392061e-01,1.000315000369139395e-01,-1.260464948680804220e-01,-1.624003167080594334e-01,-1.106864392978532850e-06,-3.228522723351695111e-03,9.526987277082820879e-03,2.277127792035957832e+00,-2.556456672547511525e-03,-9.069824231141024274e-04,-3.699093956790204252e-01
6.750000000000000000e+00,3.861588553085193998e-01,-4.012158186697143969e-01,1.000312531790715914e-01,-1.357242973954186083e-01,-1.547725917400227247e-01,-2.772925141995432900e-06,-3.084443330253464413e-03,9.689782293319513726e-03,2.230890953520928921e+00,-8.944701802375563992e-04,9.525260796714699225e-04,-3.699022394357442400e-01
7.000000000000000000e+00,3.685946371811070765e-01,-4.200372568762811842e-01,1.000308173331508066e-01,-1.448889178051393500e-01,-1.465737701262880277e-01,-4.044572415651187691e-06,-2.909309086942207020e-03,9.553793931679849250e-03,2.184655351988196159e+00,9.079051872470028173e-04,2.431416146775273405e-03,-3.698947914064455444e-01
7.250000000000000000e+00,3.499317039237087035e-01,-4.378132850013338739e-01,1.000302749721457551e-01,-1.532976475674674155e-01,-1.381035063085513104e-01,-4.455993843792718644e-06,-2.727000916627224901e-03,9.176765551587751091e-03,2.138420611313135211e+00,2.333577530783263569e-03,3.177540031430950256e-03,-3.698890235103263202e-01
7.500000000000000000e+00,3.302738999483596505e-01,-4.545271108121684556e-01,1.000299397031530202e-01,-1.608070553786304091e-01,-1.296018158221695638e-01,1.239660262541576329e-05,-1.568516780592276415e-03,8.663602986387675814e-03,2.093653238607076972e+00,-3.606328156438837196e-02,7.314119819973277647e-02,-2.457918319348590952e-01
7.750000000000000000e+00,3.102463914508232778e-01,-4.699092355242700525e-01,1.000450921912124924e-01,-1.544066103240988308e-01,-1.142080875229681408e-01,3.646772341451660297e-04,2.922086047073516046e-02,7.253229378892305478e-03,2.098334261439748882e+00,-1.523812614543297861e-01,2.967453109357653385e-01,2.049496169069202067e-01
8.000000000000000000e+00,2.935357926183758681e-01,-4.820322123073251808e-01,1.001393326363439612e-01,-1.075602343027181051e-01,-7.712204922466214807e-02,9.783426966706147438e-04,6.764347031957577971e-02,4.232049744029102965e-03,2.133460911116194847e+00,-1.050523251257110408e-01,2.213122519737145688e-01,3.239584695467573328e-01
8.250000000000000000e+00,2.849299521510125777e-01,-4.882333761841573527e-01,1.002227452063654822e-01,-2.980466191899779765e-02,-2.211304630791276551e-02,1.453947994659678437e-04,8.355053891121255738e-02,6.009976217887081197e-04,2.176517228502297119e+00,1.401612659749034567e-02,2.554170156717000886e-02,3.564780966493574232e-01
8.500000000000000000e+00,2.865045160941193103e-01,-4.872446533817836878e-01,1.001563361581290501e-01,5.034515105183431927e-02,3.493091194842527086e-02,-1.042977391339314089e-03,7.196600314113182906e-02,-1.541909996380051977e-03,2.221820593274156597e+00,1.111390950983252163e-01,-1.346238724276112020e-01,3.660095224582320950e-01
8.750000000000000000e+00,2.968884337115389460e-01,-4.798378809586736904e-01,1.000130763419458113e-01,1.090646068724824558e-01,7.916349311769022012e-02,-1.036440763460890662e-03,4.490052623454271474e-02,-8.932614985213125670e-04,2.267834991629521291e+00,1.379782368190906050e-01,-1.898595965852606371e-01,3.689515969785450156e-01
9.000000000000000000e+00,3.126910502241742607e-01,-4.680947120052241783e-01,9.992955953453190598e-02,1.379957252523828504e-01,1.048640162849680535e-01,-3.046639121116406584e-04,1.818433614097824530e-02,2.085297036452363108e-03,2.314018654223829685e+00,1.011154203387881617e-01,-1.529639122987631883e-01,3.699585883009471332e-01
9.250000000000000000e+00,3.304399043055438190e-01,-4.541684405633185095e-01,9.992669786754833361e-02,1.427202743440380284e-01,1.157794795955491979e-01,1.600255602947095001e-04,1.930033594003783496e-03,5.715927230625439739e-03,2.360230183174013785e+00,3.810884868733598052e-02,-7.572956763976140815e-02,3.702965497917916071e-01
9.500000000000000000e+00,3.478477999743030402e-01,-4.393841730958548686e-01,9.995294552570233027e-02,1.349810177103814568e-01,1.202609061582096961e-01,2.144022523150601329e-04,-2.242264107781730045e-03,8.324169791897532977e-03,2.406490628375582919e+00,-1.282938085629977375e-02,-7.616829552228726596e-03,3.702661459527550880e-01
9.750000000000000000e+00,3.640702385702938582e-01,-4.240370696472047785e-01,9.997593170316623756e-02,1.251754535326039253e-01,1.256832734958920617e-01,1.553784976584003717e-04,1.267453063421506744e-03,9.168273546057469428e-03,2.452793272644533396e+00,-3.258328430206055421e-02,2.658868629619982882e-02,3.700680556130254706e-01
1.000000000000000000e+01,3.792493017232581032e-01,-4.077510128456641736e-01,9.999259988274709909e-02,1.185974168113995836e-01,1.353023592606157899e-01,1.154231517757933588e-04,6.491132943041427218e-03,8.580129542227518669e-03,2.499086265328124057e+00,-2.402000367625180613e-02,2.808339537201971770e-02,3.698898709549332531e-01
1.025000000000000000e+01,3.938524931207285085e-01,-3.900221457769276201e-01,1.000046052571936378e-01,1.155988887074975019e-01,1.482641486036382905e-01,7.663127527207845243e-05,9.340734264638914791e-03,7.456857238217606994e-03,2.545339502968306800e+00,-2.586886937485414865e-03,1.235208224488937995e-02,3.698105708391153934e-01
1.050000000000000000e+01,4.081943038241275801e-01,-3.706141617089590001e-01,1.000116096275540795e-01,1.139208824304015488e-01,1.616202690203318859e-01,3.885134231243390316e-05,8.762117301407253145e-03,6.594408540762158530e-03,2.591561684694173806e+00,1.588588729570986416e-02,-4.157860503498137482e-03,3.698157593877884897e-01
1.075000000000000000e+01,4.222771132893259338e-01,-3.496670465283494011e-01,1.000150955193284952e-01,1.111786325346331150e-01,1.726171472989287137e-01,2.135621048510910589e-05,5.963237403971522604e-03,6.285445539228036969e-03,2.637773541747268968e+00,2.304613112219784654e-02,-1.201860736584047483e-02,3.698614397460031622e-01
1.100000000000000000e+01,4.358811475631622079e-01,-3.275732919476143645e-01,1.000175887790133306e-01,1.062836371211380165e-01,1.800306377004405045e-01,1.977918142257874715e-05,2.869068405075474257e-03,6.322159954774306430e-03,2.683989929964936572e+00,1.924402869245631434e-02,-1.011415005015550879e-02,3.699083527992494402e-01
1.125000000000000000e+01,4.487483981390326671e-01,-3.047694407300947095e-01,1.000200218489231963e-01,9.960540140415331811e-02,1.842529214535429671e-01,1.843620698439479751e-05,8.670234541210121394e-04,6.277610102032303054e-03,2.730217702789691003e+00,1.000612125650161659e-02,-2.566642308209001345e-03,3.699332930721592749e-01
1.150000000000000000e+01,4.607290785947571465e-01,-2.815759333173482593e-01,1.000220076805159175e-01,9.234243916138824837e-02,1.865677030916965407e-01,1.316717104301488491e-05,3.337889297411570115e-04,5.826707451727706003e-03,2.776456260980154855e+00,1.328191299814649286e-03,5.377145057121966720e-03,3.699328709161678330e-01
1.175000000000000000e+01,4.718329508814730899e-01,-2.581433552772174900e-01,1.000233153249311391e-01,8.572947575859975189e-02,1.882822281489195948e-01,8.315205349489439618e-06,8.533738477739869063e-04,4.921658806151139529e-03,2.822699747178565310e+00,-3.431087750483224810e-03,1.017877872526700735e-02,3.699181758884420579e-01
1.200000000000000000e+01,4.821957731067547659e-01,-2.344887217042563310e-01,1.000241835536779117e-01,8.050899169831060576e-02,1.901943532103211876e-01,6.015412336945986619e-06,1.735806896241336031e-03,3.771963844180640027e-03,2.868942329049276374e+00,-4.142426082507172369e-03,1.085878056887304606e-02,3.699030687175596799e-01
1.225000000000000000e+01,4.920049145544487801e-01,-2.105682421579739838e-01,1.000248620712677339e-01,7.679126992740727131e-02,1.925191877621789949e-01,4.932506180383764127e-06,2.458277191642955876e-03,2.697012868003081671e-03,2.915181987526199947e+00,-2.670763816598850648e-03,8.367499144419258267e-03,3.698956500181458940e-01
1.250000000000000000e+01,5.014278582488609359e-01,-1.863369764974681930e-01,1.000254088638890121e-01,7.420333807698605011e-02,1.951230048602532186e-01,3.823469331500954482e-06,2.843093229299994019e-03,1.963697379832228963e-03,2.961419857535645406e+00,-1.138981971164815298e-03,4.407883929359949701e-03,3.698970876636007432e-01
1.275000000000000000e+01,5.105682300375614657e-01,-1.617727746074823780e-01,1.000258135763167772e-01,7.214718287202112612e-02,1.978199346534696701e-01,2.728520012210559653e-06,2.992137939207883089e-03,1.693740152620750459e-03,3.007657705758258526e+00,-7.474226319668720361e-04,4.565103001334030260e-04,3.699046205831607037e-01
1.300000000000000000e+01,5.194528399265483376e-01,-1.368693963079102849e-01,1.000261045739104238e-01,7.002085369394987768e-02,2.005529445952017320e-01,2.034739248131381844e-06,3.109563117346779513e-03,1.863916175680098474e-03,3.053896627826371279e+00,-1.517071202200455209e-03,-2.695875665233574310e-03,3.699146508084137919e-01
1.325000000000000000e+01,5.280399508514428408e-01,-1.116178022677012383e-01,1.000263402838233728e-01,6.733622571268442492e-02,2.034097749387557830e-01,1.809923974630525992e-06,3.346119697271097461e-03,2.369260069652371313e-03,3.100137107237750822e+00,-2.722512399882333258e-03,-4.926225978066547245e-03,3.699244810730205058e-01
1.350000000000000000e+01,5.362356076877501376e-01,-8.599351485074256674e-02,1.000286755886697770e-01,6.373817765637926347e-02,2.065282450302731720e-01,1.805882387407011446e-04,3.734166805290105133e-03,3.097923292641326792e-03,-3.135827388454258902e+00,-3.387598399207121698e-03,-6.686336236858967524e-03,3.915139112726171433e-01
1.375000000000000000e+01,5.439081716915120657e-01,-5.995832903316621054e-02,1.000358137278687526e-01,5.896967891189551503e-02,2.099749034948382720e-01,-5.644681713391817515e-07,4.208028661656370260e-03,3.979793957214033430e-03,-3.090271079486667460e+00,-3.462010273205582897e-03,-7.757790515553681862e-03,3.667862580286661567e-01
1.400000000000000000e+01,5.508980838659800483e-01,-3.347361112710706826e-02,1.000342489728957424e-01,5.282944358697184289e-02,2.136868568025263038e-01,-1.639292249699360741e-05,4.662338537703750695e-03,4.995236966540222111e-03,-3.044240167510481765e+00,-2.475913877755085788e-03,-8.925994196301750491e-03,3.691047684265382212e-01
1.425000000000000000e+01,5.570219740786452878e-01,-6.518833784803290850e-03,1.000323811595664331e-01,4.513731876547818350e-02,2.174486013170357501e-01,-1.295400542195245642e-05,5.015775013402209125e-03,6.147239732276808290e-03,-2.998051535232091780e+00,-9.040652544362170074e-04,-9.976244118551262988e-03,3.697294350537619345e-01
1.450000000000000000e+01,5.620759431951061202e-01,2.089283069847865104e-02,1.000310500909462053e-01,3.574697266211292190e-02,2.209492505640884286e-01,-8.620046777698919297e-06,5.231432524482549674e-03,7.430233329736844229e-03,-2.951820585639177708e+00,8.537837913884102018e-04,-1.073349605977930860e-02,3.699015384042540489e-01
1.475000000000000000e+01,5.658413947305028779e-01,4.870647840680829982e-02,1.000301974621156248e-01,2.457337796291021031e-02,2.238431987542285062e-01,-5.324406377492989219e-06,5.310533737551337806e-03,8.807501683609197593e-03,-2.905578442127981997e+00,2.468836449445904399e-03,-1.094227491632700222e-02,3.699512354229486655e-01
1.500000000000000000e+01,5.680950846578842750e-01,7.682475015190716461e-02,1.000296806775083647e-01,1.163018129668137550e-02,2.258037352018173738e-01,-3.219557203655603425e-06,5.272045955241856478e-03,1.020419499598277518e-02,-2.859333817794922794e+00,3.737751408304770297e-03,-1.036628409110203729e-02,3.699650731175864737e-01
1.525000000000000000e+01,5.686236975871084010e-01,1.051127624546232542e-01,1.000293450575171772e-01,-2.937362108937545402e-03,2.265601799431732621e-01,-2.398545494790306364e-06,5.134361896262359948e-03,1.151552170057364155e-02,-2.813089591142692747e+00,4.551104360927752356e-03,-8.870503080557663039e-03,3.699650326335329753e-01
1.550000000000000000e+01,5.672415916567249417e-01,1.334067538256118735e-01,1.000290269172901120e-01,-1.883572552816594609e-02,2.259217548315353430e-01,-2.883776815892578431e-06,4.907917769945794109e-03,1.262410384003635581e-02,-2.766847162567025897e+00,4.839431663633529147e-03,-6.473446052977087882e-03,3.699569297270670631e-01
1.575000000000000000e+01,5.638091405250267307e-01,1.615252339869641951e-01,1.000285742952000262e-01,-3.563028545169589362e-02,2.237949196673653940e-01,-4.450563076999108923e-06,4.598385503278974024e-03,1.342031760191001420e-02,-2.720607418386474574e+00,4.548530210929781735e-03,-3.365092787447161813e-03,3.699434745550547188e-01
1.600000000000000000e+01,5.582484724541973975e-01,1.892820559276494896e-01,1.000278833260736383e-01,-5.277889730923587125e-02,2.201968188163337947e-01,-6.568437798033759106e-06,4.214593601449322623e-03,1.382145520228358904e-02,-2.674370753031299675e+00,3.659450857081178888e-03,1.105001729210344276e-04,3.699274122825247924e-01
1.625000000000000000e+01,5.505534323702557797e-01,2.165007408991253823e-01,1.000269312770711710e-01,-6.968904311139571817e-02,2.152610601434712945e-01,-8.506082649847941627e-06,3.774833028307114473e-03,1.378744401402823457e-02,-2.628136945580150208e+00,2.234684705688565112e-03,3.505339991970861900e-03,3.699117094552777374e-01
1.650000000000000000e+01,5.407912903698660623e-01,2.430286289799019617e-01,1.000257880377197484e-01,-8.579048091243829388e-02,2.092283674670597782e-01,-9.554710735889179458e-06,3.308012784730005734e-03,1.333155279635509644e-02,-2.581905192981305497e+00,4.560893968047440277e-04,6.343893563311973210e-03,3.698989255592149972e-01
1.675000000000000000e+01,5.290950207340697764e-01,2.687485385423559192e-01,1.000245969307401589e-01,-1.006110289508287681e-01,2.024161956588995115e-01,-9.276795628268794553e-06,2.849639053769408795e-03,1.252411944415937443e-02,-2.535674354090983851e+00,-1.375881914241116428e-03,8.214863981978787547e-03,3.698905987281590479e-01
1.700000000000000000e+01,5.156467031085281150e-01,2.935852444022166718e-01,1.000235288051278260e-01,-1.138406864830774634e-01,1.951676362184487368e-01,-7.669649603596988670e-06,2.434904318297621655e-03,1.148694476103626766e-02,-2.489443297495355978e+00,-2.894242204379316417e-03,8.861817551062758924e-03,3.698870088938134848e-01
1.725000000000000000e+01,5.006544540437524171e-01,3.175046543140511712e-01,1.000227262290387525e-01,-1.253697191311833048e-01,1.877881764124673392e-01,-5.156103680661219616e-06,2.091724200706804142e-03,1.037675286209712756e-02,-2.443211190419193102e+00,-3.759371658750633970e-03,8.251583957398252525e-03,3.698873936132324736e-01
1.750000000000000000e+01,4.843268764869493315e-01,3.405051050991048101e-01,1.000222611798889660e-01,-1.352902851757570579e-01,1.804856770690187462e-01,-2.391082647934200804e-06,1.835833900586667997e-03,9.358420220630148806e-03,-2.396977618020794232e+00,-3.767288941262690767e-03,6.599107179973493463e-03,3.698904593492671200e-01
1.775000000000000000e+01,4.668498748902382700e-01,3.626023368272676684e-01,1.000221240195223876e-01,-1.438585168473749398e-01,1.733314220120224514e-01,1.804166537134725063e-08,1.668901389184143007e-03,8.571993039234174910e-03,-2.350742530424609900e+00,-2.935983551299814042e-03,4.334091790053346514e-03,3.698948967607942895e-01
1.800000000000000000e+01,4.483704695183475808e-01,3.838117836025627394e-01,1.000222440587290595e-01,-1.514234415135258804e-01,1.662567810126638623e-01,1.712505186440244826e-06,1.579666774458345080e-03,8.100646460125477191e-03,-2.304506104307909364e+00,-1.535758535696200421e-03,2.008448203580357784e-03,3.698996461586882556e-01
1.825000000000000000e+01,4.289908286972209384e-01,4.041331166029156763e-01,1.000225233601099994e-01,-1.583384255570897403e-01,1.590911885871782172e-01,2.591744313365201029e-06,1.547576605618164718e-03,7.948388511186503524e-03,-2.258268623740996350e+00,-4.257757424070345253e-05,1.614299159686523148e-04,3.699038666095475492e-01
1.850000000000000000e+01,4.087733268524635921e-01,4.235419116821034780e-01,1.000228608428145455e-01,-1.648770709577329630e-01,1.516348137977965860e-01,2.675125578366319991e-06,1.548122410898637464e-03,8.035373887573490567e-03,-2.212030429333471826e+00,9.836939199725342441e-04,-8.229586087906324253e-04,3.699067990094592195e-01
1.875000000000000000e+01,3.877545908031373445e-01,4.419916738762957320e-01,1.000231587987603643e-01,-1.711760260410762347e-01,1.437470900638621873e-01,1.990268958014346276e-06,1.558912091418741038e-03,8.214783918433422871e-03,-2.165791905539980799e+00,1.067405259530786405e-03,-8.225907335806369874e-04,3.699077780880777322e-01
1.900000000000000000e+01,3.659640318543030957e-01,4.594265262712389775e-01,1.000233254888262535e-01,-1.772207636547267207e-01,1.354244681505362424e-01,6.259910927063809027e-07,1.565318051234929715e-03,8.309200442093038486e-03,-2.119553441343233757e+00,-1.840785770939812940e-05,-1.028426132751222703e-05,3.699064636809692441e-01
1.925000000000000000e+01,3.434410950228135584e-01,4.758014506629447138e-01,1.000232930168090256e-01,-1.828782167006278159e-01,1.268407947472779684e-01,-1.107727689187049189e-06,1.564444946224279823e-03,8.158145778835746223e-03,-2.073315340238233606e+00,-2.147119265238259592e-03,1.202473086121317236e-03,3.699030913215129446e-01
1.950000000000000000e+01,3.202458974682471093e-01,4.911041333977090861e-01,1.000230503454928171e-01,-1.879658390680595259e-01,1.183326814780238795e-01,-2.633395121114870419e-06,1.566313258081558895e-03,7.664229548657357227e-03,-2.027077730514379894e+00,-4.835193915384803330e-03,2.296701495612198801e-03,3.698984677548801669e-01
1.975000000000000000e+01,2.964600373439852388e-01,5.053712375913053112e-01,1.000226651472830991e-01,-1.923350064737067988e-01,1.103280795764638167e-01,-3.328852508615961617e-06,1.591674577770933047e-03,6.824708194411070218e-03,-1.980840554077928362e+00,-7.352858498567141007e-03,2.811092206589236447e-03,3.698936641180767260e-01
2.000000000000000000e+01,2.721775124025408998e-01,5.186928763169551537e-01,1.000222649498835881e-01,-1.959418583249304957e-01,1.032344021059826977e-01,-2.907814896693804861e-06,1.666708467002679184e-03,5.738563383555765618e-03,-1.934603650347642256e+00,-8.924668130954809681e-03,2.487366577577984107e-03,3.698896678079114930e-01
2.025000000000000000e+01,2.474888860275960556e-01,5.312021135659173998e-01,1.000219777114650932e-01,-1.988826412404408883e-01,9.731712915418495868e-02,-1.637278362525599873e-06,1.815769073602335661e-03,4.585688627976649070e-03,-1.888366855028127844e+00,-8.963239160985316673e-03,1.347431610576643344e-03,3.698872978374765363e-01
2.050000000000000000e+01,2.224640165166584249e-01,5.430506741901567347e-01,1.000218697604089296e-01,-2.013822921961523071e-01,9.260563814126271387e-02,-1.620070584197337053e-07,2.054033057519814680e-03,3.582766331746488602e-03,-1.842130007618368426e+00,-7.262137765481250541e-03,-3.234602039953470595e-04,3.698873756977456573e-01
2.075000000000000000e+01,1.971390815155033560e-01,5.543763843931009960e-01,1.000219267578427995e-01,-2.037405680526506724e-01,8.885716612643078383e-02,9.492566268480029666e-07,2.382078356367654283e-03,2.927636651853729802e-03,-1.795892852738811385e+00,-4.080299576329315774e-03,-2.080678055918666267e-03,3.698907860885232157e-01
2.100000000000000000e+01,1.715121377629395261e-01,5.652707495455352449e-01,1.000220888366953609e-01,-2.062541018228474243e-01,8.559321421271638697e-02,1.551246701102020004e-06,2.783988834512424702e-03,2.748059607260101324e-03,-1.749654951079706366e+00,-8.189687831967702920e-05,-3.473150538831080384e-03,3.698980845322144551e-01
2.125000000000000000e+01,1.455485842473541735e-01,5.757554364225671018e-01,1.000223046942441268e-01,-2.091402916891809682e-01,8.220019292953906209e-02,1.870303614264266331e-06,3.229632502708028926e-03,3.070093926791958583e-03,-1.703415748438859678e+00,3.856100375810262142e-03,-4.189324730346519719e-03,3.699087797043361658e-01
2.150000000000000000e+01,1.191946737193011058e-01,5.857739927166796257e-01,1.000225561436922234e-01,-2.124871439038119869e-01,7.806520226349074332e-02,2.142272702290591685e-06,3.680572779642340715e-03,3.815656049312540765e-03,-1.657174829951796546e+00,6.908236231191556241e-03,-4.143656564946568595e-03,3.699209043437672317e-01
2.175000000000000000e+01,9.239479806575803811e-02,5.952006134908834900e-01,1.000228376092818644e-01,-2.162428304803504509e-01,7.270611976338753335e-02,2.319431615684968644e-06,4.098003049860513523e-03,4.829746345901992158e-03,-1.610932208898872897e+00,8.547339623983268853e-03,-3.475233387196909832e-03,3.699314543946706779e-01
2.200000000000000000e+01,6.510749502234473851e-02,6.038626449604471702e-01,1.000231204767888377e-01,-2.202438623029024656e-01,6.585728640341238782e-02,2.128416854785672788e-06,4.450485011676007067e-03,5.928306704841967284e-03,-1.564688432191223555e+00,8.687955643051293447e-03,-2.465452931661827902e-03,3.699376528816555876e-01
2.225000000000000000e+01,3.731617859760451295e-02,6.115695626609561897e-01,1.000233444219671558e-01,-2.242672656222166327e-01,5.748764147953859538e-02,1.389828817259996600e-06,4.719333746879599868e-03,6.951077538376955814e-03,-1.518444399877290074e+00,7.677496987313152041e-03,-1.413497408473875271e-03,3.699383054588320507e-01
2.250000000000000000e+01,9.032958342112800548e-03,6.181397406442279419e-01,1.000234473371391097e-01,-2.280852056346532042e-01,4.775157946921123470e-02,2.606501097706684467e-07,4.900231553929936326e-03,7.802582290053138372e-03,-1.472200997861120797e+00,6.142468354599810339e-03,-5.230458762024507409e-04,3.699343778642015246e-01
2.275000000000000000e+01,-1.970343008539496288e-02,6.234178775450759380e-01,1.000234066967792823e-01,-2.315025195450433337e-01,3.689538594886025702e-02,-8.273943720475697177e-07,5.000843565552274758e-03,8.468977519331849155e-03,-1.425958762466240870e+00,4.751102973727975957e-03,1.548754206775776086e-04,3.699284549654863752e-01
2.300000000000000000e+01,-4.883267641182580804e-02,6.272797941719117087e-01,1.000232568310639031e-01,-2.343671760505905421e-01,2.515544207381297317e-02,-1.447128678476760049e-06,5.035456868578602925e-03,9.007320661156153346e-03,-1.379717750577816204e+00,3.983383092232896730e-03,7.055883825976959779e-04,3.699234659166919514e-01
2.325000000000000000e+01,-7.827758255825693900e-02,6.296259522278878640e-01,1.000230712793873517e-01,-2.365562073686645339e-01,1.268376842855342690e-02,-1.415356664631457303e-06,5.018545043532774731e-03,9.513459986012126265e-03,-1.333477644175071752e+00,3.991281233900642079e-03,1.277031384514570878e-03,3.699214154777681340e-01
2.350000000000000000e+01,-1.079460520106612642e-01,6.303687280696906869e-01,1.000229272183297408e-01,-2.379496210766858244e-01,-4.770043446894604616e-04,-8.392651730263713487e-07,4.959375723694608822e-03,1.008144329538327236e-02,-1.287237996836939402e+00,4.590081960758997728e-03,1.987673012147220426e-03,3.699226944752636026e-01
2.375000000000000000e+01,-1.377299145566953098e-01,6.294199664076711720e-01,1.000228746804409236e-01,-2.384082741361368829e-01,-1.436720065748067765e-02,-1.816750584061608571e-08,4.859278590353984309e-03,1.076868905922366906e-02,-1.240998495414214808e+00,5.367113666769615828e-03,2.858064115909164649e-03,3.699261304930701044e-01
2.400000000000000000e+01,-1.675019472205394599e-01,6.266843555015814138e-01,1.000229205533272742e-01,-2.377680449693022613e-01,-2.904840021522221358e-02,6.768853608868815840e-07,4.712188413745085035e-03,1.157718371307913871e-02,-1.194759138363665762e+00,5.851151216606570102e-03,3.791580895728048281e-03,3.699296105798190459e-01
2.425000000000000000e+01,-1.971134921734933876e-01,6.220614027531773393e-01,1.000230257290163349e-01,-2.358544588599127134e-01,-4.453238101539540306e-02,8.937890981466090900e-07,4.507962831623934553e-03,1.245382209546628399e-02,-1.148520276063747847e+00,5.671706368246181261e-03,4.604416551412602275e-03,3.699309619783179848e-01
2.450000000000000000e+01,-2.263950231984253880e-01,6.154555177068388172e-01,1.000231127345487109e-01,-2.325134002840520686e-01,-6.072545193902601640e-02,3.817540627217570969e-07,4.237151482178990076e-03,1.330595831815538019e-02,-1.102282502321481061e+00,4.654507186795497908e-03,5.083854487679014857e-03,3.699287547941532139e-01
2.475000000000000000e+01,-2.551610801212719215e-01,6.067911720816628884e-01,1.000230838790070881e-01,-2.276482792295664304e-01,-7.740334646793911588e-02,-9.258370060649185929e-07,3.895620091282938919e-03,1.402402819822579950e-02,-1.056046435583083865e+00,2.835119809699485505e-03,5.046540727191045628e-03,3.699227503384712734e-01
2.500000000000000000e+01,-2.832197012642099221e-01,5.960290232589082748e-01,1.000228477936153243e-01,-2.212534380639325227e-01,-9.421924791221156226e-02,-2.867424259068053884e-06,3.487733593009112107e-03,1.450283455157192966e-02,-1.009812473014943590e+00,4.079038206855313477e-04,4.375644125846981855e-03,3.699138694428393270e-01
2.525000000000000000e+01,-3.103853821800198753e-01,5.831792711723057243e-01,1.000223466255293486e-01,-2.134367164334617095e-01,-1.107373437324498250e-01,-5.087090481988903823e-06,3.027478976707418182e-03,1.465605960457576525e-02,-9.635806133054772848e-01,-2.351962571484383663e-03,3.031469914977913491e-03,3.699037627499663361e-01
2.550000000000000000e+01,-3.364939874539575326e-01,5.683098245963849049e-01,1.000215744336264284e-01,-2.044284621822387571e-01,-1.264798199567115367e-01,-7.132191572545505742e-06,2.537645470167635125e-03,1.442299878944808267e-02,-9.173504116311862466e-01,-5.155199366533538829e-03,1.045338446620646539e-03,3.698942203839388765e-01
2.575000000000000000e+01,-3.614179258668441808e-01,5.515483276789168166e-01,1.000205822176612885e-01,-1.945773603183311717e-01,-1.409765743723151443e-01,-8.559549023600744158e-06,2.047685923349341474e-03,1.377032869392969157e-02,-8.711210729435953093e-01,-7.731957686963837617e-03,-1.486469402635298611e-03,3.698866654963747225e-01
2.600000000000000000e+01,-3.850800060916531042e-01,5.330781453798564273e-01,1.000194715601145229e-01,-1.843339573045605084e-01,-1.538117331928079423e-01,-9.009675394476587113e-06,1.591008242731948349e-03,1.269341482001190742e-02,-8.248916433295170325e-01,-9.833040780174360368e-03,-4.395966593109723076e-03,3.698818548800741901e-01
2.625000000000000000e+01,-4.074644106100375751e-01,5.131288198429608816e-01,1.000183807746298503e-01,-1.742211654561121037e-01,-1.646658277600475950e-01,-8.258726814325978387e-06,1.202223406971505201e-03,1.122071032698631829e-02,-7.786612424299317325e-01,-1.121861954205536326e-02,-7.424358473711139585e-03,3.698797799784429574e-01
2.650000000000000000e+01,-4.286230135720406342e-01,4.919614923866317824e-01,1.000174638812565131e-01,-1.647893191775605948e-01,-1.733543514518759432e-01,-6.286465112218762717e-06,9.144902901793129863e-04,9.421666858781473433e-03,-7.324292824643243716e-01,-1.166105345912593801e-02,-1.020672449579879473e-02,3.698797299678696637e-01
2.675000000000000000e+01,-4.486749693315024712e-01,4.698497895733796947e-01,1.000168593821561674e-01,-1.565539686658034280e-01,-1.798613797221021160e-01,-3.365793273489429698e-06,7.567829248072622432e-04,7.414688105555191332e-03,-6.861956194276735976e-01,-1.097970746015049757e-02,-1.228562716519247811e-02,3.698805410000553517e-01
2.700000000000000000e+01,-4.677975155001632968e-01,4.470571183652978786e-01,1.000166499092141753e-01,-1.499190007062902730e-01,-1.843623887439647668e-01,-1.029958443600609685e-07,7.508416645519757618e-04,5.368940737351847979e-03,-6.399605745076789587e-01,-9.104884274995445406e-03,-1.317338596989530743e-02,3.698810931654502032e-01
2.725000000000000000e+01,-4.862067206038345746e-01,4.238123251990784102e-01,1.000168263098377419e-01,-1.450951470056950077e-01,-1.872265202089162806e-01,2.685297140223171310e-06,9.078012909419370642e-04,3.493939192687775617e-03,-5.937247729000397767e-01,-6.146114665444997113e-03,-1.246301557021312241e-02,3.698810021898403799e-01
2.750000000000000000e+01,-5.041286720346879191e-01,4.002869435239838070e-01,1.000172807500315231e-01,-1.420315039643391120e-01,-1.889885864879331245e-01,4.300469968965988624e-06,1.224915441488568174e-03,2.014126577936389915e-03,-5.474888064658265385e-01,-2.429012667929092168e-03,-9.961943534691217531e-03,3.698811997594091960e-01
2.775000000000000000e+01,-5.217640993413154016e-01,3.765781670006082549e-01,1.000178476801790034e-01,-1.403813392595233966e-01,-1.902866366950414223e-01,4.557815667280207801e-06,1.683213774031104212e-03,1.131128020653902107e-03,-5.012528360311361286e-01,1.528539731751672476e-03,-5.803244336293261404e-03,3.698839164811454361e-01
2.800000000000000000e+01,-5.392519521135622496e-01,3.527016032571431148e-01,1.000183833607217881e-01,-1.395201070241841590e-01,-1.917707246948479050e-01,3.964133104320441562e-06,2.247115516362857904e-03,9.817808385855475960e-04,-4.550163467510057735e-01,5.108000329496509631e-03,-4.869977552945519176e-04,3.698917438983070349e-01
2.825000000000000000e+01,-5.566390610830849184e-01,3.285964603770227255e-01,1.000188401894609586e-01,-1.386227342197656753e-01,-1.939990894808570343e-01,3.454333426266102206e-06,2.866830848830054755e-03,1.603274628026444453e-03,-4.087782596821817327e-01,7.729389303144265470e-03,5.178791870340997486e-03,3.699060111895464131e-01
2.850000000000000000e+01,-5.738629004736045536e-01,3.041432817894708096e-01,1.000192820100625074e-01,-1.367913966185209940e-01,-1.973449655286783622e-01,3.767621992761868745e-06,3.483794600506149274e-03,2.916437924209483272e-03,-3.625374359435534766e-01,8.996637705407118171e-03,1.023712840604504466e-02,3.699253434615337732e-01
2.875000000000000000e+01,-5.907523125009722653e-01,2.791913512759489624e-01,1.000198193846987132e-01,-1.332090423462717610e-01,-2.019374013481557706e-01,4.873840196723585885e-06,4.038536855829900560e-03,4.734156148011318260e-03,-3.162933580537682365e-01,8.800785561664595247e-03,1.380440733064136789e-02,3.699454373208247437e-01
2.900000000000000000e+01,-6.070472062082677978e-01,2.535903823453393713e-01,1.000205023451070790e-01,-1.272835483908646148e-01,-2.076518662910237512e-01,5.907609617813221547e-06,4.479569170321415043e-03,6.795009704548034789e-03,-2.700466085332641208e-01,7.343929361708287362e-03,1.529148754293503144e-02,3.699604972833800409e-01
2.925000000000000000e+01,-6.224337171543042890e-01,2.272199562433245001e-01,1.000212464384980376e-01,-1.187471359417851535e-01,-2.141530640254758200e-01,5.721991390031826330e-06,4.771358936228226738e-03,8.814511960415508107e-03,-2.237988361782222435e-01,5.073680864713840145e-03,1.455165687560459019e-02,3.699657189757476483e-01
2.950000000000000000e+01,-6.365874970681673073e-01,2.000108328972498850e-01,1.000218496032530130e-01,-1.076867206802031435e-01,-2.209776906782894845e-01,3.686181939006023870e-06,4.899501730234324080e-03,1.054061192405028428e-02,-1.775521903706619165e-01,2.550483521697306105e-03,1.190494471259898046e-02,3.699594447326395308e-01
2.975000000000000000e+01,-6.492159452895628347e-01,1.719545511372681801e-01,1.000220924959572821e-01,-9.450003906667159281e-02,-2.276341358073575016e-01,1.465579182520624482e-07,4.871825682054747517e-03,1.179872517230525289e-02,-1.313085210306295381e-01,2.942613066846664661e-04,8.031288577003947368e-03,3.699437733758902391e-01
3.000000000000000000e+01,-6.600909077381955647e-01,1.431008933957617080e-01,1.000218551652797272e-01,-7.979304740835746479e-02,-2.336931449651972748e-01,-3.761937567587558741e-06,4.715201908104098456e-03,1.251522055670793894e-02,-8.506876247224853804e-02,-1.338253724018303396e-03,3.772841418395562422e-03,3.699233914424548963e-01
3.025000000000000000e+01,-6.690663529143162647e-01,1.135457646335382015e-01,1.000211759991778693e-01,-6.424883541630180273e-02,-2.388489195816145272e-01,-6.767830794370150356e-06,4.468959720678630267e-03,1.271561702239467490e-02,-3.883277140875388694e-02,-2.210480346503281707e-03,-8.425444704800303709e-05,3.699034580771325409e-01
3.050000000000000000e+01,-6.760796960077528617e-01,8.341391587639915284e-02,1.000202252299815381e-01,-4.850231157666313325e-02,-2.429413052112413263e-01,-8.095800988532765344e-06,4.176646074090844575e-03,1.250166086835482332e-02,7.400396743612387869e-03,-2.390626563730438928e-03,-2.978997294572293363e-03,3.698877608975750797e-01
3.075000000000000000e+01,-6.811393779775747337e-01,5.284130711201502628e-02,1.000192224425146548e-01,-3.304802730306084096e-02,-2.459419502676125080e-01,-7.707611503300198239e-06,3.878156931539763520e-03,1.201684883199170654e-02,5.363200461371607497e-02,-2.083736476703314071e-03,-4.654331595694721248e-03,3.698779238309604089e-01
3.100000000000000000e+01,-6.843038845311354423e-01,2.196091516503049373e-02,1.000183525612235030e-01,-1.819484983496226851e-02,-2.479162701845115391e-01,-6.123099008529285986e-06,3.603943028666934355e-03,1.141106478213938305e-02,9.986320319803025647e-02,-1.543831781428626516e-03,-5.145019539436561200e-03,3.698736710271626760e-01
3.125000000000000000e+01,-6.856581569749605753e-01,-9.105971839616103236e-03,1.000177193368618211e-01,-4.066909177269004659e-03,-2.489765449537216790e-01,-4.052991994296018068e-06,3.372221357984634023e-03,1.081219695989097014e-02,1.460947982255507982e-01,-9.957059640908676266e-04,-4.704663557670029500e-03,3.698736262383717777e-01
3.150000000000000000e+01,-6.852925665437936686e-01,-4.025279187476701187e-02,1.000173426540939131e-01,9.359824301399383845e-03,-2.492399404908747784e-01,-2.095379524870269741e-06,3.189216331342088241e-03,1.030824998847334854e-02,1.923272104789583159e-01,-5.835532220871613796e-04,-3.708621985573478785e-03,3.698760910053827677e-01
