time_total,x,y,z,vx,vy,vz,roll,pitch,yaw,roll_rate,pitch_rate,yaw_rate
-01,9.990004369628747993e-02,1.856801796717102160e-01,-7.954934996450986617e-02,4.039269152602984673e-04,-3.923066636579860232e-03,1.048565624719505554e-02,-2.271632451769341809e+00,1.743396538666685050e-02,9.357643721833291614e-03,-3.931952688417580388e-01
2.500000000000000000e-01,3.043363265885160596e-01,4.328460833637601257e-01,9.994218540948048013e-02,1.804958506377832839e-01,-9.299110981922562025e-02,2.807398362079836177e-04,-6.387592723691258925e-03,1.088321178773522455e-02,-2.320799593747893130e+00,1.212245367177835001e-02,1.331316531042669310e-02,-3.930650613804286819e-01
5.000000000000000000e-01,3.266320985979543345e-01,4.202617889140067287e-01,9.997106192940004299e-02,1.765233399741113485e-01,-1.079980108966458879e-01,1.886393319265680668e-04,-7.889566920184125712e-03,1.054147328039507954e-02,-2.369943006223616866e+00,6.768179285835307282e-04,7.154209148469357384e-03,-3.929821538331274566e-01
7.500000000000000000e-01,3.484667425394679663e-01,4.057862447313629328e-01,9.999004736527296322e-02,1.729177128044764311e-01,-1.229565637546930768e-01,1.215730033226478850e-04,-7.696074972211835140e-03,9.808260671030953962e-03,-2.419061475613056622e+00,-9.987311736593371819e-03,1.017997313965324961e-04,-3.929523884577735271e-01
1.000000000000000000e+00,3.698183915860737692e-01,3.895333113430251570e-01,1.000022730825134848e-01,1.686923750582751125e-01,-1.362739477371513186e-01,7.931090532435332383e-05,-6.284401228626098311e-03,8.928569955868492780e-03,-2.468167603455363235e+00,-1.509590722719527690e-02,-2.887843019064975907e-03,-3.929606169166533491e-01
1.250000000000000000e+00,3.905777869147933901e-01,3.717720200952489007e-01,1.000105305941326739e-01,1.634727810821490490e-01,-1.471164315269353762e-01,5.593066979411919024e-05,-4.610109691003751869e-03,8.062037730393541851e-03,-2.517274910548114697e+00,-1.369198334688942822e-02,-1.819482550946781556e-03,-3.929838915839604097e-01
1.500000000000000000e+00,4.106314583171275512e-01,3.528127789250950497e-01,1.000165762000820857e-01,1.574962139919438009e-01,-1.556111448639610761e-01,4.224907581370720169e-05,-3.440530330616440712e-03,7.348458305875936979e-03,-2.566390306460202719e+00,-7.919551102298189385e-03,4.896683210836270950e-04,-3.930051424565215168e-01
1.750000000000000000e+00,4.299124341832438745e-01,3.329013729358087925e-01,1.000212116981228083e-01,1.511787770488102201e-01,-1.625688646734149978e-01,3.271862998000920676e-05,-3.047688226243757455e-03,6.948130695593053921e-03,-2.615514105517813714e+00,-1.101708293464307396e-03,1.167421089442486921e-03,-3.930192507126410995e-01
2.000000000000000000e+00,4.483921984062022581e-01,3.121645257125853501e-01,1.000248246016263859e-01,1.446715519392155480e-01,-1.689938509713760639e-01,2.568864811454559153e-05,-3.261883449025142299e-03,7.020651185737061296e-03,-2.664643683200694557e+00,4.045662828873163031e-03,-9.622369615416889298e-04,-3.930296539600941497e-01
2.250000000000000000e+00,4.660323872410080392e-01,2.906151435945348305e-01,1.000276885680171784e-01,1.376775993432966250e-01,-1.756548710495689225e-01,2.057057855815244091e-05,-3.713417517831641822e-03,7.657307303102748978e-03,-2.713776381473107069e+00,6.293478948379377554e-03,-5.115187849774098516e-03,-3.930407249802730929e-01
2.500000000000000000e+00,4.827338884895388538e-01,2.681981471393780070e-01,1.000299997029309440e-01,1.295733408665435960e-01,-1.828703400404967094e-01,1.667908998678302690e-05,-4.070796667865244668e-03,8.814047970925362879e-03,-2.762910162089446953e+00,5.827597784167201124e-03,-9.357072721428100551e-03,-3.930527423840530776e-01
2.750000000000000000e+00,4.983145750683248276e-01,2.448482177762667245e-01,1.000318611146902292e-01,1.197108507830492302e-01,-1.905167973859378250e-01,1.321456996415613736e-05,-4.164964761220179938e-03,1.028992580529413357e-02,-2.812043264906820994e+00,3.640929882782538256e-03,-1.173734578496337354e-02,-3.930619036915012354e-01
3.000000000000000000e+00,5.125269078525790389e-01,2.205362704684114827e-01,1.000332659014536302e-01,1.077254605072456711e-01,-1.981788441904561993e-01,9.229430988666856609e-06,-3.989859752907913212e-03,1.176839476153308285e-02,-2.861174241285488584e+00,8.766870607395359227e-04,-1.113866613851059034e-02,-3.930635152877773320e-01
3.250000000000000000e+00,5.251067115822175557e-01,1.952936242850528692e-01,1.000340964138830974e-01,9.371559550724754828e-02,-2.053393816279143191e-01,4.013406113083646222e-06,-3.632712600816586767e-03,1.290602193506343483e-02,-2.910302323350490550e+00,-1.582942769360412127e-03,-7.583354021656059374e-03,-3.930554168466180998e-01
3.500000000000000000e+00,5.358330521716648809e-01,1.692138999293643364e-01,1.000342064346303600e-01,7.824532522822381930e-02,-2.115384899460133195e-01,-2.096688228954819419e-06,-3.197886888308484107e-03,1.343280352209287598e-02,-2.959427531951525747e+00,-3.238650916690719896e-03,-2.053028783909057169e-03,-3.930395780087349022e-01
3.750000000000000000e+00,5.445781117972977592e-01,1.424388638313443534e-01,1.000335760670235802e-01,6.219591876955672671e-02,-2.164716342580416397e-01,-7.527458180246800681e-06,-2.762729417579054894e-03,1.322720094047360670e-02,-3.008550456968869913e+00,-3.918633967694310459e-03,3.964170930767433980e-03,-3.930211480259654944e-01
4.000000000000000000e+00,5.513324131467672862e-01,1.151359664854763598e-01,1.000324142378021947e-01,4.653579670254130024e-02,-2.200279414151028179e-01,-1.042957770403241475e-05,-2.370485979556634024e-03,1.234306399560094331e-02,-3.057672011103369059e+00,-3.680220442538191528e-03,8.976423539171479032e-03,-3.930057274195047357e-01
4.250000000000000000e+00,5.562002945289699074e-01,8.747431130054698911e-02,1.000311048924963364e-01,3.208699601972736515e-02,-2.222808809510059824e-01,-9.997771607270825487e-06,-2.044011913646453290e-03,1.098511540874209588e-02,-3.106793245906015244e+00,-2.738618832013011827e-03,1.189109047525057153e-02,-3.929967188708762826e-01
4.500000000000000000e+00,5.593694699932415526e-01,5.960417210482620021e-02,1.000350904750509501e-01,1.934999644170409469e-02,-2.234427099325181354e-01,1.114038218062237025e-04,-1.801372162258151229e-03,9.445958452538948114e-03,3.126395613900463832e+00,-1.355582403662799074e-03,1.225611709526977164e-02,-3.841386972466269700e-01
4.750000000000000000e+00,5.610650502511521642e-01,3.164404499866731169e-02,1.000382789517533372e-01,8.434165594818384196e-03,-2.238008238936380345e-01,-1.217112454445409470e-05,-1.660862666568327373e-03,8.024031045894802761e-03,3.077913512608434488e+00,-8.509849091726598967e-05,1.028508158418867460e-02,-3.904660811140268084e-01
5.000000000000000000e+00,5.615011615632919950e-01,3.674821981188616457e-03,1.000360722120079149e-01,-9.217674944229212099e-04,-2.236466576530956318e-01,-1.789129807322494507e-05,-1.625158251184162257e-03,6.952605103699842706e-03,3.028960651794583736e+00,8.947620130532997701e-04,6.787510124215409731e-03,-3.923261004976011934e-01
5.250000000000000000e+00,5.608419507215823829e-01,-2.425392425212639230e-02,1.000342158768406237e-01,-9.221617038327141469e-03,-2.231911355470165836e-01,-1.187062540026476993e-05,-1.694257071045208573e-03,6.341840628889897254e-03,2.979880435499985936e+00,1.406250914377349392e-03,2.904156907339048698e-03,-3.928276139937056932e-01
5.500000000000000000e+00,5.591821258423441687e-01,-5.211312956055606099e-02,1.000330697578066391e-01,-1.703924772270542717e-02,-2.225513683069357540e-01,-6.985064390323930854e-06,-1.849941020022239854e-03,6.161602054518290454e-03,2.930765324770126856e+00,1.492803226324544838e-03,-2.173465569810659128e-04,-3.929656351790113966e-01
5.750000000000000000e+00,5.565499085020246817e-01,-7.988232707310002900e-02,1.000323984311696224e-01,-2.484118751959589477e-02,-2.217554044919895773e-01,-4.170099713298203260e-06,-2.060719220887378186e-03,6.259929357024485511e-03,2.881640279413572703e+00,1.412055729291484141e-03,-1.737770142067916919e-03,-3.930049126973869655e-01
6.000000000000000000e+00,5.529295647055204599e-01,-1.075411289081220217e-01,1.000319640162495444e-01,-3.285665022683144365e-02,-2.207880731729012780e-01,-3.065877975641458039e-06,-2.292928447504192190e-03,6.412997108205123822e-03,2.832512368720937257e+00,1.528958018556903810e-03,-1.362989114443097574e-03,-3.930151080310944622e-01
6.250000000000000000e+00,5.482950294450903428e-01,-1.350680547413149746e-01,1.000315828731240669e-01,-4.103163456850190960e-02,-2.196576009376179917e-01,-3.179653822480870571e-06,-2.523219731232748120e-03,6.394132331194128833e-03,2.783383973258754640e+00,2.145444419619807475e-03,5.729812401418066898e-04,-3.930143408236368985e-01
6.500000000000000000e+00,5.426429894678276300e-01,-1.624474304174797767e-01,1.000311466689704221e-01,-4.908002041668400872e-02,-2.184531070999063684e-01,-3.789117818668444849e-06,-2.746974562435897885e-03,6.044374903940897756e-03,2.734256148616930560e+00,3.332617742464875563e-03,3.209803078434973582e-03,-3.930080314901263638e-01
6.750000000000000000e+00,5.360140401318570502e-01,-1.896812501810257734e-01,1.000306493118842260e-01,-5.661555647690359044e-02,-2.173636347777375688e-01,-4.037449724534490538e-06,-2.979313198508499929e-03,5.325944373927743794e-03,2.685129375039129407e+00,4.839020121307665602e-03,5.422843885469651702e-03,-3.929992576165001750e-01
7.000000000000000000e+00,5.284942565112085155e-01,-2.167999279573699922e-01,1.000301768267229524e-01,-6.332351323998867965e-02,-2.166419673572350102e-01,-3.383479637715675098e-06,-3.248496553338493971e-03,4.343738963594052406e-03,2.636003715396555425e+00,6.121753619632418035e-03,6.168015302016245129e-03,-3.929911416411009939e-01
7.250000000000000000e+00,5.201956628777442138e-01,-2.438650480333366677e-01,1.000298401288499811e-01,-6.911792965182166071e-02,-2.165169932482189086e-01,-1.971934135679778213e-06,-3.584200831131542555e-03,3.328180038205567209e-03,2.586878863976984189e+00,6.499478615086463039e-03,4.803650360092497074e-03,-3.929871605698503911e-01
7.500000000000000000e+00,5.112207705414485437e-01,-2.709590765818761793e-01,1.000296941866796463e-01,-7.423428484051776410e-02,-2.170791166498980962e-01,-4.524305394271726171e-07,-4.004554849752039146e-03,2.583102463749983608e-03,2.537754098883660880e+00,5.379096355970568871e-03,1.291790207986309507e-03,-3.929910095015701210e-01
7.750000000000000000e+00,5.016215105901284943e-01,-2.981610178257690924e-01,1.000297162101269483e-01,-7.922676910588523358e-02,-2.181763426024850017e-01,7.022172511435915974e-07,-4.505852332087358775e-03,2.411744632704461259e-03,2.488628161364469182e+00,2.480588253011640435e-03,-3.777554102198283064e-03,-3.930060198001835148e-01
8.000000000000000000e+00,4.913649642682121899e-01,-3.255118895200012075e-01,1.000298694583465625e-01,-8.486756678514285890e-02,-2.193594197689348047e-01,1.761672696411864540e-06,-5.057817249354184044e-03,3.039300560464731037e-03,2.439499282030520799e+00,-2.013918943830625592e-03,-9.338270233926648095e-03,-3.930337549020286869e-01
8.250000000000000000e+00,4.803167575816341128e-01,-3.529780476870956196e-01,1.000301938272249447e-01,-9.197358645512210273e-02,-2.199026871743882949e-01,3.558709849160833302e-06,-5.605709583135985198e-03,4.550610541733256416e-03,2.390365636930447568e+00,-7.434526562009387274e-03,-1.412398125677851585e-02,-3.930720559978985174e-01
8.500000000000000000e+00,4.682928828718503356e-01,-3.803796043964480234e-01,1.000323124627344046e-01,-9.909834296080478888e-02,-2.168864599635108026e-01,5.577016639973133829e-05,7.388337395906133427e-03,6.575136803357739361e-03,2.360861108358844440e+00,-2.166326297999695005e-01,1.959001133333283795e-01,4.023490306565816188e-02
8.750000000000000000e+00,4.566575102953095433e-01,-4.058883248003438138e-01,1.000900670552863636e-01,-8.125041216915056264e-02,-1.852531551851847591e-01,9.877053281434323116e-04,5.410212655582759267e-02,7.377949509601964759e-03,2.386340080919572948e+00,-2.786605777234059667e-01,2.638627242236868398e-01,2.978175420343175395e-01
9.000000000000000000e+00,4.496718054317771496e-01,-4.247064955352411464e-01,1.002447938581455950e-01,-2.750680404153730413e-02,-1.123212772720047770e-01,1.106587274861004205e-03,9.058077780793645506e-02,6.479608129735977586e-03,2.429153554199087850e+00,-1.269513335714980429e-01,1.243405751383331731e-01,3.663866939184058924e-01
9.250000000000000000e+00,4.506773538830000092e-01,-4.326810993402042116e-01,1.002809110937968179e-01,4.147067999105753106e-02,-1.720576695543901344e-02,-5.962038695683211141e-04,9.503884835011887355e-02,5.355293173936716278e-03,2.476475069583265576e+00,7.316171619978631413e-02,-5.193819494081013816e-02,3.857721601281010604e-01
9.500000000000000000e+00,4.598236234798329658e-01,-4.289179698784208461e-01,1.001217564479909145e-01,9.935809644376776550e-02,7.125134964189740183e-02,-1.621449784636355305e-03,7.197823983032669570e-02,5.917363321045981603e-03,2.525008964281381107e+00,1.950538834353126860e-01,-1.548345518280284105e-01,3.914729427010193996e-01
9.750000000000000000e+00,4.745882051534220936e-01,-4.156747356293006290e-01,9.994669666720762402e-02,1.310299029627254586e-01,1.334295091377956655e-01,-1.009834497817545902e-03,3.896834063770745343e-02,8.542546832133072338e-03,2.573841267107385811e+00,2.018716194322152935e-01,-1.600763547182155189e-01,3.932212684870797226e-01
1.000000000000000000e+01,4.915454321602059085e-01,-3.966121850064684429e-01,9.988506939982685906e-02,1.363444939914567056e-01,1.660742480625466144e-01,-7.115652470608085196e-05,1.233510178555882221e-02,1.180689571560312318e-02,2.622771361343406937e+00,1.297766343355243601e-01,-1.009403716109473353e-01,3.938247938214032851e-01
1.025000000000000000e+01,5.079618830509334826e-01,-3.749192220663055131e-01,9.990516994408180085e-02,1.249341203838974790e-01,1.782848741907956669e-01,2.782392525295375950e-04,-4.464532591077597463e-04,1.365015413273816709e-02,2.671843227351935024e+00,4.058244679448281406e-02,-2.635703218911521206e-02,3.938451432177607070e-01
1.050000000000000000e+01,5.225189770062343975e-01,-3.523236233765517089e-01,9.993891668819650242e-02,1.085495609018398838e-01,1.827428587865913556e-01,2.370139760250424465e-04,-9.512864556430056110e-04,1.279500916377421423e-02,2.721044834942599078e+00,-1.864748136695787081e-02,2.779884143988412687e-02,3.934719115633005804e-01
1.075000000000000000e+01,5.351892897986777475e-01,-3.291468552692896066e-01,9.996363645439605705e-02,9.560834227280673447e-02,1.885436289196761872e-01,1.691399981831293140e-04,4.481027915766933913e-03,9.434010814263087130e-03,2.770260274126288724e+00,-3.358602936282840262e-02,4.917068833434783820e-02,3.930375077589641775e-01
1.100000000000000000e+01,5.466688006223895391e-01,-3.049705825108144364e-01,9.998250972597347297e-02,8.942601687465757954e-02,1.985968807005537295e-01,1.351262175244735653e-04,9.673729947967599219e-03,4.922970337983905223e-03,2.819409987013890895e+00,-1.720875135314942073e-02,4.390079635837462746e-02,3.927924151523716212e-01
1.125000000000000000e+01,5.577857421982016506e-01,-2.793465839760563285e-01,9.999681232893234406e-02,8.925355767313732092e-02,2.110992826121007304e-01,9.305871805207945470e-05,1.147409904488142472e-02,9.239872482126162880e-04,2.868511589084760782e+00,7.306726087932479373e-03,2.547826741535887812e-02,3.927611684144821647e-01
1.150000000000000000e+01,5.691261871402777395e-01,-2.521830736756938141e-01,1.000056443587972466e-01,9.238562621459756041e-02,2.227448307433697039e-01,5.215802741336048580e-05,9.981315365626785077e-03,-1.384484214404809290e-03,2.917612649087245824e+00,2.213209148688197875e-02,5.706523078573133047e-03,3.928460572438504661e-01
1.175000000000000000e+01,5.809129777939210371e-01,-2.237473115086185405e-01,1.000106341835165225e-01,9.595021081201136892e-02,2.313682150032215501e-01,3.197311543662483186e-05,7.098420786588779605e-03,-1.648187834553524987e-03,2.966730449023891047e+00,2.167963857803621372e-02,-9.191755164346926063e-03,3.929567180241724800e-01
1.200000000000000000e+01,5.930527107754601790e-01,-1.944429094042688655e-01,1.000142378947555533e-01,9.780990598912260581e-02,2.368932842837138952e-01,2.731554072492570320e-05,4.793790884704727043e-03,-2.019682931618471894e-04,3.015858923479544984e+00,1.072007530457869985e-02,-1.809397353479316045e-02,3.930505044895413747e-01
1.225000000000000000e+01,6.052418536673087601e-01,-1.645742678557282068e-01,1.000176270901381170e-01,9.668842026860782757e-02,2.407513261153736150e-01,2.715896666813362806e-05,4.042542366588447629e-03,2.311020992440184288e-03,3.064994429371608931e+00,-1.951532776340096555e-03,-2.250313356394641195e-02,3.931172369555109292e-01
1.250000000000000000e+01,6.170603662096829645e-01,-1.342362629378061056e-01,1.000210497880473226e-01,9.192765442802611209e-02,2.446457039701178393e-01,2.756052934878476328e-05,4.692498171138464319e-03,5.290323513708671509e-03,3.114139713973934853e+00,-9.455026400327059752e-03,-2.423566611517992408e-02,3.931584320762146478e-01
1.275000000000000000e+01,6.280312790902654596e-01,-1.033512347579741142e-01,1.000314124024176965e-01,8.322990468410111642e-02,2.495383996708561980e-01,1.009298489827357927e-04,5.950014886087037075e-03,8.340389466013151815e-03,-3.119187380720659153e+00,-9.647318633710254623e-03,-2.424724949629102413e-02,3.855854132404208934e-01
1.300000000000000000e+01,6.376573541947296864e-01,-7.179146506428550623e-02,1.000361935401977709e-01,7.055872062809197265e-02,2.553128466503086780e-01,9.155062718555929206e-06,6.988456182438528355e-03,1.124603224496872021e-02,-3.070546021902421430e+00,-4.383019328393028199e-03,-2.269430816251832156e-02,3.911474913680183518e-01
1.325000000000000000e+01,6.454540565206603464e-01,-3.950060088817089476e-02,1.000363833948119952e-01,5.414940207637537750e-02,2.610429611443865761e-01,-2.512193743976197130e-06,7.343653617170146919e-03,1.386377432312610111e-02,-3.021532939860375855e+00,2.401288176914751198e-03,-1.927279176016525805e-02,3.926238859899175426e-01
1.350000000000000000e+01,6.509869844649993631e-01,-6.560531379413131643e-03,1.000357831567821876e-01,3.456785027861097176e-02,2.655567518789445636e-01,-6.844552669785208663e-06,6.995067353862858932e-03,1.602038002409715903e-02,-2.972430628823332643e+00,7.391002484371817643e-03,-1.390450425381430100e-02,3.929995230274750950e-01
1.375000000000000000e+01,6.539149141932623088e-01,2.681445719442684603e-02,1.000346312798739146e-01,1.272134463132382730e-02,2.679656719318096458e-01,-1.157144211729730610e-05,6.196594594705643819e-03,1.750668678205825196e-02,-2.923312741032503936e+00,9.025531292371232958e-03,-6.996327430956731340e-03,3.930758032714889993e-01
1.400000000000000000e+01,6.540280189766217722e-01,6.033289196630980261e-02,1.000328427118100799e-01,-1.022466915000814873e-02,2.679241634230201119e-01,-1.689144746998192368e-05,5.258822032871759804e-03,1.813618195771812130e-02,-2.874195107366832591e+00,7.508807878894566655e-03,5.833771713027861329e-04,3.930683799190755612e-01
1.425000000000000000e+01,6.512705763678642290e-01,9.369580928076734483e-02,1.000304191956192384e-01,-3.300360578973270814e-02,2.656206535787758449e-01,-2.143049829787811833e-05,4.399900461524690852e-03,1.782399550691705914e-02,-2.825078899009134226e+00,4.073564029962279190e-03,7.721042190313250411e-03,3.930388423344236548e-01
1.450000000000000000e+01,6.457414961085432559e-01,1.266531325846222689e-01,1.000275933745881640e-01,-5.443652488045265525e-02,2.616004816280744771e-01,-2.309195018014306583e-05,3.706386571801467168e-03,1.663698127455165779e-02,-2.775963041527851338e+00,1.343312734966692530e-04,1.334033929913784437e-02,3.930090692976531130e-01
1.475000000000000000e+01,6.376717743033316621e-01,1.590339627788488752e-01,1.000248240739343153e-01,-7.360573438099335397e-02,2.565457469854482420e-01,-2.059874466924033540e-05,3.174095741425773682e-03,1.479112317862301199e-02,-2.726846752562316567e+00,-3.254298533319233480e-03,1.664860702334069326e-02,3.929887753819263363e-01
1.500000000000000000e+01,6.273833071174875764e-01,1.907514893728080863e-01,1.000226110565388682e-01,-8.997632797814619776e-02,2.510972665420315164e-01,-1.457035031620097048e-05,2.772170275792130902e-03,1.260291667600049390e-02,-2.677729326950833322e+00,-5.539589773873053458e-03,1.728784916192395091e-02,3.929808098914961967e-01
1.525000000000000000e+01,6.152370593807866550e-01,2.217901369865633854e-01,1.000212692029887745e-01,-1.034455236981260545e-01,2.457465005036193750e-01,-7.115431386544193067e-06,2.486169839857358451e-03,1.041978081582613930e-02,-2.628609970268498852e+00,-6.546853569164212336e-03,1.537142913950422657e-02,3.929831667483419944e-01
1.550000000000000000e+01,6.015799589603628705e-01,2.521831687350438722e-01,1.000208253381391493e-01,-1.143170804034254612e-01,2.407851557551733968e-01,-4.921233480291759545e-07,2.325620069246816211e-03,8.555741455310432106e-03,-2.579488097358008325e+00,-6.290442533700330713e-03,1.142065017478197976e-02,3.929918489639731005e-01
1.575000000000000000e+01,5.866992624232797438e-01,2.819863938237622825e-01,1.000210795234555833e-01,-1.232122948495458642e-01,2.362884805046178427e-01,4.021077385919012055e-06,2.306373432805482442e-03,7.247665816776161819e-03,-2.530363545255601920e+00,-4.860774738806018097e-03,6.236141729980828122e-03,3.930036024836710551e-01
1.600000000000000000e+01,5.707910567575420480e-01,3.112510790017554707e-01,1.000217550754969181e-01,-1.309381404118824810e-01,2.321174354770447479e-01,6.405197846553614928e-06,2.427757818012732209e-03,6.633820856189192802e-03,-2.481236416071489259e+00,-2.423079276789835701e-03,7.433869805684497484e-04,3.930169988987091689e-01
1.625000000000000000e+01,5.539466981923136801e-01,3.399982955178347810e-01,1.000226313329009575e-01,-1.383368850895796420e-01,2.279399076290548609e-01,7.432597151037405966e-06,2.660118584686041714e-03,6.748328448820621779e-03,-2.432106811498403243e+00,7.210556873216803246e-04,-4.158783744545441023e-03,3.930317089785020368e-01
1.650000000000000000e+01,5.361579217245036055e-01,3.681976008348435414e-01,1.000235949514740597e-01,-1.461414546100112677e-01,2.232794159571981907e-01,7.926806525470075248e-06,2.947732195500705685e-03,7.524829680371678507e-03,-2.382974817409948987e+00,4.090884785714900621e-03,-7.733253340960829711e-03,3.930470307803385910e-01
1.675000000000000000e+01,5.173384461717186467e-01,3.957539083081303422e-01,1.000246064090288128e-01,-1.548586355371490975e-01,2.175962929286515690e-01,8.200375577225923278e-06,3.222897435698345199e-03,8.807573107232895271e-03,-2.333840776955482976e+00,7.065330524819816820e-03,-9.516457979291074315e-03,3.930609597218577833e-01
1.700000000000000000e+01,4.973573607496726834e-01,4.225062665026559916e-01,1.000256225724549530e-01,-1.646984524911304648e-01,2.103936736167043298e-01,7.923550858417239190e-06,3.423167252317169725e-03,1.037275319429974141e-02,-2.284705574841684239e+00,9.015833548747102452e-03,-9.394043110231968877e-03,3.930704897913823159e-01
1.725000000000000000e+01,4.760776653678122083e-01,4.482403532687418424e-01,1.000265336076785194e-01,-1.755616556797733319e-01,2.013262076786001276e-01,6.455976507156434398e-06,3.504859458987831175e-03,1.196297331952045004e-02,-2.235570626433508234e+00,9.490747140116639544e-03,-7.618039411417417556e-03,3.930729580051219862e-01
1.750000000000000000e+01,4.533924609059041266e-01,4.727131132644800116e-01,1.000271615123748542e-01,-1.870870936009925989e-01,1.902814778803751106e-01,3.439090059897774319e-06,3.449577211579457625e-03,1.333265883182434275e-02,-2.186437493957758882e+00,8.374844409832583880e-03,-4.745416863797191458e-03,3.930675651558251937e-01
1.775000000000000000e+01,4.292518932474362892e-01,4.956843280747635361e-01,1.000273287380353399e-01,-1.987476444839681722e-01,1.774079002741924815e-01,-7.424725784553315987e-07,3.263853200851374748e-03,1.429526561565400491e-02,-2.137307326831671350e+00,5.950197297724886362e-03,-1.498742029732223584e-03,3.930560616105897020e-01
1.800000000000000000e+01,4.036762068932677194e-01,5.169475185327024880e-01,1.000269554037136605e-01,-2.099709370384112428e-01,1.630781722693327163e-01,-4.987960086604229880e-06,2.973876479155444352e-03,1.475884980373716286e-02,-2.088180445227481030e+00,2.822500549410117150e-03,1.419003627754696593e-03,3.930420945003474387e-01
1.825000000000000000e+01,3.767537578433025058e-01,5.363525608678227918e-01,1.000261178735398632e-01,-2.202542716369966513e-01,1.477985272377996817e-01,-8.021553909464673783e-06,2.617628837511203066e-03,1.473793421378454330e-02,-2.039056290722215170e+00,-2.689528431027750767e-04,3.499868524057132054e-03,3.930295840870249857e-01
1.850000000000000000e+01,3.486266100812006608e-01,5.538149615395117076e-01,1.000250253919532650e-01,-2.292455179147208089e-01,1.320928111315905484e-01,-9.073601352019740600e-06,2.236401242646522507e-03,1.433651698821335890e-02,-1.989933739847457916e+00,-2.691533799433330591e-03,4.538734185438802332e-03,3.930211156686342355e-01
1.875000000000000000e+01,3.194692001691993855e-01,5.693110600522072184e-01,1.000239292573611993e-01,-2.367733952403244524e-01,1.163991272458114318e-01,-8.225519008062318524e-06,1.867241619829506033e-03,1.370684309529500260e-02,-1.940811577526160736e+00,-4.120900456974815884e-03,4.637798724680963942e-03,3.930172321559151083e-01
1.900000000000000000e+01,2.894665523141808361e-01,5.828629631575424908e-01,1.000230227774783764e-01,-2.428276144669991865e-01,1.010116674502876538e-01,-6.235899277371153432e-06,1.537597078191217529e-03,1.299729237598905296e-02,-1.891688882049488596e+00,-4.626634025469901490e-03,4.110662435023923304e-03,3.930168178715796601e-01
1.925000000000000000e+01,2.587973772304532627e-01,5.945200648831936441e-01,1.000223862382454698e-01,-2.475055305955581042e-01,8.608286384285043780e-02,-4.062852147304140568e-06,1.263075079650439461e-03,1.230692097412043606e-02,-1.842565182054381800e+00,-4.607100919680412812e-03,3.327846005662064323e-03,3.930180805094057317e-01
1.950000000000000000e+01,2.276246241333324538e-01,6.043444044326313769e-01,1.000219916453094077e-01,-2.509509841084864301e-01,7.167761796635310767e-02,-2.434550359430546401e-06,1.048631480560769302e-03,1.166199027469892388e-02,-1.793440400659326750e+00,-4.597987779186755476e-03,2.567889675880220997e-03,3.930194592896475436e-01
1.975000000000000000e+01,1.960928310347084536e-01,6.124047040122503338e-01,1.000217468189546349e-01,-2.533094755312935709e-01,5.785128694867837373e-02,-1.650508465059795250e-06,8.925979732828568346e-04,1.102178093050885412e-02,-1.744314691252801586e+00,-5.031052277162638593e-03,1.932962013152490039e-03,3.930200803897495043e-01
2.000000000000000000e+01,1.643292343717855930e-01,6.187796865521063561e-01,1.000215504783810855e-01,-2.547127956714571595e-01,4.471456443095352118e-02,-1.583136022940565233e-06,7.920628329756097732e-04,1.031013077190409168e-02,-1.695188269380933699e+00,-6.040980918442138796e-03,1.356815945238745063e-03,3.930197586357512818e-01
2.025000000000000000e+01,1.324449386798171868e-01,6.235669352136927746e-01,1.000213386283203554e-01,-2.552909244527074573e-01,3.245496076681479714e-02,-1.802856594807839692e-06,7.476156573403754677e-04,9.459807081671460158e-03,-1.646061304342583798e+00,-7.397356945195757497e-03,6.906088564763653058e-04,3.930187339460021190e-01
2.050000000000000000e+01,1.005336005973814784e-01,6.268908899369172172e-01,1.000211088116388647e-01,-2.551963271301517233e-01,2.130336342843185821e-02,-1.801415506872432445e-06,7.656481173253579372e-04,8.452696878022967694e-03,-1.596933893349506306e+00,-8.586237778026386408e-03,-1.808426771054500381e-04,3.930173595672813436e-01
2.075000000000000000e+01,6.866734419234089837e-02,6.289036296302128459e-01,1.000209123744353057e-01,-2.546210564482366268e-01,1.145718540721327346e-02,-1.262009374591274381e-06,8.572748396804914708e-04,7.341191647941761392e-03,-1.547806099624504883e+00,-9.004880610221080092e-03,-1.248927209991470546e-03,3.930159377165878265e-01
2.100000000000000000e+01,3.689186217218438230e-02,6.297747764978549601e-01,1.000208176201005661e-01,-2.537917375355633887e-01,2.989431576610200852e-03,-2.286469348271958010e-07,1.034193186382801862e-03,6.243775033861795332e-03,-1.498677993720085366e+00,-8.190110320976390010e-03,-2.356784445218456942e-03,3.930148079660935045e-01
2.125000000000000000e+01,5.223841113240179287e-03,6.296710420853821599e-01,1.000208665359152427e-01,-2.529387235579714788e-01,-4.221221359611695284e-03,9.645102385902234784e-07,1.302951513650823590e-03,5.317351936085557701e-03,-1.449549630251455001e+00,-5.993377806079133382e-03,-3.247274654721156277e-03,3.930145858101362077e-01
2.150000000000000000e+01,-2.634650110230069356e-02,6.287299502166023846e-01,1.000210548674533018e-01,-2.522480153384070722e-01,-1.051197830581217414e-02,1.963662447627174724e-06,1.659696706025658511e-03,4.716541935677907860e-03,-1.400420951002731229e+00,-2.642908688321323352e-03,-3.658124026511191691e-03,3.930162492268128305e-01
2.175000000000000000e+01,-5.784663752919378538e-02,6.270346418888782525e-01,1.000213471963649209e-01,-2.518125953873785461e-01,-1.639900239026861536e-02,2.642149632613041069e-06,2.087311047550581208e-03,4.553447931335342577e-03,-1.351291694862222670e+00,1.319451297672382317e-03,-3.421799473982637969e-03,3.930208126313465278e-01
2.200000000000000000e+01,-8.930780322737598420e-02,6.245966537804157337e-01,1.000217092937527447e-01,-2.516007118418987498e-01,-2.249141834690141645e-02,3.117743904890449994e-06,2.556024004590459579e-03,4.869742215600233667e-03,-1.302161428630063789e+00,5.193407289202991994e-03,-2.530514601316469041e-03,3.930286574539064159e-01
2.225000000000000000e+01,-1.207488742351802702e-01,6.213513613183609952e-01,1.000221268772156225e-01,-2.514527572506611852e-01,-2.938027737117503840e-02,3.546913225837617211e-06,3.027437338191589326e-03,5.627685649732490358e-03,-1.253029741103621086e+00,8.308026757656803221e-03,-1.144976122861962597e-03,3.930389447293643479e-01
2.250000000000000000e+01,-1.521618637491952974e-01,6.171673142941320744e-01,1.000225947869292503e-01,-2.511087206859398679e-01,-3.753200690782213661e-02,3.898803595787632501e-06,3.460855796260848584e-03,6.720370189456629888e-03,-1.203896514725343314e+00,1.018226763830468520e-02,4.513464168809485288e-04,3.930495824708921115e-01
2.275000000000000000e+01,-1.835024559596256377e-01,6.118671706298929314e-01,1.000230883503530760e-01,-2.502586577587984085e-01,-4.721190595816282531e-02,3.912962507594903534e-06,3.820207737552532446e-03,7.996335179716705308e-03,-1.154762111060867902e+00,1.061801935187394255e-02,1.932624572024956239e-03,3.930578879681264626e-01
2.300000000000000000e+01,-2.146876033327905775e-01,6.052553706098947606e-01,1.000235442057755969e-01,-2.486023443492296481e-01,-5.845275027492374126e-02,3.273972792160276736e-06,4.079809189255587110e-03,9.291086544153224699e-03,-1.105627344533212764e+00,9.713275893092343516e-03,3.018432145706244959e-03,3.930616319980447249e-01
2.325000000000000000e+01,-2.456003294164791906e-01,5.971466313793059033e-01,1.000238697758868006e-01,-2.459026618182917345e-01,-7.107084464488513942e-02,1.860326650414152214e-06,4.227697438022199987e-03,1.045790505682676896e-02,-1.056493243683034100e+00,7.805730497265593593e-03,3.543352249247207989e-03,3.930599159136515808e-01
2.350000000000000000e+01,-2.761000892971225418e-01,5.873898066207354773e-01,1.000239782417323142e-01,-2.420200923029466045e-01,-8.472059240296447857e-02,-1.190163004949906107e-07,4.266016981062256685e-03,1.139172434971246275e-02,-1.007360719334424282e+00,5.369952715501859035e-03,3.490361589101977687e-03,3.930534510118803837e-01
2.375000000000000000e+01,-3.060358273109458072e-01,5.758833075545790603e-01,1.000238276394730536e-01,-2.369217402425362884e-01,-9.897106959074845889e-02,-2.191331722471222397e-06,4.208718217327846005e-03,1.204195370367824869e-02,-9.582302981131698427e-01,2.896462068761764333e-03,2.980338638022357513e-03,3.930441608932865316e-01
2.400000000000000000e+01,-3.352585259822277730e-01,5.625805859468177017e-01,1.000234406960242850e-01,-2.306657575155558193e-01,-1.133851419196670873e-01,-3.837630179057842822e-06,4.077417977483337175e-03,1.241253148116989134e-02,-9.091020266857879895e-01,7.813933299360679595e-04,2.221923169510511310e-03,3.930343695595894249e-01
2.425000000000000000e+01,-3.636306100539999364e-01,5.474865457462648743e-01,1.000228952139304017e-01,-2.233689148473934627e-01,-1.275834262030307309e-01,-4.720815569439625151e-06,3.896565244432641933e-03,1.255011866244285998e-02,-8.599755544573843835e-01,-7.482732874463085462e-04,1.437435365442195313e-03,3.930259848851362925e-01
2.450000000000000000e+01,-3.910308525221276033e-01,5.306476228572224452e-01,1.000222923952441278e-01,-2.151694029059713076e-01,-1.412812095768301857e-01,-4.799733969588885102e-06,3.689050003008307287e-03,1.252391631631354432e-02,-8.108503232220060086e-01,-1.657835123950055813e-03,7.884009385180627176e-04,3.930200024131649816e-01
2.475000000000000000e+01,-4.173550151759234383e-01,5.121392348529012484e-01,1.000217207428716198e-01,-2.061974332402978227e-01,-1.542947911850058862e-01,-4.293531575298266912e-06,3.473146222551438088e-03,1.240255492772980063e-02,-7.617257676027480162e-01,-2.073917931149649348e-03,3.251720440363046419e-04,3.930164381199655055e-01
2.500000000000000000e+01,-4.425138348021510626e-01,4.920541755923807936e-01,1.000212315116570383e-01,-1.965626188326548562e-01,-1.665223664076413423e-01,-3.549189202956665530e-06,3.261274854494245964e-03,1.223423598625836446e-02,-7.126014551691044474e-01,-2.211994566089355626e-03,-2.178338318329223672e-05,3.930145982817956907e-01
2.525000000000000000e+01,-4.664306842031180067e-01,4.704944336727877041e-01,1.000208324245274449e-01,-1.863605127412679974e-01,-1.779111171895489674e-01,-2.894841947099916875e-06,3.060598254400588147e-03,1.203546086946757042e-02,-6.634771397457147613e-01,-2.286719593939619700e-03,-4.046053461174364081e-04,3.930135025501829138e-01
2.550000000000000000e+01,-4.890410463589848211e-01,4.475672421942936685e-01,1.000204974568476429e-01,-1.756931812616989441e-01,-1.884247432544639000e-01,-2.533266747891446833e-06,2.875004881689337440e-03,1.179137299681057120e-02,-6.143527379710683745e-01,-2.433652433331589919e-03,-9.855463322873824102e-04,3.930122895985199150e-01
2.575000000000000000e+01,-5.102948876733680583e-01,4.233844729672330276e-01,1.000201864519401351e-01,-1.646927438461447124e-01,-1.980236377186277708e-01,-2.489427418465198941e-06,2.707701228045233596e-03,1.146762901022127350e-02,-5.652282583705438013e-01,-2.666060484902203070e-03,-1.851714254357093078e-03,3.930104953205202922e-01
2.600000000000000000e+01,-5.301614333190759476e-01,3.980633072208466516e-01,1.000198678083756704e-01,-1.535344115076232030e-01,-2.066640973663219083e-01,-2.612550524302132284e-06,2.563474745946232782e-03,1.103058564633111784e-02,-5.161037185629578916e-01,-2.879398022236320017e-03,-2.945762992737694774e-03,3.930081535465502207e-01
2.625000000000000000e+01,-5.486342581821587183e-01,3.717258075324856303e-01,1.000195369903478376e-01,-1.424277964161865528e-01,-2.143152190130201418e-01,-2.640257825647434455e-06,2.449779631790945534e-03,1.046997257299466660e-02,-4.669790838013049283e-01,-2.902073847760032986e-03,-4.041247879407797866e-03,3.930057222027708019e-01
2.650000000000000000e+01,-5.657336051029603352e-01,3.444956742174173359e-01,1.000192230154240969e-01,-1.315821744444490293e-01,-2.209848120839022767e-01,-2.321329700696706905e-06,2.376131320098678543e-03,9.816613569169838072e-03,-4.178542466369340458e-01,-2.576637156352030392e-03,-4.783449534306391179e-03,3.930038929348387833e-01
2.675000000000000000e+01,-5.815029428726931071e-01,3.164918855484933347e-01,1.000189781354996615e-01,-1.211516601275352267e-01,-2.267411404204649483e-01,-1.549093867017767160e-06,2.351819207261724928e-03,9.147789467250092704e-03,-3.687290437410117860e-01,-1.843134878901723497e-03,-4.798446551771811883e-03,3.930033775613817615e-01
2.700000000000000000e+01,-5.959982306266441432e-01,2.878206112254897420e-01,1.000188547669223771e-01,-1.111769860367998741e-01,-2.317175373982395536e-01,-4.204561755798441755e-07,2.382539277326900951e-03,8.575332650668232581e-03,-3.196032861810689241e-01,-7.902966301304710332e-04,-3.844978964861549796e-03,3.930047373955660173e-01
2.725000000000000000e+01,-6.092709453510252171e-01,2.585680913420447258e-01,1.000188829784147831e-01,-1.015473384471257123e-01,-2.360927014029843285e-01,8.281407257232179977e-07,2.467037099694886076e-03,8.216876592059605897e-03,-2.704767842398821953e-01,3.533320947591234379e-04,-1.953953410838110954e-03,3.930082357103317769e-01
2.750000000000000000e+01,-6.213488532873003845e-01,2.287974558478137743e-01,1.000190613021843672e-01,-9.200392932089326847e-02,-2.400494675969139513e-01,1.948702300208341681e-06,2.595053070202872972e-03,8.157756919815559171e-03,-2.213493774492508726e-01,1.293996724086212812e-03,5.129255284597977445e-04,3.930136463419329207e-01
2.775000000000000000e+01,-6.322205253933960156e-01,1.985514133538134884e-01,1.000193607143442104e-01,-8.219466171928646592e-02,-2.437253135787869618e-01,2.747382218873742253e-06,2.747640176964269172e-03,8.416981869676614172e-03,-1.722210001813919145e-01,1.787223272442769843e-03,2.934607110941517792e-03,3.930200497292536954e-01
2.800000000000000000e+01,-6.418295251473006280e-01,1.678606290946180191e-01,1.000197295779991918e-01,-7.176931835506164536e-02,-2.471737241882742686e-01,3.044689885989733741e-06,2.900260609512835160e-03,8.931985572928881345e-03,-1.230917832074568813e-01,1.741414381206901054e-03,4.629029719198853900e-03,3.930258356869262282e-01
2.825000000000000000e+01,-6.500815569884559331e-01,1.367552891909842583e-01,1.000200926178973632e-01,-6.048516041740570337e-02,-2.503529915299056996e-01,2.647985183853985003e-06,3.028111515910318803e-03,9.571506968190238510e-03,-7.396212460151704859e-02,1.258146178113691682e-03,5.110059645511592225e-03,3.930291587377937046e-01
2.850000000000000000e+01,-6.568633500360084865e-01,1.052759125289846470e-01,1.000203553266864470e-01,-4.828358947852717103e-02,-2.531480721606091389e-01,1.471391820251371407e-06,3.112199809526368637e-03,1.017502456659932601e-02,-2.483263467369924496e-02,5.844075368774466917e-04,4.292023543670444446e-03,3.930287829106719477e-01
2.875000000000000000e+01,-6.620674408824017698e-01,7.347971476457673679e-02,1.000204305523419990e-01,-3.530618059297116473e-02,-2.554164439014371402e-01,-2.645428594220708067e-07,3.144174984482247907e-03,1.060518681609404039e-02,2.429606993355038977e-02,-2.788306799931886002e-06,2.539422294370437261e-03,3.930248218397205950e-01
2.900000000000000000e+01,-6.656144392062885995e-01,4.144074893632140877e-02,1.000202817503993424e-01,-2.184176122948113669e-02,-2.570378946968462919e-01,-2.002570169990866125e-06,3.128143323941704954e-03,1.079240848972241873e-02,7.342362144316202932e-02,-3.208714101072392090e-04,5.229836137628508493e-04,3.930187983711525557e-01
2.925000000000000000e+01,-6.674652309279045515e-01,9.244752796448704041e-03,1.000199504075421353e-01,-8.225700271910947603e-03,-2.579469840426542038e-01,-3.117615144428588825e-06,3.078665981024000277e-03,1.075254928340698898e-02,1.225500444064384770e-01,-3.491875070752883232e-04,-1.063773847313323733e-03,3.930129022698899965e-01
2.950000000000000000e+01,-6.676197624710993317e-01,-2.301824157925636688e-02,1.000195395828601674e-01,5.265952539329453452e-03,-2.581366768186479921e-01,-3.292017742273232687e-06,3.015569037609037040e-03,1.056974869739598678e-02,1.716757012316846576e-01,-2.045781801888335724e-04,-1.796368767313424831e-03,3.930089225280071208e-01
