time_total,x,y,z,vx,vy,vz,roll,pitch,yaw,roll_rate,pitch_rate,yaw_rate
0e-01,9.990387367203371061e-02,-1.323416317858965192e-02,1.447037872142676040e-01,3.656196193218758713e-04,3.433197540508847994e-03,-5.157693868290903240e-03,2.711229882294571847e-01,-2.844639226553066433e-02,8.341009656212521745e-03,-3.308434258721937304e-01
2.500000000000000000e-01,-3.982918758045795871e-01,-1.442117786838509885e-01,9.994219875248333551e-02,-1.765118137239111984e-02,1.402696627495829962e-01,2.592772910647699199e-04,1.318497555805196373e-04,-3.315716555149638301e-03,2.297760622986490531e-01,-2.725075886317262358e-02,8.082012314137973844e-03,-3.309233213897563863e-01
5.000000000000000000e-01,-4.007187516372394676e-01,-1.267267844322887416e-01,9.996967454524877117e-02,-2.081334283487581288e-02,1.400799810210510976e-01,1.862540904173398844e-04,-2.205190772110141983e-03,-1.510327646530140950e-03,1.884129401882396471e-01,-1.478181567611710004e-02,1.275918798757816851e-02,-3.309742242264453460e-01
7.500000000000000000e-01,-4.034193950003814866e-01,-1.090866511169117231e-01,9.998920881985816356e-02,-2.193861917198555028e-02,1.423044780910911189e-01,1.309145071011256719e-04,-2.814761080414985260e-03,6.162628564208100452e-04,1.470401557472084675e-01,-1.455679278594850835e-03,1.868847126387284535e-02,-3.309947266660629439e-01
1.000000000000000000e+00,-4.060789018085451119e-01,-9.112816008340915430e-02,1.000029293166305455e-01,-2.012996904661637151e-02,1.448569630728529234e-01,9.266271156348962338e-05,-2.091039809734293771e-03,3.115735254742508890e-03,1.056670946199208122e-01,6.537364317811622874e-03,2.149099664058426104e-02,-3.309969044069225874e-01
1.250000000000000000e+00,-4.082978182052615646e-01,-7.290889884275755795e-02,1.000128041272898421e-01,-1.500214317049959091e-02,1.463650829328929370e-01,6.768715637543375153e-05,-8.984875877377013946e-04,5.594357837930267162e-03,6.429789448419438724e-02,8.086891129284783097e-03,1.876362708103289020e-02,-3.309938569750234816e-01
1.500000000000000000e+00,-4.096816140525393335e-01,-5.459563351816842935e-02,1.000199617013254050e-01,-7.010200965464758772e-03,1.464099452224226772e-01,4.779635300223314485e-05,5.128037031470561403e-05,7.440248982398810738e-03,2.293013905746466366e-02,5.400966589410201302e-03,1.103368484830040928e-02,-3.309890820960296187e-01
1.750000000000000000e+00,-4.099436777358934636e-01,-3.635887374577161102e-02,1.000247179956968852e-01,2.647610684939947535e-03,1.452598552186860625e-01,2.922534798221127218e-05,4.811493364519491434e-04,8.176898411548658152e-03,-1.843968080940449478e-02,1.536806857180421414e-03,1.038151605267229093e-03,-3.309817958699198259e-01
2.000000000000000000e+00,-4.089736922629043647e-01,-1.831445853064588014e-02,1.000273553040354896e-01,1.244331238905306732e-02,1.434444676033024002e-01,1.442063856773512494e-05,4.925897229724296271e-04,7.702938190097589032e-03,-5.981177085254161391e-02,-1.352643902239636462e-03,-7.879179854353155973e-03,-3.309737335949993198e-01
2.250000000000000000e+00,-4.068463394542469747e-01,-5.137904488516044019e-04,1.000285611483790194e-01,2.101612451410651838e-02,1.414287618105814215e-01,6.318902860371590358e-06,3.418734377452729433e-04,6.307406843940808507e-03,-1.011841535500842548e-01,-2.576733792460321210e-03,-1.329961657377821786e-02,-3.309682317481010272e-01
2.500000000000000000e+00,-4.037749182417965654e-01,1.703759043577600385e-02,1.000291642899048539e-01,2.753150702896298152e-02,1.394818855125895540e-01,4.136967098142123897e-06,2.322701601737852024e-04,4.497327721785635349e-03,-1.425556388587519707e-01,-2.553358594553255950e-03,-1.453613745950829879e-02,-3.309663854632787228e-01
2.750000000000000000e+00,-4.000360139531546899e-01,3.435609365748928945e-02,1.000296974950035805e-01,3.178540003700861677e-02,1.377047175112400268e-01,4.524724125076193382e-06,2.223822627082603916e-04,2.759904297280248251e-03,-1.839264860450206818e-01,-2.121457609423929927e-03,-1.254220962441086537e-02,-3.309665321215387035e-01
3.000000000000000000e+00,-3.958975056753794575e-01,5.146507234140322573e-02,1.000302869941230993e-01,3.406647734483862766e-02,1.361272929925221309e-01,4.753980260210547509e-06,2.504261211304777092e-04,1.383362551474603573e-03,-2.252972573872263351e-01,-1.984065921902074779e-03,-9.162191659354841644e-03,-3.309666265619687353e-01
3.250000000000000000e+00,-3.915738159859669665e-01,6.839218089321769112e-02,1.000308456123692041e-01,3.488538176941906321e-02,1.347997496807909756e-01,4.078299953891270645e-06,2.144898266976265051e-04,4.040342485923423504e-04,-2.666680687426956076e-01,-2.460231914662248942e-03,-6.169586024932421919e-03,-3.309658842975835014e-01
3.500000000000000000e+00,-3.872159028763668687e-01,8.517545294732517536e-02,1.000312850294720612e-01,3.471187591600265188e-02,1.338393698413753996e-01,2.975056391220718572e-06,4.371195525680503577e-05,-3.242219492870738865e-04,-3.080387121787201976e-01,-3.488188618633501336e-03,-4.525841546978433098e-03,-3.309644311992310239e-01
3.750000000000000000e+00,-3.829273327984519804e-01,1.018720564406794399e-01,1.000315923169073223e-01,3.382958364516268357e-02,1.334289595734230449e-01,2.030661184277410603e-06,-2.740745487883538634e-04,-9.935012686983037741e-04,-3.494089247159104517e-01,-4.737362755962626869e-03,-4.118364807757217243e-03,-3.309624042510087572e-01
4.000000000000000000e+00,-3.787883500070859943e-01,1.185642140454099130e-01,1.000318056431027808e-01,3.234812323539456441e-02,1.337764465239540401e-01,1.458179389070295640e-06,-7.060205668341375902e-04,-1.709166619232630911e-03,-3.907784784005427503e-01,-5.727566173831065768e-03,-3.999996638768159481e-03,-3.309598795044705888e-01
4.250000000000000000e+00,-3.748698024216136071e-01,1.353582303913513085e-01,1.000319621250937013e-01,3.033826818737906522e-02,1.350478814742709366e-01,1.051085402882384894e-06,-1.205561884472444245e-03,-2.415769221698654129e-03,-4.321472678387823785e-01,-5.933903340860313853e-03,-2.953649986714370398e-03,-3.309575790588558108e-01
4.500000000000000000e+00,-3.712266113611860097e-01,1.523741159251528476e-01,1.000320537786465042e-01,2.800687559753717998e-02,1.372868943545691167e-01,3.555490813448635144e-07,-1.736771430202780101e-03,-2.903364638438306420e-03,-4.735154949690724147e-01,-4.902487299382995468e-03,-1.109792505594379801e-04,-3.309575524477521014e-01
4.750000000000000000e+00,-3.678718847880465548e-01,1.697252129807438337e-01,1.000320252669832238e-01,2.581949212913401542e-02,1.403387530014869877e-01,-8.330892069078702771e-07,-2.279838092971814886e-03,-2.882784888614926648e-03,-5.148838678492528853e-01,-2.392799856077633402e-03,4.622536878337716801e-03,-3.309630554788280943e-01
5.000000000000000000e+00,-3.647427662642590551e-01,1.874899520021040267e-01,1.000318447687563311e-01,2.450707908903682758e-02,1.438039406207171078e-01,-1.898109231954338692e-06,-2.820554310470230978e-03,-2.096429893136295304e-03,-5.562536747665784986e-01,1.479290958326243957e-03,1.047428934304430077e-02,-3.309771368506337907e-01
5.250000000000000000e+00,-3.616739449772509163e-01,2.056811608558373750e-01,1.000316104231229047e-01,2.494325961626459726e-02,1.470475177521358978e-01,-1.510748701861621129e-06,-3.335272511606014300e-03,-4.244507040841602680e-04,-5.976265306411563394e-01,6.158210011836957529e-03,1.604216817276713988e-02,-3.310001519249587965e-01
5.500000000000000000e+00,-3.583930950451081343e-01,2.242211433427790390e-01,1.000315740962599287e-01,2.792890964488582012e-02,1.492810340377247191e-01,1.221981560374447572e-06,-3.782780064911007468e-03,2.047089800799291662e-03,-6.390036354353660908e-01,1.068449567937258989e-02,1.974796274434673093e-02,-3.310276011362576210e-01
5.750000000000000000e+00,-3.545455230460159424e-01,2.429316372015887238e-01,1.000319928571326705e-01,3.395406344386901754e-02,1.497138436007604267e-01,5.381639840142725854e-06,-4.108591779873460061e-03,5.014677377490860122e-03,-6.803847644112400728e-01,1.387255627686161813e-02,2.033721206851700838e-02,-3.310503289552281236e-01
6.000000000000000000e+00,-3.497458178228891601e-01,2.615458128458649778e-01,1.000328734098036298e-01,4.301417097065435291e-02,1.477466106820494451e-01,8.080238606147053195e-06,-4.259882381971866021e-03,8.004233245210040995e-03,-7.217676942063734336e-01,1.460126509814950110e-02,1.726809517429477719e-02,-3.310580572985263315e-01
6.250000000000000000e+00,-3.436455828463314544e-01,2.797447203873452692e-01,1.000338192934882853e-01,5.454014834780936821e-02,1.431602598885090005e-01,6.177672682122552072e-06,-4.204409182055563431e-03,1.046422898620376872e-02,-7.631487589968868335e-01,1.214501571006711134e-02,1.088913617778914864e-02,-3.310447851802473251e-01
6.500000000000000000e+00,-3.360009580694145459e-01,2.972140992533465198e-01,1.000341678421732411e-01,6.746814643843583592e-02,1.362458711520199983e-01,-1.124675385541269695e-06,-3.945748412323832853e-03,1.188370628008649128e-02,-8.045244999152116883e-01,6.451170098107080614e-03,2.375357832352830573e-03,-3.310126736740634512e-01
6.750000000000000000e+00,-3.267228787806797929e-01,3.137109814689307830e-01,1.000333964106266543e-01,8.043661812640032216e-02,1.278286881571981393e-01,-1.088179339672836608e-05,-3.529308938769603384e-03,1.190939686933925601e-02,-8.458934465572081063e-01,-1.727161416339996610e-03,-6.548045846208053883e-03,-3.309714880013712168e-01
7.000000000000000000e+00,-3.158968275312629692e-01,3.291249887117007611e-01,1.000315373917660261e-01,9.206475892119429794e-02,1.191620621904457139e-01,-1.768702739138855706e-05,-3.037192812918294502e-03,1.043569220950997002e-02,-8.872567862552058759e-01,-1.090526044152647506e-02,-1.402151012793435847e-02,-3.309335354208572944e-01
7.250000000000000000e+00,-3.037661191553936990e-01,3.435182661345134725e-01,1.000292740712615397e-01,1.012448910295725146e-01,1.117002374825149524e-01,-1.715207822988215451e-05,-2.573445233947856039e-03,7.645238946345068662e-03,-9.286173867029050566e-01,-1.915750621901389852e-02,-1.850359577290943552e-02,-3.309073330239924449e-01
7.500000000000000000e+00,-2.906816833313683457e-01,3.571314136105674386e-01,1.000275845535227304e-01,1.073766387191714688e-01,1.067940931467639687e-01,-9.175592343988393156e-06,-2.243638352706571037e-03,3.987120527000915376e-03,-9.699778515915580268e-01,-2.456948092319964291e-02,-1.914630277995277643e-02,-3.308943580830776554e-01
7.750000000000000000e+00,-2.770296260926237708e-01,3.703501693353126734e-01,1.000271392406585358e-01,1.104845257315362622e-01,1.053808895984061494e-01,1.615752039751149913e-06,-2.133757283384666009e-03,9.323875294161547303e-05,-1.011339049318971339e+00,-2.573880690393456558e-02,-1.599438732253128173e-02,-3.308910392811062473e-01
8.000000000000000000e+00,-2.631533703446261585e-01,3.836372995610832226e-01,1.000278757145494218e-01,1.111902220198948688e-01,1.077483035487142721e-01,8.897144588249325287e-06,-2.293103083588211334e-03,-3.351082156513314914e-03,-1.052700214662503964e+00,-2.218246331006301642e-02,-9.953083537029196876e-03,-3.308941056550704918e-01
8.250000000000000000e+00,-2.492883575617165781e-01,3.974435579949895381e-01,1.000290731543991563e-01,1.105485936541084901e-01,1.134396278296057464e-01,9.029000459664676437e-06,-2.724736162227168069e-03,-5.753193588230160957e-03,-1.094060498124325598e+00,-1.452052305466952284e-02,-2.531246889356267467e-03,-3.309046710731864405e-01
8.500000000000000000e+00,-2.355237599822339878e-01,4.121179077056689177e-01,1.000298774843627059e-01,1.097924564397923797e-01,1.213327115051046484e-01,3.436974675973585191e-06,-3.385275460379579601e-03,-6.740278386314134049e-03,-1.135420672401513231e+00,-4.361553203759616602e-03,4.568772207639252604e-03,-3.309273796414266555e-01
8.750000000000000000e+00,-2.217983625459255259e-01,4.278383182676191443e-01,1.000298792798279129e-01,1.100542002322835167e-01,1.298784697096877494e-01,-2.853192116649567379e-06,-4.193984568180035566e-03,-6.234617726362904309e-03,-1.176783539762981112e+00,6.098615031849556785e-03,9.896901000156031053e-03,-3.309650640137190569e-01
9.000000000000000000e+00,-2.079287830702231110e-01,4.445796293501912966e-01,1.000293145626065805e-01,1.121362983306846001e-01,1.374389188114991112e-01,-5.240113927394888706e-06,-5.049229505891917463e-03,-4.456463681317483251e-03,-1.218152583307702708e+00,1.465958454602184213e-02,1.260640112648343455e-02,-3.310133621129712211e-01
9.250000000000000000e+00,-1.936600919168309787e-01,4.621252814433793321e-01,1.000287761124162011e-01,1.163857193538626461e-01,1.426344677017041263e-01,-2.803483453843812885e-06,-5.848776222165169049e-03,-1.853515368320155215e-03,-1.259529786808740726e+00,1.970920037594923319e-02,1.260867902363574204e-02,-3.310601294283013751e-01
9.500000000000000000e+00,-1.787240173896365303e-01,4.801178905825596588e-01,1.000287144881094742e-01,1.226944274043501037e-01,1.446066025599813676e-01,1.674449006357215085e-06,-6.509336964019820683e-03,1.023361224561339334e-03,-1.300914200790283859e+00,2.064636705592927737e-02,1.049502609198180690e-02,-3.310907951703664365e-01
9.750000000000000000e+00,-1.628896236433758915e-01,4.981332570391735493e-01,1.000291374095628322e-01,1.306100242683524981e-01,1.431271752405945119e-01,4.490128097279813276e-06,-6.980724865849797026e-03,3.663766360697846749e-03,-1.342302252734773660e+00,1.800820036207557637e-02,7.266357277931504398e-03,-3.310961494247784409e-01
1.000000000000000000e+01,-1.459954690600492322e-01,5.157565973847220153e-01,1.000296974860278576e-01,1.395097550540611575e-01,1.385310442551833388e-01,3.947686747570860197e-06,-7.251206394694843273e-03,5.722259077732780655e-03,-1.383689516465619329e+00,1.327121201845171856e-02,3.972622756743315886e-03,-3.310773104042408765e-01
1.025000000000000000e+01,-1.279591993998641375e-01,5.326402118056124957e-01,1.000300203907086155e-01,1.487773069243417678e-01,1.314999309657073900e-01,1.125497397896007592e-06,-7.342936561646948128e-03,7.092394532927887713e-03,-1.425072730497288553e+00,8.395369568047685027e-03,1.384421455969425023e-03,-3.310449661591531867e-01
1.050000000000000000e+01,-1.087678879004578131e-01,5.485281084986005640e-01,1.000299730452063884e-01,1.579282670337209260e-01,1.227664353446585727e-01,-1.585597230412350906e-06,-7.299050178602676554e-03,7.914028057268507679e-03,-1.466450925143550910e+00,5.247508884675862635e-03,-2.033592161014385175e-04,-3.310140468306391193e-01
1.075000000000000000e+01,-8.845786233515587349e-02,5.632432782632001977e-01,1.000296980115910478e-01,1.666528599088893392e-01,1.128273287272722469e-01,-2.394783998267964913e-06,-7.166236245554987241e-03,8.515030431039316908e-03,-1.507825313574041370e+00,5.060136906569946517e-03,-9.877065256378267551e-04,-3.309973738843737801e-01
1.100000000000000000e+01,-6.709474158322731308e-02,5.766444236538759149e-01,1.000294762928096021e-01,1.747750682309845982e-01,1.017509298721192140e-01,-8.224031449680158562e-07,-6.977779448637888918e-03,9.303618359471032412e-03,-1.549198339391357093e+00,8.060884518796324408e-03,-1.503837873645807880e-03,-3.310012400801616850e-01
1.125000000000000000e+01,-4.476260864277403079e-02,5.885680652972786753e-01,1.000295903001869602e-01,1.821557270541866447e-01,8.913738113037944499e-02,2.832991644622745816e-06,-6.741820912594869396e-03,1.063784864675951583e-02,-1.590572446105996463e+00,1.336463605681038717e-02,-2.360686010642846274e-03,-3.310237636432714070e-01
1.150000000000000000e+01,-2.156647342959042493e-02,5.987767680812016158e-01,1.000302671710510682e-01,1.885855564973296650e-01,7.424970123099190744e-02,8.007067127345345324e-06,-6.438104034612961851e-03,1.270382958596035644e-02,-1.631948899898874705e+00,1.916404585943383074e-02,-3.954472463243400779e-03,-3.310555189931096987e-01
1.175000000000000000e+01,2.353948356105648246e-03,6.069334510353574519e-01,1.000316255627042294e-01,1.937173584797177994e-01,5.628673461012533019e-02,1.339755956999667957e-05,-6.024198007535844918e-03,1.543331687707879749e-02,-1.673326859090910945e+00,2.318620947498440180e-02,-6.255982909669456291e-03,-3.310821585650636223e-01
1.200000000000000000e+01,2.680659445410283823e-02,6.126153332603805346e-01,1.000335232386276030e-01,1.970737327897341129e-01,3.472750695321469988e-02,1.609576349426975039e-05,-5.449744467795752077e-03,1.848382657863143624e-02,-1.714703067226748701e+00,2.331150481341989072e-02,-8.747154072094077276e-03,-3.310892865417265352e-01
1.225000000000000000e+01,5.153600205729795547e-02,6.153704064119837058e-01,1.000353621765961154e-01,1.981411326391274708e-01,9.651304037536728372e-03,1.201486607844660228e-05,-4.675224331134203784e-03,2.129052369233390418e-02,-1.756072721652155444e+00,1.819563097724921988e-02,-1.053797068372526111e-02,-3.310690589504786119e-01
1.250000000000000000e+01,7.622866343221737506e-02,6.148070541634212960e-01,1.000360905980904186e-01,1.965303621333754358e-01,-1.806262221601931742e-02,-1.482933093161890127e-06,-3.690508276473671544e-03,2.318148868401065724e-02,-1.797431703369477329e+00,7.721007946444289477e-03,-1.063654909694352647e-02,-3.310258110879625293e-01
1.275000000000000000e+01,1.005403320176649351e-01,6.106968704154107641e-01,1.000346110544370892e-01,1.921573198330691346e-01,-4.672536649312760554e-02,-2.217863464759045876e-05,-2.528265934785540667e-03,2.353099216318152095e-02,-1.838779371315814481e+00,-6.859699957202233626e-03,-8.291818121599379282e-03,-3.309765546219980981e-01
1.300000000000000000e+01,1.241440277605670023e-01,6.030649343840628340e-01,1.000304975979047495e-01,1.853847261457244877e-01,-7.404066683489698986e-02,-4.191287925308534603e-05,-1.268249719243798356e-03,2.191410142942953887e-02,-1.880120209308665080e+00,-2.314273149882342326e-02,-3.298433837666752289e-03,-3.309438966703525109e-01
1.325000000000000000e+01,1.467902245513549031e-01,5.922426950008539137e-01,1.000245684987929734e-01,1.770708723381923255e-01,-9.748461231679156347e-02,-4.994533145149923279e-05,-3.048681581617040254e-05,1.822418034936698975e-02,-1.921462744302040671e+00,-3.810400401230763096e-02,3.839815312056960028e-03,-3.309438137536074298e-01
1.350000000000000000e+01,1.683652907766325091e-01,5.788662792962355752e-01,1.000188014156654093e-01,1.684945889797013485e-01,-1.147789935974631026e-01,-3.947927435269733181e-05,1.041830696196838777e-03,1.272385366585310380e-02,-1.962815657757582821e+00,-4.879610399661061387e-02,1.194848842194767488e-02,-3.309753709641048980e-01
1.375000000000000000e+01,1.889325578106844927e-01,5.638155221901706149e-01,1.000154568058810450e-01,1.611599713334387340e-01,-1.243479947654267254e-01,-1.300858758712865692e-05,1.806252578612871319e-03,6.017301023914046164e-03,-2.004183023455010648e+00,-5.301952821020926299e-02,1.941810671188618984e-02,-3.310196857388923997e-01
1.400000000000000000e+01,2.087431195563268505e-01,5.481028461485399905e-01,1.000158512060100313e-01,1.565188440294141836e-01,-1.256523632022958081e-01,1.773030699325525396e-05,2.146560721219581934e-03,-1.048292679740146912e-03,-2.045561602456897443e+00,-4.979397708858614852e-02,2.456998380118230810e-02,-3.310501258876926145e-01
1.425000000000000000e+01,2.282098897430477613e-01,5.327324835512118328e-01,1.000195448401170889e-01,1.556724148413861364e-01,-1.193279287670757777e-01,3.785409742434793382e-05,1.994476421530474823e-03,-7.527753942491691337e-03,-2.086942181266741247e+00,-3.952383139271472418e-02,2.604728868680213083e-02,-3.310483104483248340e-01
1.450000000000000000e+01,2.478466993367216264e-01,5.185565872193264036e-01,1.000245000799688810e-01,1.591193971888857916e-01,-1.071046269000452411e-01,3.782167852825050233e-05,1.343457910676073121e-03,-1.253590967296718504e-02,-2.128314543482551890e+00,-2.384216116703073707e-02,2.312254296312653279e-02,-3.310162210625532953e-01
1.475000000000000000e+01,2.681620555354544133e-01,5.061680289341381478e-01,1.000300808915309120e-01,1.654880529701222291e-01,-9.076804236039225093e-02,7.796968365761388991e-05,7.850386309824009326e-03,-1.551455445884576158e-02,-2.157784422216754372e+00,-1.198491796449995817e-01,-1.489853838603363012e-01,-9.962363857043745122e-03
1.500000000000000000e+01,2.883854473706817245e-01,4.966372149147848525e-01,1.000661433873902134e-01,1.528371407722426967e-01,-5.880391325569520045e-02,5.729508756907982165e-04,4.160034232892809158e-02,-1.701490554812051109e-02,-2.140199070859416519e+00,-1.633922049480949490e-01,-2.413201137988694178e-01,2.389672869380063958e-01
1.525000000000000000e+01,3.047183715796561998e-01,4.926070927871026295e-01,1.001579985648377719e-01,1.046509706846174143e-01,-4.538241338143929673e-03,6.849671931988957681e-04,7.042857508581661097e-02,-1.717419059309226517e-02,-2.105554314453046416e+00,-7.137725959849441915e-02,-1.316841678373909530e-01,3.070270719557280370e-01
1.550000000000000000e+01,3.133633466370011056e-01,4.961075639730431752e-01,1.001854476790318832e-01,3.428313578981279780e-02,5.826513950584296525e-02,-3.069435848936689307e-04,7.590855889719241856e-02,-1.504586849498510022e-02,-2.065761604352019720e+00,5.009926145618433246e-02,3.142550489882982301e-02,3.265895089868989798e-01
1.575000000000000000e+01,3.130629300146822169e-01,5.069955741576288588e-01,1.000915933605405067e-01,-3.481826352683529274e-02,1.112655220418607843e-01,-1.005693929052339612e-03,6.009379319273062264e-02,-9.566608032773276163e-03,-2.024319844858188944e+00,1.301015295075546307e-01,1.354966870941585466e-01,3.320048734790153611e-01
1.600000000000000000e+01,3.051696489793991329e-01,5.231813480079289258e-01,9.997757214466197750e-02,-8.613323955537954824e-02,1.425759565666414597e-01,-6.975110992009606482e-04,3.573371258353939123e-02,-8.853188752793725910e-04,-1.982596862726016651e+00,1.492723480363352673e-01,1.452086822218958406e-01,3.330705021119704790e-01
1.625000000000000000e+01,2.922485671359091319e-01,5.417022557155029006e-01,9.993176498580463862e-02,-1.164741116334495757e-01,1.497144326545023774e-01,-7.773976815115612256e-05,1.531433973861974149e-02,9.408162590060966529e-03,-1.941042188987836203e+00,1.234953390894456687e-01,8.907244791447202492e-02,3.329918840859916185e-01
1.650000000000000000e+01,2.765442783617443889e-01,5.597682853992214103e-01,9.994587769674877220e-02,-1.327393990554429359e-01,1.370242708287146005e-01,2.277461762765892162e-04,4.862978870493598650e-03,1.901329063377997161e-02,-1.899581573377923771e+00,7.904203082696667493e-02,1.923480769767683257e-02,3.326233942519855047e-01
1.675000000000000000e+01,2.591862263032871372e-01,5.753448903262078362e-01,9.997666950381967066e-02,-1.445361054411088420e-01,1.115073181161736482e-01,2.335526003352809878e-04,3.479799146107791664e-03,2.592485552709494073e-02,-1.858065004599013692e+00,3.609649176207568866e-02,-2.424284885039815901e-02,3.320713658907643029e-01
1.700000000000000000e+01,2.402728355528399862e-01,5.872683915939439503e-01,1.000001454608678841e-01,-1.581650899152017564e-01,7.975725079429150932e-02,1.396742266950016154e-04,6.468766250605780845e-03,2.909469754921915549e-02,-1.816513800890386943e+00,3.199229196120157923e-03,-2.935211200295269329e-02,3.314306574573916975e-01
1.725000000000000000e+01,2.194611338288068869e-01,5.950999973029144074e-01,1.000109316641220325e-01,-1.745677968256128809e-01,4.677434410678528443e-02,3.831274137524208945e-05,9.108758042412616607e-03,2.849857708397213890e-02,-1.775044726135590389e+00,-1.993485946328626968e-02,-7.827358755693333836e-03,3.308959703599172464e-01
1.750000000000000000e+01,1.965683610170816109e-01,5.989275713543382729e-01,1.000105767933659878e-01,-1.908123436971992937e-01,1.611752188934113469e-02,-3.386084413655285786e-05,8.950117154047289303e-03,2.480571012877175532e-02,-1.733706793132347102e+00,-3.645575356123621075e-02,1.936625098936019598e-02,3.306219055046437094e-01
1.775000000000000000e+01,1.718666136931571442e-01,5.992201258409945996e-01,1.000046785597642346e-01,-2.030874232218828346e-01,-9.567769787637955131e-03,-4.997454710315882390e-05,6.102234739786321395e-03,1.899582601797252315e-02,-1.692443400812616572e+00,-4.799072087351899385e-02,3.564543784557977490e-02,3.306186612003094161e-01
1.800000000000000000e+01,1.460200895153182243e-01,5.967332784182485250e-01,1.000001502722544511e-01,-2.091710620026838996e-01,-2.832055711196596395e-02,-1.840235997062861665e-05,2.170586910697346050e-03,1.213546223378467875e-02,-1.651168404247294053e+00,-5.349888359860353881e-02,3.533329696501555373e-02,3.307696657199124535e-01
1.825000000000000000e+01,1.198107281083142517e-01,5.924135608990721558e-01,1.000006328598885275e-01,-2.093266766051526118e-01,-3.908092462429434144e-02,2.320821732207017915e-05,-1.109800325062371747e-03,5.322055200060282591e-03,-1.609840529333092851e+00,-5.062879041497281990e-02,2.263577955833082078e-02,3.309304812680863850e-01
1.850000000000000000e+01,9.385388186060744653e-02,5.872590681071090390e-01,1.000052159682666697e-01,-2.057042154257686106e-01,-4.210572160098002142e-02,4.491387531509112200e-05,-2.769843674096970215e-03,-3.278648540820254032e-04,-1.568472422041678804e+00,-3.795324993343990316e-02,6.374752024279567095e-03,3.310178053518185171e-01
1.875000000000000000e+01,6.844608635654096662e-02,5.821354412156071190e-01,1.000108181783781885e-01,-2.009986601609370094e-01,-3.921570706802128548e-02,4.127848296760652742e-05,-2.794446726141708304e-03,-3.773163311613920816e-03,-1.527094182022830315e+00,-1.661135142713342921e-02,-5.507256869100746535e-03,3.310296147261810318e-01
1.900000000000000000e+01,4.358222771637828424e-02,5.775868070709992974e-01,1.000149336278698953e-01,-1.971974550815743521e-01,-3.361771305050358094e-02,2.443913118170683529e-05,-1.799877207781192066e-03,-4.256901377330664545e-03,-1.485721057332714423e+00,9.385610737668447986e-03,-9.118564113556045653e-03,3.310080499778932928e-01
1.925000000000000000e+01,1.909363366068037027e-02,5.736995636483709360e-01,1.000170957212945105e-01,-1.949270427101092718e-01,-2.926511853865991150e-02,1.287534996153384386e-05,-5.583908912949422281e-04,-1.553926031379131894e-03,-1.444350184311564922e+00,3.412574972604473511e-02,-4.973030739058887685e-03,3.309926499242905051e-01
1.950000000000000000e+01,-5.177656454247359444e-03,5.700677498864663573e-01,1.000189348500743342e-01,-1.934891174916218426e-01,-2.992196807383360954e-02,1.970296786531888490e-05,3.496214826687736479e-04,3.867443098757470873e-03,-1.402975412474238404e+00,5.150093291110729998e-02,3.519655674796965707e-03,3.309959269930228820e-01
1.975000000000000000e+01,-2.924346155590694038e-02,5.658798188625980830e-01,1.000227130777064238e-01,-1.913813212856828316e-01,-3.820627270664334052e-02,4.104155735021139558e-05,6.557754915950198341e-04,1.086724277573753415e-02,-1.361598423667971902e+00,5.697396245974453710e-02,1.208605820629771524e-02,3.310050624490486482e-01
2.000000000000000000e+01,-5.291376278094604008e-02,5.601109989848543913e-01,1.000289795677818533e-01,-1.869961368970631810e-01,-5.489000021907321225e-02,5.536945027634105899e-05,3.476034206724389801e-04,1.785945210559889557e-02,-1.320227642060144202e+00,4.884780286791693543e-02,1.718552813332210882e-02,3.310008131800695197e-01
2.025000000000000000e+01,-7.582535767286011086e-02,5.517754841211880423e-01,1.000352960223201693e-01,-1.792398008992958092e-01,-7.864882848738692644e-02,4.029183292959772798e-05,-4.516270943560748920e-04,2.317934778335272936e-02,-1.278870501378810420e+00,2.870849523906062600e-02,1.683057789508901614e-02,3.309806227866174955e-01
2.050000000000000000e+01,-9.753404873183071921e-02,5.401767573396309974e-01,1.000375924279587880e-01,-1.679220695621778670e-01,-1.063237796917928663e-01,-5.762002981305557574e-06,-1.577189040509559140e-03,2.548078049165741071e-02,-1.237526719999970881e+00,9.766097357643153867e-04,1.074321835061705852e-02,3.309689792589729507e-01
2.075000000000000000e+01,-1.176377279578622453e-01,5.250955337468919959e-01,1.000333883597104706e-01,-1.538686442827523204e-01,-1.336203823898308440e-01,-5.777180749767572658e-05,-2.859954386755695667e-03,2.404779303687647196e-02,-1.196186196758898035e+00,-2.826105304464032741e-02,1.150743456950021953e-04,3.310031741508559500e-01
2.100000000000000000e+01,-1.358963686827254491e-01,5.068715671289163449e-01,1.000241992879037645e-01,-1.387748294831577522e-01,-1.560621002978352934e-01,-8.144287937535534070e-05,-4.124040456648515700e-03,1.894081222372675372e-02,-1.154832639864992627e+00,-5.278225415726044145e-02,-1.281823667481094518e-02,3.311018092574417038e-01
2.125000000000000000e+01,-1.523199820216047384e-01,4.863627548074292983e-01,1.000149735508009535e-01,-1.248579538082122409e-01,-1.699585704715732559e-01,-5.947027484968231826e-05,-5.179936457371191703e-03,1.095446232209225379e-02,-1.113452256686978004e+00,-6.768249663000350247e-02,-2.528769838273806775e-02,3.312411850636374777e-01
2.150000000000000000e+01,-1.672044971109675759e-01,4.647949151781577970e-01,1.000108771730689322e-01,-1.143910256679668974e-01,-1.731601056725058929e-01,-5.012065131451988302e-06,-5.836817719114978723e-03,1.418210938827001860e-03,-1.072043273650082895e+00,-7.037970939543590487e-02,-3.454660358910909002e-02,3.313615833954449141e-01
2.175000000000000000e+01,-1.811069481248243629e-01,4.435400858264217927e-01,1.000138656043338958e-01,-1.092157332133888298e-01,-1.654412088481961585e-01,4.767862502086225504e-05,-5.935866875339384022e-03,-8.095932518749932028e-03,-1.030619555270667398e+00,-6.098068874766461589e-02,-3.842916910964955246e-02,3.314022266021053320e-01
2.200000000000000000e+01,-1.947639821161775975e-01,4.238743304217261754e-01,1.000215221178564207e-01,-1.103362167845156616e-01,-1.484590475767759432e-01,6.702898956624819447e-05,-5.390048047915971252e-03,-1.608632379172759280e-02,-9.892043902114024956e-01,-4.200911270609083287e-02,-3.582838373904127793e-02,3.313407377385519381e-01
2.225000000000000000e+01,-2.089696926037280245e-01,4.067660569107244273e-01,1.000288222675462108e-01,-1.176812923704597807e-01,-1.253347803115819614e-01,4.430177036258340473e-05,-4.211835886722675899e-03,-2.139145862690563712e-02,-9.478175329639204616e-01,-1.763397189927335545e-02,-2.697198391920019311e-02,3.312091158788832979e-01
2.250000000000000000e+01,-2.244377693026097242e-01,3.927345295379310319e-01,1.000314036502955861e-01,-1.300890367194666442e-01,-9.998296892661484581e-02,-3.118376439250805875e-06,-2.516928797224859352e-03,-2.336973650444753442e-02,-9.064638782848403187e-01,7.374252309291687291e-03,-1.339243443079657717e-02,3.310754479114082494e-01
2.275000000000000000e+01,-2.416765772425383541e-01,3.817995876698260238e-01,1.000280828323619614e-01,-1.455175298620954294e-01,-7.635439597353860242e-02,-4.536003459811622791e-05,-5.027845504561361195e-04,-2.196390515704983379e-02,-8.651310830066951674e-01,2.869518722056114968e-02,2.429252807249735607e-03,3.310045437168564475e-01
2.300000000000000000e+01,-2.609026968264989699e-01,3.735225863963609338e-01,1.000211463173474452e-01,-1.614309798222992309e-01,-5.775626436766723854e-02,-5.950935002658479960e-05,1.590151250681243276e-03,-1.764896835311546494e-02,-8.237971154825090014e-01,4.328151378586170966e-02,1.765612476877493134e-02,3.310234182002339542e-01
2.325000000000000000e+01,-2.820090958092944522e-01,3.671201285155774041e-01,1.000145698117815840e-01,-1.752668559011850147e-01,-4.637736981087486887e-02,-4.174737614313370145e-05,3.522939385674709722e-03,-1.128550889029157449e-02,-7.824423357466192552e-01,4.979652214808093919e-02,2.975169871500481927e-02,3.311115319652650490e-01
2.350000000000000000e+01,-3.045908692010939056e-01,3.616198148828784764e-01,1.000115793799304376e-01,-1.848727958686612327e-01,-4.308739882030424018e-02,-6.011354504735578531e-06,5.097823057543720247e-03,-3.919005295291636340e-03,-7.410587211744557035e-01,4.860915679794382271e-02,3.700991339573889150e-02,3.312179061622343434e-01
2.375000000000000000e+01,-3.280183864749500189e-01,3.560230151030338575e-01,1.000130987237173863e-01,-1.888198583012936083e-01,-4.751038095760873325e-02,2.725645792579429371e-05,6.185367128213970465e-03,3.425158867437944586e-03,-6.996517573509040133e-01,4.140174080844306187e-02,3.882246222756116638e-02,3.312910069909807409e-01
2.400000000000000000e+01,-3.515386084971124925e-01,3.494439273822947944e-01,1.000177607339465119e-01,-1.865416096562273196e-01,-5.830885821081516901e-02,4.330032043050281238e-05,6.735008492937192594e-03,9.905793260886851595e-03,-6.582355189951815122e-01,3.054789616421231882e-02,3.563847231412102523e-02,3.313026531507365924e-01
2.425000000000000000e+01,-3.743822901576618345e-01,3.412049119532731267e-01,1.000230821334226888e-01,-1.782989951902517189e-01,-7.357749907308347437e-02,3.891234119900590738e-05,6.769508497954284179e-03,1.496030459719272128e-02,-6.168250199894846908e-01,1.846476642439467963e-02,2.866724491439229944e-02,3.312548752014188302e-01
2.450000000000000000e+01,-3.958576751449718878e-01,3.308813212675784099e-01,1.000268551390802729e-01,-1.650134347208923047e-01,-9.124132885911841184e-02,2.057911495425389375e-05,6.367759010263036694e-03,1.832287104456725713e-02,-5.754302100550234833e-01,7.117316806715178433e-03,1.945092744675461227e-02,3.311709606136751805e-01
2.475000000000000000e+01,-4.154183231457323489e-01,3.183007641887495298e-01,1.000279886399313423e-01,-1.480335912714766944e-01,-1.093789231953720548e-01,-1.523519268982442511e-06,5.642283186811988295e-03,1.998086617805984802e-02,-5.340538084072685709e-01,-2.228962804826060528e-03,9.461078348193083243e-03,3.310799841805500687e-01
2.500000000000000000e+01,-4.327010728850391730e-01,3.035091824325587551e-01,1.000265889979804063e-01,-1.289003393135783049e-01,-1.264309554707774563e-01,-1.904971221407516778e-05,4.717391963248166592e-03,2.009739811046179492e-02,-4.926925778741398920e-01,-9.009389553440234205e-03,-1.613062445989436964e-04,3.310043322817457501e-01
2.525000000000000000e+01,-4.475370554508559251e-01,2.867184540943777948e-01,1.000235351460019295e-01,-1.091542606878080357e-01,-1.412937014713119555e-01,-2.798050557423558286e-05,3.712072613447607670e-03,1.893017594215720689e-02,-4.513402432015017895e-01,-1.319432013243958604e-02,-8.679262172162884731e-03,3.309546248728061357e-01
2.550000000000000000e+01,-4.599424101718027624e-01,2.682484034059005040e-01,1.000199382200651632e-01,-9.020185801180984064e-02,-1.533236522186757766e-01,-2.826683665252304931e-05,2.729301078315729719e-03,1.676911699671823630e-02,-4.099903098340392793e-01,-1.506542427014040050e-02,-1.568387878944099353e-02,3.309310189265659008e-01
2.575000000000000000e+01,-4.700957496037994066e-01,2.484720471241651518e-01,1.000167475269623379e-01,-7.323299183751429131e-02,-1.622887257714487330e-01,-2.217083306437965886e-05,1.851375595340457860e-03,1.390177368953167576e-02,-3.686378700106588968e-01,-1.502617718711615237e-02,-2.095373184337013736e-02,3.309273875652906649e-01
2.600000000000000000e+01,-4.783076011070434563e-01,2.277686827642405598e-01,1.000145683313410916e-01,-5.917061905829972684e-02,-1.682964863580531378e-01,-1.269933128966974557e-05,1.139510030266937656e-03,1.060296151470025219e-02,-3.272802989092999382e-01,-1.349232897837293436e-02,-2.433373480313353807e-02,3.309353936643287253e-01
2.625000000000000000e+01,-4.849846596712632518e-01,2.064863833524379910e-01,1.000136352234201748e-01,-4.863522101132233821e-02,-1.717175030768840205e-01,-2.682113579481234503e-06,6.354505566994918123e-04,7.137846115494113179e-03,-2.859171517788222650e-01,-1.085907797618152273e-02,-2.567841417368952467e-02,3.309472423054234391e-01
2.650000000000000000e+01,-4.905900063697303803e-01,1.849140021498068276e-01,1.000138635131122139e-01,-4.191498730122025784e-02,-1.731100519962763817e-01,5.621947795256019270e-06,3.632084626213442913e-04,3.767503045880959359e-03,-2.445496076946214736e-01,-7.512733214176366484e-03,-2.485863163221466166e-02,3.309572324280080080e-01
2.675000000000000000e+01,-4.955999526393943255e-01,1.632625318366413003e-01,1.000149329762451272e-01,-3.894212979762104454e-02,-1.731453023843308736e-01,1.070291231992575021e-05,3.298561616568735505e-04,7.499446124371328013e-04,-2.031796897774991728e-01,-3.852075435426055832e-03,-2.180735316302875176e-02,3.309625782813656603e-01
2.700000000000000000e+01,-5.004586534343447024e-01,1.416559248571785945e-01,1.000163911971689717e-01,-3.928186878013319866e-02,-1.725304918798763465e-01,1.195134091557936430e-05,5.253169042950972013e-04,-1.666380500738059165e-03,-1.618094086147139066e-01,-2.973365753155240488e-04,-1.658482224485392439e-02,3.309637014120725973e-01
2.725000000000000000e+01,-5.055326810611617816e-01,1.201316921829818363e-01,1.000177752821792276e-01,-4.214388837497981544e-02,-1.719295700318638209e-01,9.790066079331155962e-06,9.218365814067374124e-04,-3.257933746927072025e-03,-1.204399802464792141e-01,2.723142296137545486e-03,-9.456861895030860624e-03,3.309638657470713174e-01
2.750000000000000000e+01,-5.110691125827555581e-01,9.865143450360154553e-02,1.000187428815944718e-01,-4.642802543114146752e-02,-1.718845066249961862e-01,5.669503525302505608e-06,1.474183208423651605e-03,-3.851275960576889656e-03,-7.907131939786439523e-02,4.813474298532673286e-03,-9.775616653180743427e-04,3.309679359736484860e-01
2.775000000000000000e+01,-5.171622003155691427e-01,7.712077306621652195e-02,1.000191842168240419e-01,-5.081617901296429235e-02,-1.727449931822095663e-01,1.747884889831670686e-06,2.121595069708078710e-03,-3.357206368928839467e-03,-3.770202302678498513e-02,5.679085592228382169e-03,7.956265369203085330e-03,3.309802454249910486e-01
2.800000000000000000e+01,-5.237349520105559764e-01,5.541688172195923662e-02,1.000192656328582619e-01,-5.391753329309717513e-02,-1.746187881847993395e-01,1.220140024262563114e-07,2.792202066814065704e-03,-1.807858532721355388e-03,3.670036999545903730e-03,5.213391327869929502e-03,1.613462967951379695e-02,3.310020601684004471e-01
2.825000000000000000e+01,-5.305420740959367887e-01,3.342009157873505887e-02,1.000193528226878403e-01,-5.446102817943476726e-02,-1.773574833414298113e-01,1.738646320002959387e-06,3.410158892012439547e-03,6.155721022865626776e-04,4.504663361605430738e-02,3.573353604848276965e-03,2.219463345609607938e-02,3.310297565123597185e-01
2.850000000000000000e+01,-5.371987315466366653e-01,1.104428240041648544e-02,1.000198060664532484e-01,-5.150916774390359304e-02,-1.805900606431578848e-01,5.555135979683258006e-06,3.905077415997487179e-03,3.579830538775023285e-03,8.642805242809818711e-02,1.202578392710780932e-03,2.490878288471018095e-02,3.310550821622322837e-01
2.875000000000000000e+01,-5.432350481587961966e-01,-1.174024705411837698e-02,1.000207301816584127e-01,-4.464818535923044396e-02,-1.838073828560589096e-01,8.737028659540514849e-06,4.222570982076847071e-03,6.633088086091787003e-03,1.278125304350853364e-01,-1.232408234395496226e-03,2.353431109511583408e-02,3.310681510021692420e-01
2.900000000000000000e+01,-5.481699367074807094e-01,-3.489721347135324447e-02,1.000218386723325387e-01,-3.410093129920474531e-02,-1.864859526128209433e-01,8.216907288778844485e-06,4.333978599764660294e-03,9.276757233126356819e-03,1.691967210130292110e-01,-2.998949139672765860e-03,1.811196917498623590e-02,3.310621561095878906e-01
2.925000000000000000e+01,-5.515914942658277642e-01,-5.833137492583266581e-02,1.000225660864971361e-01,-2.071726772692457363e-02,-1.882235409346567079e-01,2.867573093927492175e-06,4.242891460122608788e-03,1.106459701603981251e-02,2.105770877751288739e-01,-3.515375174480052638e-03,9.597835136390840335e-03,3.310372232949048144e-01
2.950000000000000000e+01,-5.532270673352799317e-01,-8.191125851372306477e-02,1.000224066680599350e-01,-5.822869482352034665e-03,-1.888490499172306991e-01,-5.298264159575860282e-06,3.986241555877338694e-03,1.170658016204505214e-02,2.519514969556825856e-01,-2.561837829309452676e-03,-2.502794962957127041e-04,3.310008174195730457e-01
2.975000000000000000e+01,-5.529860787437222980e-01,-1.055019157159134136e-01,1.000212672194238234e-01,9.054775930210819113e-03,-1.884698395640126145e-01,-1.212023829018870729e-05,3.628594764754727170e-03,1.114906117308656595e-02,2.933200581220563041e-01,-4.052388940392849721e-04,-9.237735373452123783e-03,3.309641605759002236e-01
3.000000000000000000e+01,-5.509636090032858924e-01,-1.289982174447339147e-01,1.000195669579761332e-01,2.252582512445062274e-02,-1.874339436864606856e-01,-1.405218318209260451e-05,3.249847896364004007e-03,9.605295880829782182e-03,3.346847283652600313e-01,2.223899294342641508e-03,-1.526947658768263230e-02,3.309369299837879863e-01
3.025000000000000000e+01,-5.474017700176334600e-01,-1.523479014278537880e-01,1.000179854328365897e-01,3.365959384483079020e-02,-1.862094028766921039e-01,-1.062874398317946635e-05,2.928398298740636421e-03,7.521672080151511376e-03,3.760480655506023284e-01,4.319012139258021458e-03,-1.691014835864343077e-02,3.309237502742300996e-01
3.050000000000000000e+01,-5.426168057655115229e-01,-1.755556873805341200e-01,1.000170410113776359e-01,4.220165682934635953e-02,-1.852109353257208046e-01,-4.558624195062018545e-06,2.723438533898553740e-03,5.482272839778977967e-03,4.174120940810013280e-01,4.906844319251900573e-03,-1.379833900972834114e-02,3.309244119273168083e-01
3.075000000000000000e+01,-5.369094232285591684e-01,-1.986650536728543082e-01,1.000168321242460301e-01,4.862331603918008255e-02,-1.846255570150395764e-01,6.962794846004517230e-07,2.660722279179094686e-03,4.072366898447857785e-03,4.587780126727019625e-01,3.385883388811461881e-03,-6.781068601603440146e-03,3.309365761134324679e-01
3.100000000000000000e+01,-5.304810805790065587e-01,-2.217213142683643889e-01,1.000171351528229974e-01,5.398413330775366642e-02,-1.842950358800091726e-01,3.721753423384565889e-06,2.725629904239032422e-03,3.734348989017653112e-03,5.001466187869438862e-01,-2.190604927525800381e-04,2.282842110873533649e-03,3.309578225078751434e-01
3.125000000000000000e+01,-5.233780391241827923e-01,-2.447262517032874063e-01,1.000177316223423152e-01,5.963981153686407494e-02,-1.837004723879347989e-01,5.773017357434003380e-06,2.865733732245349073e-03,4.653369439928677770e-03,5.415186434373860935e-01,-5.180140126369301920e-03,1.100176005211526628e-02,3.309850808398869249e-01
3.150000000000000000e+01,-5.154779729903997687e-01,-2.675985008701676215e-01,1.000186271365510193e-01,6.687132466339526515e-02,-1.820655668546899697e-01,8.663225253858237854e-06,3.002755196203543177e-03,6.703303554776531004e-03,5.828943558500827571e-01,-1.020977195587191924e-02,1.708054069051878621e-02,3.310126567893312277e-01
3.175000000000000000e+01,-5.065227123131875731e-01,-2.901536147838028601e-01,1.000199342317676515e-01,7.653387480023009226e-02,-1.785586111550345745e-01,1.201971931520642464e-05,3.051404344909837852e-03,9.468904630810896783e-03,6.242726852868994980e-01,-1.379901478100668127e-02,1.892663214315859835e-02,3.310320647258255256e-01
3.200000000000000000e+01,-4.961883841625990832e-01,-3.121130117221252442e-01,1.000215321845659699e-01,8.881956042889599390e-02,-1.725400660410044418e-01,1.276603160628797842e-05,2.940702016755441985e-03,1.234100480269227466e-02,6.656508534439361524e-01,-1.466316720301530027e-02,1.606681140242964545e-02,3.310355073879499010e-01
3.225000000000000000e+01,-4.841742250004799075e-01,-3.331429259152596245e-01,1.000228684884268693e-01,1.031969062694556849e-01,-1.637833257643104001e-01,7.680124008527024971e-06,2.632524450035933668e-03,1.466288140896320445e-02,7.070253071216608953e-01,-1.216369912657778302e-02,9.258049092219226145e-03,3.310211219769534918e-01
3.250000000000000000e+01,-4.702864579515365628e-01,-3.529153145838702099e-01,1.000231733286378322e-01,1.185418110803410502e-01,-1.525981557780844988e-01,-3.137722406423248184e-06,2.132577859754530240e-03,1.589151681055470458e-02,7.483936452154520413e-01,-6.566328677930822338e-03,2.568281731267960631e-04,3.309955698922734668e-01
3.275000000000000000e+01,-4.544952867353613257e-01,-3.711752331894874191e-01,1.000219812923716922e-01,1.334210462647414663e-01,-1.398110236917643190e-01,-1.521304370463529335e-05,1.490781048044864795e-03,1.573135107380094211e-02,7.897562049459998512e-01,9.688542593586089210e-04,-8.691533644492840591e-03,3.309709662383309992e-01
3.300000000000000000e+01,-4.369508806114112964e-01,-3.877960615810006617e-01,1.000195380619368773e-01,1.464464444359414863e-01,-1.265986660605941949e-01,-2.239480560101176842e-05,7.907370243163811723e-04,1.420347633038995978e-02,8.311160202586391765e-01,8.687095473800476864e-03,-1.549200024999957716e-02,3.309577076091335668e-01
3.325000000000000000e+01,-4.179559784742027384e-01,-4.028065657615481077e-01,1.000167267041212338e-01,1.565991133775732347e-01,-1.142180553441294599e-01,-2.120711277956978009e-05,1.309307984521593650e-04,1.163057537820262784e-02,8.724770653543696408e-01,1.474536959712594714e-02,-1.876751521404671635e-02,3.309584275518986374e-01
3.350000000000000000e+01,-3.979048412003779456e-01,-4.163816409993459922e-01,1.000145460416950322e-01,1.634355952531369449e-01,-1.037108868580141896e-01,-1.317558040080982761e-05,-3.973848647825619957e-04,8.542969223765826264e-03,9.138420348638688351e-01,1.775819771830230293e-02,-1.817694973564175365e-02,3.309675629386278906e-01
3.375000000000000000e+01,-3.772069168430038366e-01,-4.287992570710381646e-01,1.000135465779872224e-01,1.671282335307772704e-01,-9.566994420127040988e-02,-3.294432637580585899e-06,-7.297723952093864352e-04,5.535379308333175825e-03,9.552112106269911029e-01,1.719393106410739558e-02,-1.439544458016765206e-02,3.309764132934479020e-01
3.400000000000000000e+01,-3.562161243829264357e-01,-4.403759937647411804e-01,1.000136351000688595e-01,1.683456466762440484e-01,-9.013384009098016070e-02,3.761363312440885311e-06,-8.407118561538192347e-04,3.118218906703972178e-03,9.965830047191376329e-01,1.348789701215406811e-02,-8.792983063787897582e-03,3.309793160689108449e-01
3.425000000000000000e+01,-3.351827053785251809e-01,-4.513992379969541391e-01,1.000143183332331542e-01,1.680265004515613114e-01,-8.663352248740927020e-02,6.396455577686795258e-06,-7.456002005515456567e-04,1.606079006897910035e-03,1.037955464316410836e+00,7.847434481428754854e-03,-2.949769489394851556e-03,3.309763286246855674e-01
3.450000000000000000e+01,-3.142360517535017217e-01,-4.620738525630749272e-01,1.000151104655738060e-01,1.671246207273650863e-01,-8.436524314781949918e-02,5.979345081322555255e-06,-4.929587077834489753e-04,1.070804570365764237e-03,1.079327492291939361e+00,1.836109516652002912e-03,1.813488060502771015e-03,3.309713167019994740e-01
3.475000000000000000e+01,-2.933971026640672108e-01,-4.724954016191539319e-01,1.000157770775033372e-01,1.663999891889598737e-01,-8.242816264927026182e-02,4.738224944994230830e-06,-1.497725163079329056e-04,1.364056038932842402e-03,1.120699064684013813e+00,-3.107671153533469142e-03,4.744674727000221248e-03,3.309680415416279553e-01
3.500000000000000000e+01,-2.726111111253533559e-01,-4.826531775343541053e-01,1.000163090400976174e-01,1.663037514753007151e-01,-8.005173868597333098e-02,3.888693872395519003e-06,2.155471184466387698e-04,2.193393825271875222e-03,1.162070655126869578e+00,-6.060469433840824129e-03,5.742458522447797462e-03,3.309676290093776507e-01
3.525000000000000000e+01,-2.517878988857777389e-01,-4.924574452612437425e-01,1.000167588801913199e-01,1.669687468426203081e-01,-7.674983309002343657e-02,3.326403681393858191e-06,5.479134383276990311e-04,3.223346592400066265e-03,1.203442571209237810e+00,-6.806141716093665195e-03,5.231225967280329556e-03,3.309687664210589353e-01
3.550000000000000000e+01,-2.308375187345546864e-01,-5.017792098677018586e-01,1.000171261357559460e-01,1.682838843047743116e-01,-7.236792212523722456e-02,2.502697977309547295e-06,8.145059643682468070e-04,4.170498398892205638e-03,1.244814711942542118e+00,-5.795338069309043452e-03,3.907674914675690094e-03,3.309695322670590523e-01
