time_total,x,y,z,vx,vy,vz,roll,pitch,yaw,roll_rate,pitch_rate,yaw_rate
e-01,9.990379647692090859e-02,-1.513174013944640905e-01,-4.717322397179735116e-02,3.821708635025346484e-04,-1.367416327774504845e-04,4.846334416963831403e-03,1.802855330906651732e+00,-3.885285895005096226e-04,-1.701687427064185743e-02,-3.310073480280032454e-01
2.500000000000000000e-01,1.490919459838148386e-01,-4.697977122951151885e-01,9.994376867611538817e-02,-1.531382976318920452e-01,-4.115709988939352665e-02,2.680638847583209942e-04,-2.422311695357593029e-03,5.259701311217636170e-03,1.761469595673732735e+00,1.204281692848938783e-03,-1.743856816987457772e-02,-3.309788787101345386e-01
5.000000000000000000e-01,1.297014982692159812e-01,-4.745558733172872135e-01,9.997172031052488361e-02,-1.572606106797634629e-01,-3.518399235867688407e-02,1.859051473687915843e-04,-3.988204028195830621e-03,5.324763766772044014e-03,1.720090604333807338e+00,2.136384910852027336e-03,-6.849417315086756171e-03,-3.309542397678256198e-01
7.500000000000000000e-01,1.097229051755027884e-01,-4.785744505286987915e-01,9.999082109334987700e-02,-1.622171874263853841e-01,-2.934693028604911519e-02,1.250552883912447240e-04,-4.115475798726309434e-03,4.964065787652073049e-03,1.678721532779864578e+00,4.069606580635128437e-03,4.616128210701292943e-03,-3.309423397320046534e-01
1.000000000000000000e+00,8.916465843894900989e-02,-4.818865486299367396e-01,1.000035868941498013e-01,-1.663317055982332371e-01,-2.393348657731965076e-02,8.364483175997964497e-05,-3.149959899289846502e-03,4.193020293875453913e-03,1.637358249271387178e+00,6.881053359896761520e-03,1.044315858331077568e-02,-3.309422434515939537e-01
1.250000000000000000e+00,6.819964286833643530e-02,-4.845741844740680815e-01,1.000122501684679172e-01,-1.687263316023789872e-01,-1.940791089588663268e-02,5.790842767152442385e-05,-1.895170986382812076e-03,3.104922364732282548e-03,1.595994737761292637e+00,9.313072218520337606e-03,9.432393105209159814e-03,-3.309479612013840333e-01
1.500000000000000000e+00,4.704292631444582234e-02,-4.867775119379099680e-01,1.000183632368962794e-01,-1.695472934470192150e-01,-1.619447682922560416e-02,4.154039868591502321e-05,-1.035158425109247498e-03,1.867154599546914061e-03,1.554628085216218647e+00,9.990764419903017807e-03,4.202604483152947747e-03,-3.309531340199468596e-01
1.750000000000000000e+00,2.584314242713438292e-02,-4.886738610791377946e-01,1.000227790554944762e-01,-1.695998396187356760e-01,-1.443985791886572174e-02,3.010202010175876272e-05,-8.492892006440090364e-04,7.125110933534391103e-04,1.513259072501726310e+00,8.173279342824059379e-03,-1.510494798872397517e-03,-3.309554352221315554e-01
2.000000000000000000e+00,4.636357452921171726e-03,-4.904332363749218104e-01,1.000259706271715981e-01,-1.697867785755776404e-01,-1.388509761184139601e-02,2.164677449727774901e-05,-1.234690827072932370e-03,-9.539852967678845669e-05,1.471889466880557329e+00,4.015041491988634303e-03,-5.005791171003149895e-03,-3.309572830858890646e-01
2.250000000000000000e+00,-1.663601771645238300e-02,-4.921676850802418901e-01,1.000282433243618319e-01,-1.706813791386818657e-01,-1.389077532583508218e-02,1.521405879528636011e-05,-1.898791252962690225e-03,-3.256705433352636257e-04,1.430519693601619569e+00,-1.576333664713185393e-03,-5.445184407017134021e-03,-3.309626163718457081e-01
2.500000000000000000e+00,-3.807326051417187635e-02,-4.938924678491153353e-01,1.000298176919082183e-01,-1.723750867734831493e-01,-1.358791220577440853e-02,1.041017331048907157e-05,-2.560044255349478576e-03,1.470784159627150139e-04,1.389148832689207191e+00,-7.285511850489505802e-03,-3.526401761253003097e-03,-3.309733197182570530e-01
2.750000000000000000e+00,-5.975882602611685968e-02,-4.955109300680277662e-01,1.000309039487105589e-01,-1.745649822370569371e-01,-1.209286644439479426e-02,7.383355063107616011e-06,-3.058580991000101404e-03,1.290726855276552558e-03,1.347775936121274887e+00,-1.177020943148679964e-02,-6.334483965425790437e-04,-3.309878484906979002e-01
3.000000000000000000e+00,-8.172381137272735629e-02,-4.968267970305163539e-01,1.000317271636938093e-01,-1.767598910830876779e-01,-8.721249321747703495e-03,6.063995062365324428e-06,-3.363286271964284480e-03,2.907748606685047615e-03,1.306400908340000777e+00,-1.398434858068562867e-02,1.936139559535385605e-03,-3.310018870496628796e-01
3.250000000000000000e+00,-1.039372634250805283e-01,-4.975802514624680373e-01,1.000324468427500751e-01,-1.784877784287219882e-01,-3.149181101492134170e-03,5.465123751545090118e-06,-3.517796370658076831e-03,4.676432510668582405e-03,1.265024486907557089e+00,-1.340260325477173747e-02,3.371625708571210876e-03,-3.310100987178207776e-01
3.500000000000000000e+00,-1.263186010244608248e-01,-4.974988856597402087e-01,1.000330561596242396e-01,-1.794382264450697095e-01,4.510932150737130726e-03,4.095367668521272363e-06,-3.579643569179561096e-03,6.227517873657421703e-03,1.223647889622075491e+00,-1.012494922797554410e-02,3.390345832860911218e-03,-3.310083861317325571e-01
3.750000000000000000e+00,-1.487627223369975826e-01,-4.963518048922505588e-01,1.000333939496783897e-01,-1.795265994202915882e-01,1.373294177388255377e-02,1.154329858531913823e-06,-3.586659570419443305e-03,7.231912971394100637e-03,1.182272501574974655e+00,-4.848839528088668901e-03,2.094163428049797878e-03,-3.309958755262458197e-01
4.000000000000000000e+00,-1.711688696240196428e-01,-4.939948460303163480e-01,1.000332908510902508e-01,-1.788956754236575297e-01,2.369073775763085726e-02,-2.701049173591803313e-06,-3.555802235050394347e-03,7.475285483008019781e-03,1.140899507234485188e+00,1.285740701300806116e-03,-1.863864684561531825e-04,-3.309754825566300074e-01
4.250000000000000000e+00,-1.934667787848677045e-01,-4.903969721790213399e-01,1.000327375861204821e-01,-1.778747991100234349e-01,3.343790688201071087e-02,-5.764873218686542761e-06,-3.499849092659843095e-03,6.903295913873615935e-03,1.099529461503159888e+00,6.945856643093825840e-03,-2.979315606288307494e-03,-3.309525592491462942e-01
4.500000000000000000e+00,-2.156356818508687323e-01,-4.856420157313766639e-01,1.000319392325099144e-01,-1.769086627774399123e-01,4.211438559267292880e-02,-6.535829195967786268e-06,-3.443142831489591753e-03,5.631713356662136453e-03,1.058162099476251727e+00,1.089348615875617744e-02,-5.703170444679753551e-03,-3.309325139260389514e-01
4.750000000000000000e+00,-2.377127607195074210e-01,-4.799052536760508580e-01,1.000312113289975879e-01,-1.764613907108366908e-01,4.913572636279545797e-02,-4.823289269401374167e-06,-3.424863139209411139e-03,3.924071146743394675e-03,1.016796581629277441e+00,1.224730582517696842e-02,-7.702304570950609802e-03,-3.309190622821814309e-01
5.000000000000000000e+00,-2.597883860141337320e-01,-4.734096853725369702e-01,1.000307950457692968e-01,-1.769034287596942812e-01,5.432461489567401436e-02,-1.884305540377196144e-06,-3.489040113991605328e-03,2.144088989750508271e-03,9.754319343071886639e-01,1.066414193146180203e-02,-8.333490108161291376e-03,-3.309141157989572424e-01
5.250000000000000000e+00,-2.819869251432529644e-01,-4.663711974877418620e-01,1.000307265548473906e-01,-1.783973247226564585e-01,5.795675259974080590e-02,4.885473034579543198e-07,-3.668069730685339855e-03,6.916554133436514113e-04,9.340672398611861160e-01,6.407149627036788815e-03,-7.109458981402294424e-03,-3.309188546709106449e-01
5.500000000000000000e+00,-3.044345277139354766e-01,-4.589441663593734066e-01,1.000308550471173952e-01,-1.808074575431276032e-01,6.071114094987083154e-02,1.269153619892548532e-06,-3.968323435174093972e-03,-6.831984286087864700e-05,8.927014246646113316e-01,2.917313125573232197e-04,-3.861365572277295280e-03,-3.309345516442766533e-01
5.750000000000000000e+00,-3.272186971586000803e-01,-4.511790263394477862e-01,1.000309974681099223e-01,-1.836615248838697756e-01,6.353438344399110760e-02,9.564238423393240964e-07,-4.363765988831495336e-03,1.258926550094394083e-04,8.513329762282313418e-01,-6.477748014535950755e-03,1.140158121114029236e-03,-3.309619827217926691e-01
6.000000000000000000e+00,-3.503475919958203288e-01,-4.430009596165987440e-01,1.000311171735587534e-01,-1.861847091887254280e-01,6.744613920758765757e-02,1.192996215197238381e-06,-4.799164072921312078e-03,1.378401611470085305e-03,8.099600978310373955e-01,-1.254799538269605642e-02,7.158856837919083844e-03,-3.309995256895327809e-01
6.250000000000000000e+00,-3.737186847555182267e-01,-4.342146151125649278e-01,1.000313856967632309e-01,-1.874119376342796572e-01,7.332502697661304192e-02,3.405920515334629111e-06,-5.200942160683228073e-03,3.605276997487448683e-03,7.685814963906606456e-01,-1.668686556232605589e-02,1.308638258448866463e-02,-3.310413533380238138e-01
6.500000000000000000e+00,-3.971058296541211119e-01,-4.245344788379518119e-01,1.000320574646206134e-01,-1.863640382440717169e-01,8.171866972519048478e-02,7.364572682336095451e-06,-5.492078492097561548e-03,6.535624171109324920e-03,7.271974450208731344e-01,-1.803078726982326394e-02,1.764431222096460999e-02,-3.310775115509767552e-01
6.750000000000000000e+00,-4.201708098810995051e-01,-4.136352484643369132e-01,1.000332200725734255e-01,-1.822556369332501980e-01,9.271720293199754714e-02,1.075744932629327850e-05,-5.607408648559136441e-03,9.746702196210673894e-03,6.858104006068365122e-01,-1.626122324674890776e-02,1.965398191036107911e-02,-3.310967561306750739e-01
7.000000000000000000e+00,-4.425005889939129800e-01,-4.012123720581218800e-01,1.000345920467509142e-01,-1.746911713104260244e-01,1.059172549080851650e-01,1.033225156711330539e-05,-5.506514377163468539e-03,1.272961002556125334e-02,6.444245794998444410e-01,-1.167499903277485242e-02,1.831655930552991002e-02,-3.310912611876739575e-01
7.250000000000000000e+00,-4.636657929117455335e-01,-3.870406481153868539e-01,1.000355419536541612e-01,-1.638032161193149761e-01,1.204855213535007269e-01,4.086230315442648308e-06,-5.182303809844196127e-03,1.497612027803088899e-02,6.030444664506146024e-01,-5.132199124403121100e-03,1.344126916277990809e-02,-3.310607825236151491e-01
7.500000000000000000e+00,-4.832906281591172748e-01,-3.710189398727646304e-01,1.000353758585806191e-01,-1.502951668123364837e-01,1.353109190189999422e-01,-6.886569569661632995e-06,-4.664116642354295891e-03,1.607244434648757991e-02,5.616729209009986290e-01,2.112482202823941831e-03,5.566036074460927775e-03,-3.310136636231130192e-01
7.750000000000000000e+00,-5.011207054536374050e-01,-3.531916749510798925e-01,1.000337531320988488e-01,-1.353672300105357440e-01,1.492156218246178390e-01,-1.831010207863807283e-05,-4.014773464671403912e-03,1.578295590825825809e-02,5.203099079894620838e-01,8.665920561897286212e-03,-4.068807317861441834e-03,-3.309636075582714776e-01
8.000000000000000000e+00,-5.170740697461806423e-01,-3.337424599090714761e-01,1.000309692665455330e-01,-1.205280980693097109e-01,1.611817377450573407e-01,-2.481060431775520143e-05,-3.321665834401311621e-03,1.410693774495696065e-02,4.789526275449476622e-01,1.329051422964795323e-02,-1.370704309794728085e-02,-3.309236644197703359e-01
8.250000000000000000e+00,-5.312627076865208409e-01,-3.129609796362513574e-01,1.000278901054053177e-01,-1.073205811045540026e-01,1.705452116621901104e-01,-2.307946318386034981e-05,-2.682906151415616249e-03,1.129471857827695110e-02,4.375970201823156658e-01,1.517284625510621938e-02,-2.140311655558843965e-02,-3.309007964501664567e-01
8.500000000000000000e+00,-5.439768827195853307e-01,-2.911901750676197942e-01,1.000255312211620756e-01,-9.701243965248740331e-02,1.771138393063025895e-01,-1.406499473553008431e-05,-2.190616557363400056e-03,7.816108162874001175e-03,3.962397632337262277e-01,1.410344700968585788e-02,-2.543247408326507544e-02,-3.308942334715145317e-01
8.750000000000000000e+00,-5.556320847715022770e-01,-2.687651626780053205e-01,1.000245222970062992e-01,-9.031773927133977808e-02,1.811820627031079933e-01,-2.546868403946336514e-06,-1.914285861258148728e-03,4.283084182240561553e-03,3.548795278591874713e-01,1.051977759007095836e-02,-2.469933185245483387e-02,-3.308984594174484428e-01
9.000000000000000000e+00,-5.666867218803561812e-01,-2.459573168891378003e-01,1.000248019015271966e-01,-8.721423870331374006e-02,1.834386596996330221e-01,5.855428628639967236e-06,-1.887400546631785858e-03,1.338721101201656178e-03,3.135167533324835221e-01,5.395264631103545601e-03,-1.904119865806025436e-02,-3.309085357445614717e-01
9.250000000000000000e+00,-5.775460074675531352e-01,-2.229357534977599031e-01,1.000257533691019662e-01,-8.690637849889869260e-02,1.847891152108367130e-01,8.293833989561189454e-06,-2.100116061934276246e-03,-4.667495911673869339e-04,2.721522315012444571e-01,-3.672487977514978137e-06,-9.339662610037054169e-03,-3.309237833638217219e-01
9.500000000000000000e+00,-5.884718598329182759e-01,-1.997542760262435990e-01,1.000266889482653992e-01,-8.795310447969476031e-02,1.861357101474196973e-01,6.340230569253003781e-06,-2.499686223816397369e-03,-7.865836684287563427e-04,2.307856644554988346e-01,-4.433348027239411397e-03,2.613876403251431599e-03,-3.309470176857483570e-01
9.750000000000000000e+00,-5.995185836101565302e-01,-1.763656367568021688e-01,1.000273320367074392e-01,-8.854118737641081260e-02,1.881691562328787481e-01,4.396699134632402645e-06,-2.998942591642003719e-03,4.506186176191148284e-04,1.894153955762777064e-01,-6.978116586739804665e-03,1.448499286839417116e-02,-3.309799441945473486e-01
1.000000000000000000e+01,-6.105092229213853194e-01,-1.526582913720097023e-01,1.000279419371910422e-01,-8.684774015580044859e-02,1.912223825231410546e-01,6.018768383204298476e-06,-3.491552783316158228e-03,3.025602688157884908e-03,1.480396308286045792e-01,-7.261512909306185384e-03,2.391200280471047004e-02,-3.310184901940891322e-01
1.025000000000000000e+01,-6.210586883488224963e-01,-1.285054659588478476e-01,1.000289946731175161e-01,-8.141139923573036119e-02,1.952201770981505657e-01,1.096346562838314728e-05,-3.871336386583203344e-03,6.473969582630099105e-03,1.066582865776293243e-01,-5.505749485565497418e-03,2.903646393351343169e-02,-3.310521933615038770e-01
1.050000000000000000e+01,-6.306392391696403754e-01,-1.038137613472280563e-01,1.000306755033184974e-01,-7.142832706265012099e-02,1.997324165220646097e-01,1.524444349616095523e-05,-4.051888332899026939e-03,1.018153389853389094e-02,6.527402586093916659e-02,-2.428295267011756908e-03,2.890769721201763912e-02,-3.310688104769672901e-01
1.075000000000000000e+01,-6.386744355764363279e-01,-7.855935003137175243e-02,1.000325829942251971e-01,-5.690817851635057018e-02,2.041112557420850238e-01,1.412838435097760339e-05,-3.982490915860363231e-03,1.350662536032257513e-02,2.389155184458825049e-02,9.862541034511155061e-04,2.366118587982520699e-02,-3.310612810093794267e-01
1.100000000000000000e+01,-6.446417183063000156e-01,-5.280371423669689285e-02,1.000338788226539238e-01,-3.866025418266034325e-02,2.076719972992248919e-01,5.762087356154490068e-06,-3.656988430671523089e-03,1.590142126426803693e-02,-1.748454458479974799e-02,3.766307508569735792e-03,1.443995259831314278e-02,-3.310322545477893952e-01
1.125000000000000000e+01,-6.481626625586588419e-01,-2.668659250508720326e-02,1.000337810330024779e-01,-1.812040159162440697e-02,2.098689937121329396e-01,-7.245323248891798168e-06,-3.113847366691357716e-03,1.700704541644532455e-02,-5.885205807317626936e-02,5.204306600710423801e-03,3.098724273995782409e-03,-3.309930442129641048e-01
1.150000000000000000e+01,-6.490636125932669476e-01,-3.996791548728521794e-04,1.000320552421452291e-01,2.936253856954582162e-03,2.104231540377417553e-01,-1.930849876517152030e-05,-2.427624030528323113e-03,1.670565130802453488e-02,-1.002121586943818948e-01,5.014875361280994939e-03,-8.219028033506985131e-03,-3.309577300703188119e-01
1.175000000000000000e+01,-6.473965514388465570e-01,2.585089232660640543e-02,1.000291779650406693e-01,2.273084807254200854e-02,2.093735385650416503e-01,-2.521771077168839573e-05,-1.693967213358571911e-03,1.512384048126370895e-02,-1.415685714253998584e-01,3.369656184252743224e-03,-1.752275325245308130e-02,-3.309362525874287031e-01
1.200000000000000000e+01,-6.434187319785715786e-01,5.188315489056632285e-02,1.000260865113584141e-01,3.979466277236399369e-02,2.070466797483834498e-01,-2.303064651780517794e-05,-1.011593837227946560e-03,1.259221650537020211e-02,-1.829255705596664616e-01,8.143414764615877419e-04,-2.334046682324864355e-02,-3.309305933809842393e-01
1.225000000000000000e+01,-6.375394963077469779e-01,7.756189587821624154e-02,1.000246494547866044e-01,5.307271945380186151e-02,2.034021151702412322e-01,2.064677317305586461e-05,4.445911128529706283e-03,9.492102348258280378e-03,-2.171616982935025975e-01,1.670863960919423130e-01,-6.561012667068531756e-02,-7.406504906504089714e-02
1.250000000000000000e+01,-6.305046250874593028e-01,1.017325845542721707e-01,1.000547358330451941e-01,5.704391919597436716e-02,1.772818336364428426e-01,5.802937744763736125e-04,4.031783287782761405e-02,5.295198002586636726e-03,-2.030912874588465811e-01,3.127489426052720289e-01,-1.040916781293628052e-01,2.212817446412649880e-01
1.275000000000000000e+01,-6.238775432718282055e-01,1.197799856942257796e-01,1.001620889260716046e-01,4.731960007493833664e-02,1.070338063967933295e-01,8.941758021527838494e-04,7.394413172902006282e-02,3.446331041933572894e-05,-1.692489182644960899e-01,1.736948655990619428e-01,-7.353135741796887337e-02,2.994450949552015517e-01
1.300000000000000000e+01,-6.190673319766480942e-01,1.270158011335360548e-01,1.002118496372788187e-01,2.959856990197098914e-02,1.020507172633198546e-02,-2.124102743714537870e-04,8.190783733806110412e-02,-4.740854644021223578e-03,-1.301375985274624836e-01,-5.029625583204197503e-02,-2.435002273577885346e-02,3.213912557554713390e-01
1.325000000000000000e+01,-6.165538282283787863e-01,1.221833892287075424e-01,1.001138275486908452e-01,1.172649825598286524e-02,-8.112718190976055121e-02,-1.138443187814471057e-03,6.474759192543172448e-02,-6.984448484180993781e-03,-8.934297767357771147e-02,-2.018087959189815428e-01,1.337015050941524515e-02,3.280934246845370050e-01
1.350000000000000000e+01,-6.159881317129278777e-01,1.076331591681265604e-01,9.997996612722737098e-02,-1.189749671502345410e-03,-1.438583607796234953e-01,-8.449071277921492516e-04,3.655900259041139355e-02,-5.853313933629450405e-03,-4.798001414160824735e-02,-2.257657879714771998e-01,3.184953137938512785e-02,3.302419369931963167e-01
1.375000000000000000e+01,-6.166125422358036401e-01,8.744123408159214239e-02,9.992167090736370216e-02,-7.492595283049126136e-03,-1.731727331202789211e-01,-1.356805988340600594e-04,1.219105737086848863e-02,-2.216853686294410156e-03,-6.539477203203881810e-03,-1.542701637067650511e-01,3.542670397582342590e-02,3.309846320134423592e-01
1.400000000000000000e+01,-6.176211392708368386e-01,6.526313842458279779e-02,9.993097349873596158e-02,-7.732385618111939710e-03,-1.787519885649324902e-01,1.951123423519408211e-04,-5.324817178137729529e-04,2.095206344189890196e-03,3.485736276698130076e-02,-5.432407137329738067e-02,3.058461942122312274e-02,3.312181060647642616e-01
1.425000000000000000e+01,-6.183411791281646641e-01,4.312860132295071036e-02,9.995725608312303057e-02,-3.279026445469057031e-03,-1.750927889340929133e-01,1.980326366768636050e-04,-1.964543899673404370e-03,5.429615107217981504e-03,7.625677505792097244e-02,1.874194145489208735e-02,2.180309931491549585e-02,3.311917737582670274e-01
1.450000000000000000e+01,-6.182808984124491536e-01,2.141820173291329385e-02,9.997852328901608854e-02,4.408708121239934656e-03,-1.731830500411834783e-01,1.468390407999788821e-04,2.665042034906576606e-03,7.048711680242633094e-03,1.176777124014319192e-01,4.382960831480795655e-02,1.156610316789476525e-02,3.310627445789122159e-01
1.475000000000000000e+01,-6.171257880031325582e-01,-4.223933966853225764e-04,9.999448146877898402e-02,1.395287515458579382e-02,-1.770971269792782077e-01,1.098634672332850633e-04,7.644415212235584033e-03,7.156471698612004370e-03,1.590885006200283003e-01,3.086182260866061206e-02,1.536041241849898974e-03,3.309482509120037497e-01
1.500000000000000000e+01,-6.147289942241216387e-01,-2.305936998855946315e-02,1.000054555493421343e-01,2.404743733005109893e-02,-1.852124970090767153e-01,6.611741881739634946e-05,9.663097446040009447e-03,6.427571904697906846e-03,2.004668517144828077e-01,3.600194377108159940e-03,-6.734985838861780143e-03,3.308934868441658628e-01
1.525000000000000000e+01,-6.110992540826855057e-01,-4.677087365649419681e-02,1.000111427495359306e-01,3.352605170453461236e-02,-1.936244202469898645e-01,2.949030107763290126e-05,8.384684552672225580e-03,5.477595954262717490e-03,2.418207030970354887e-01,-1.728695110273899271e-02,-1.197562363916401806e-02,3.308938816684732775e-01
1.550000000000000000e+01,-6.063733809734749292e-01,-7.137466545446163879e-02,1.000137630714892506e-01,4.152546189948247424e-02,-1.992382809590453885e-01,1.658617097296154064e-05,5.364140358833572979e-03,4.589987960891509823e-03,2.831691350364723414e-01,-2.288455234139361374e-02,-1.368150087770275865e-02,3.309246097167182210e-01
1.575000000000000000e+01,-6.007681106769094947e-01,-9.644022152009996962e-02,1.000158256949429392e-01,4.763195672754397952e-02,-2.011791369373123195e-01,1.710912318728412254e-05,2.499046175742908500e-03,3.760266318828614073e-03,3.245249095668040762e-01,-1.559769285393917265e-02,-1.224528691838758926e-02,3.309574462128055949e-01
1.600000000000000000e+01,-5.945202462921190811e-01,-1.215621943620901202e-01,1.000179797209705679e-01,5.191705676424096527e-02,-2.005089097478889026e-01,1.671245400969771460e-05,9.507054348594185878e-04,2.916113750929017010e-03,3.658906393545872660e-01,-3.496928897560335793e-03,-8.605869171561466788e-03,3.309751530737011782e-01
1.625000000000000000e+01,-5.878302713977250349e-01,-1.465309640823703463e-01,1.000198745448594162e-01,5.485621696071467379e-02,-1.990541673476176887e-01,1.353749392481140671e-05,8.633051323716398832e-04,2.116416842140155224e-03,4.072625340836469876e-01,5.752659370087374185e-03,-3.734873578630561533e-03,3.309783114172955010e-01
1.650000000000000000e+01,-5.808207033193284463e-01,-1.713496122700009228e-01,1.000213683182841345e-01,5.718786843046654716e-02,-1.982492643072446825e-01,1.063241588097233882e-05,1.689215568239394978e-03,1.605938939079710592e-03,4.486362743996360480e-01,8.351673506947042067e-03,1.671711683676810464e-03,3.309783332395729860e-01
1.675000000000000000e+01,-5.735124932440751611e-01,-1.961389937047092469e-01,1.000225546658155690e-01,5.977316428334970150e-02,-1.985329102669888823e-01,8.488457760346468031e-06,2.713704201697596501e-03,1.721314754194994264e-03,4.900105589699867981e-01,4.667666535317038096e-03,7.159582043354303926e-03,3.309854924479111449e-01
1.700000000000000000e+01,-5.658174204355899128e-01,-2.210089802036586948e-01,1.000235013835543002e-01,6.347983782610286396e-02,-1.993685219197287029e-01,6.865077439380536045e-06,3.442615602617569992e-03,2.728637179779563968e-03,5.313862963736409872e-01,-2.456307243000669521e-03,1.227351159627823943e-02,3.310028688024088117e-01
1.725000000000000000e+01,-5.575440026220759293e-01,-2.459605291681797590e-01,1.000243392505621998e-01,6.907805313105108702e-02,-1.996522077535447803e-01,6.940851581846114256e-06,3.722075480605308625e-03,4.689264606631752923e-03,5.727641180972570245e-01,-9.775086131668584560e-03,1.635875769161887483e-02,3.310269272919065808e-01
1.750000000000000000e+01,-5.484167589098485340e-01,-2.708469012632429007e-01,1.000253459876056378e-01,7.712905980606796219e-02,-1.982023341427413266e-01,9.412768144676925402e-06,3.644525119989068182e-03,7.412705362990151294e-03,6.141435114400561890e-01,-1.499580917773621347e-02,1.858409146948319240e-02,3.310501454988779013e-01
1.775000000000000000e+01,-5.381099477320101521e-01,-2.953892904914932616e-01,1.000267284234586940e-01,8.786775658206597006e-02,-1.941225822253481170e-01,1.240984491673420398e-05,3.378104934963368708e-03,1.050079834468177660e-02,6.555233867847909401e-01,-1.712960085694459691e-02,1.818974549524694437e-02,3.310637366209603361e-01
1.800000000000000000e+01,-5.262949509276184656e-01,-3.192256464649557146e-01,1.000283261892989800e-01,1.011075139424578162e-01,-1.869767318395426647e-01,1.236569547495702391e-05,3.037819285947425656e-03,1.344875935895700411e-02,6.969022744568730277e-01,-1.616052115466961800e-02,1.481983757037089872e-02,3.310611399713866421e-01
1.825000000000000000e+01,-5.126958751912528145e-01,-3.419711392563207220e-01,1.000295720720290327e-01,1.162084442564788045e-01,-1.768165641400547550e-01,6.773475160917562125e-06,2.647219459598879488e-03,1.575888580817631432e-02,7.382780729142238707e-01,-1.253894590177778191e-02,8.759659343640632811e-03,3.310417381998342345e-01
1.850000000000000000e+01,-4.971432389747889036e-01,-3.632765152615140547e-01,1.000297760715332523e-01,1.321397111787377954e-01,-1.641335207716905498e-01,-3.743003837597341440e-06,2.173536993300563113e-03,1.703510280517930159e-02,7.796486125964974256e-01,-6.858158226592393769e-03,9.595313750906503923e-04,3.310122755093707902e-01
1.875000000000000000e+01,-4.796135046785225953e-01,-3.828781901366865581e-01,1.000285380990924011e-01,1.476380483656614118e-01,-1.497801161607847376e-01,-1.546274448448533315e-05,1.588189593042264869e-03,1.704573347395547944e-02,8.210132157079284010e-01,1.987484484262077894e-04,-7.165655450812385627e-03,3.309841346685604146e-01
1.900000000000000000e+01,-4.602440644216846954e-01,-4.006371259909109472e-01,1.000260249306369614e-01,1.614324578433981860e-01,-1.348684699721341695e-01,-2.349884916365330460e-05,9.097328460677886475e-04,1.575533078341483789e-02,8.623738173706875232e-01,7.762727929353988379e-03,-1.408118078046587465e-02,3.309675956885432258e-01
1.925000000000000000e+01,-4.393186372572346343e-01,-4.165628163650413884e-01,1.000229469973740737e-01,1.724827711298050348e-01,-1.206321518830810041e-01,-2.440176584920278306e-05,2.107721681359875756e-04,1.333001365420207612e-02,9.037343181490637978e-01,1.471732740260955040e-02,-1.850240037150727851e-02,3.309665698154453661e-01
1.950000000000000000e+01,-4.172250920201455715e-01,-4.308171124510457028e-01,1.000202456454016148e-01,1.801747141582152045e-01,-1.082437418709211036e-01,-1.799624153793079854e-05,-4.054090772115714674e-04,1.011793296919379949e-02,9.450984493145341281e-01,1.979426901706661870e-02,-1.968374646961982069e-02,3.309770528772394416e-01
1.975000000000000000e+01,-3.943942676643023559e-01,-4.436931543379752374e-01,1.000186571171012839e-01,1.844259594314412443e-01,-9.860504697716285238e-02,-7.477321853823841120e-06,-8.402935153615481278e-04,6.603498368191991832e-03,9.864677444152387675e-01,2.183418668316045377e-02,-1.756333836084227398e-02,3.309900867960419713e-01
2.000000000000000000e+01,-3.712326451676265515e-01,-4.555685178060639440e-01,1.000183874999545641e-01,1.856806312492945699e-01,-9.215245571073424347e-02,2.331825557415994099e-06,-1.030031298261189880e-03,3.335379840579856450e-03,1.027841053211971500e+00,2.012317365506555503e-02,-1.274637355974053178e-02,3.309972698736097785e-01
2.025000000000000000e+01,-3.480628234220362605e-01,-4.668379470792100583e-01,1.000190803951061802e-01,1.847963434498482438e-01,-8.873157313958511538e-02,7.666612954766242714e-06,-9.603406136692656421e-04,8.346566425925023474e-04,1.069215770538010091e+00,1.467350560982449287e-02,-6.346467871908414993e-03,3.309954800837368594e-01
2.050000000000000000e+01,-3.250836510855206751e-01,-4.778374640561729447e-01,1.000200974801719878e-01,1.828515930522877087e-01,-8.758658135144350987e-02,7.881789515451457389e-06,-6.658194747128539899e-04,-5.021328594704815157e-04,1.110589746598169336e+00,6.334345329583724801e-03,2.727347921967562274e-04,3.309880619453564599e-01
2.075000000000000000e+01,-3.023572358048121078e-01,-4.887757619559376376e-01,1.000209365315477134e-01,1.809177388379438756e-01,-8.748328841143725165e-02,5.501870737073751839e-06,-2.183729367324823692e-04,-4.843430444494288729e-04,1.151962535277434307e+00,-3.322569074676587006e-03,5.799227699981385903e-03,3.309818854441989311e-01
2.100000000000000000e+01,-2.798239954978210542e-01,-4.996889134153933987e-01,1.000215091236852649e-01,1.798462329223887990e-01,-8.694949332161570899e-02,4.113182240097932906e-06,2.895150828350957252e-04,8.276703490842622244e-04,1.193335253988786260e+00,-1.232307225390949154e-02,9.253791890482311946e-03,3.309822685596656711e-01
2.125000000000000000e+01,-2.573407642410744933e-01,-5.104301722944900588e-01,1.000220871773001841e-01,1.801171908096280416e-01,-8.458346065483306198e-02,5.539858688359585135e-06,7.624507140783339182e-04,3.127356240139308585e-03,1.234709326335673651e+00,-1.873465884296587891e-02,1.018908938641180893e-02,3.309891947418702740e-01
2.150000000000000000e+01,-2.347320663547904085e-01,-5.206990102409717602e-01,1.000229668058833787e-01,1.817805688621803306e-01,-7.936086929582721050e-02,8.419117189941018015e-06,1.118378901637179582e-03,5.918612243573830554e-03,1.276085099253703836e+00,-2.111990579526224973e-02,8.760970400296802518e-03,3.309974309007053250e-01
2.175000000000000000e+01,-2.118421349053768443e-01,-5.301044659861566810e-01,1.000241163926612331e-01,1.844991752016932052e-01,-7.086810187303309305e-02,9.325236450522957264e-06,1.301974206688080509e-03,8.613597773987879611e-03,1.317461349287823991e+00,-1.888611162265063995e-02,5.654935417661191913e-03,3.310004128265840451e-01
2.200000000000000000e+01,-1.885756739627159895e-01,-5.382497022722672053e-01,1.000250954601342168e-01,1.876784340766818326e-01,-5.940532071899364691e-02,5.625836300015213090e-06,1.293731785251155770e-03,1.065127237357663126e-02,1.358836024789860764e+00,-1.244622254712977535e-02,1.886029862677341025e-03,3.309950140241139094e-01
2.225000000000000000e+01,-1.649186532296118279e-01,-5.448193813613140257e-01,1.000253241715182012e-01,1.906471284380915343e-01,-4.593213213579027537e-02,-2.150114265979792167e-06,1.113152528649069247e-03,1.161140711512671092e-02,1.400207661778362089e+00,-3.149890057300162687e-03,-1.476769383110675300e-03,3.309836677879555156e-01
2.250000000000000000e+01,-1.409357717346569061e-01,-5.496503782757907741e-01,1.000245068906410184e-01,1.928415557438406258e-01,-3.186485254479366758e-02,-1.032746826766044598e-05,8.148494975838906258e-04,1.129953954401028728e-02,1.441576409827771910e+00,7.005951696857250569e-03,-3.589520561626216577e-03,3.309723581271379333e-01
2.275000000000000000e+01,-1.167472816409735048e-01,-5.527697969000920919e-01,1.000228854301945386e-01,1.939459341292466554e-01,-1.876945531418009946e-02,-1.453842557442234188e-05,4.776698750903697523e-04,9.784192186395345922e-03,1.482943902637504197e+00,1.582711824609679338e-02,-4.040713972620183642e-03,3.309661804758678993e-01
2.300000000000000000e+01,-9.249304691715157234e-02,-5.543915710475728620e-01,1.000211225423617151e-01,1.939547750656366309e-01,-8.020179287396008577e-03,-1.275848721676008767e-05,1.886708533488189838e-04,7.377583873192422072e-03,1.524312097119332021e+00,2.143182060490893617e-02,-2.930273269499837543e-03,3.309659791092786074e-01
2.325000000000000000e+01,-6.829463045588615722e-02,-5.548725210853058254e-01,1.000198978213090728e-01,1.931451968097133709e-01,-5.038428395595078574e-04,-6.611837199123526099e-06,2.531418491972725471e-05,4.563248966280840715e-03,1.565681991194655343e+00,2.269778189919966285e-02,-7.989493666379763508e-04,3.309685642330597588e-01
2.350000000000000000e+01,-4.422604842195607816e-02,-5.546383448237429681e-01,1.000195142097666939e-01,1.919727811446011456e-01,3.559445039981438356e-03,-9.052611271720930137e-09,3.990790919924941263e-05,1.886129978823693600e-03,1.607053185619023772e+00,1.953080094317211080e-02,1.569115538996284720e-03,3.309700510105375582e-01
2.375000000000000000e+01,-2.030065771165213626e-02,-5.540972316353578453e-01,1.000197929218789583e-01,1.909261222254646506e-01,4.636303282880898866e-03,3.714540043616286202e-06,2.498499690447333584e-04,-1.697626675777149285e-04,1.648424546261118007e+00,1.287563793131441502e-02,3.408194679212619548e-03,3.309693781421413905e-01
2.400000000000000000e+01,3.523585621674539189e-03,-5.535616292758790413e-01,1.000202987811841110e-01,1.903859869008616146e-01,3.738232262916557202e-03,3.878232204005830890e-06,6.357927235569919237e-04,-1.286787699192953926e-03,1.689795345753055456e+00,4.454929174817803296e-03,4.212738531806372970e-03,3.309690672961193014e-01
2.425000000000000000e+01,2.732391830627467835e-02,-5.531962352212362877e-01,1.000206846231054131e-01,1.905313650010544702e-01,2.157759184297393298e-03,2.262211618137199140e-06,1.147912852974594016e-03,-1.375958989905507216e-03,1.731165935103807119e+00,-3.699548618170503053e-03,3.880139194210217683e-03,3.309727140833446657e-01
2.450000000000000000e+01,5.118533439208797914e-02,-5.530030416498790125e-01,1.000208808147605155e-01,1.913176248905719690e-01,1.154871222747938173e-03,1.124600119010102463e-06,1.718556883397562773e-03,-5.805281298300145462e-04,1.772537451395481689e+00,-9.791516461570294247e-03,2.709137634324253197e-03,3.309814595744609012e-01
2.475000000000000000e+01,7.517523287509692009e-02,-5.528441959637799830e-01,1.000210217243610311e-01,1.925271742906908556e-01,1.678121503163123879e-03,1.313666632102271918e-06,2.278072464865774690e-03,7.787755846956395580e-04,1.813910878812712735e+00,-1.272029313507561446e-02,1.259460965606413628e-03,3.309924368754480484e-01
2.500000000000000000e+01,9.932790266133405266e-02,-5.524934577052794671e-01,1.000212322553153121e-01,1.938690126665969793e-01,4.192062428825396939e-03,1.996154927729768141e-06,2.769940369887573944e-03,2.300115464975605907e-03,1.855286253537793195e+00,-1.232093937379701021e-02,1.276998579249745500e-04,3.310003938544887059e-01
2.525000000000000000e+01,1.236425559587177037e-01,-5.517000873022123164e-01,1.000214874927820990e-01,1.950886671732376954e-01,8.648835339168462963e-03,1.886672597049786787e-06,3.161568697271002239e-03,3.610352230660284975e-03,1.896662591392115127e+00,-9.321023440102034138e-03,-2.766409107569691166e-04,3.310010698187106915e-01
2.550000000000000000e+01,1.480935987800095222e-01,-5.502470757422861514e-01,1.000216495163847030e-01,1.960491808198477071e-01,1.459787604016596178e-02,5.851275453227406104e-07,3.448292529548996604e-03,4.457402984422069968e-03,1.938038487574117674e+00,-5.043465004289367920e-03,1.262976795798100287e-04,3.309937335956720794e-01
2.575000000000000000e+01,1.726476255293454276e-01,-5.479890487642318231e-01,1.000216077088109112e-01,1.967568135890397918e-01,2.138821281306318989e-02,-1.177642297173686829e-06,3.649979236032987236e-03,4.761105843445606611e-03,1.979412868876329723e+00,-9.654136772893689381e-04,1.073295605219990812e-03,3.309813298063512543e-01
2.600000000000000000e+01,1.972796709148250949e-01,-5.448625495669700003e-01,1.000213746048635582e-01,1.973265824115983391e-01,2.839528173710834449e-02,-2.348480325366491818e-06,3.801660870146551276e-03,4.612448721976487170e-03,2.020785410432034634e+00,1.717714235817976217e-03,2.070649268593505437e-03,3.309686740204735300e-01
2.625000000000000000e+01,2.219820836536811892e-01,-5.408701245453079176e-01,1.000210640195934586e-01,1.979043955191397697e-01,3.520469525120253212e-02,-2.442003689408884632e-06,3.941182111759990690e-03,4.227077916984462412e-03,2.062156506714407644e+00,2.389367583446596471e-03,2.582709345596494437e-03,3.309602679780264678e-01
2.650000000000000000e+01,2.467624906062159118e-01,-5.360468855427262813e-01,1.000208000514415108e-01,1.985764357570559135e-01,4.170668197891192613e-02,-1.713586546235594271e-06,4.097471621401713171e-03,3.871697951524321040e-03,2.103527002569672177e+00,1.097173134706266873e-03,2.222189215907523479e-03,3.309589325227695333e-01
2.675000000000000000e+01,2.716314010918828847e-01,-5.304219482689853660e-01,1.000206516063430612e-01,1.992982614038004141e-01,4.808768028279082618e-02,-6.798662193893889950e-07,4.282551278463382453e-03,3.787428363290961351e-03,2.144897911697598136e+00,-1.568096850427897967e-03,8.745907514459189038e-04,3.309654054522085387e-01
2.700000000000000000e+01,2.965835355135203466e-01,-5.239866941981350390e-01,1.000206349478325596e-01,1.998664099212277556e-01,5.473769712260876524e-02,3.772375551013041147e-07,4.489018305360128677e-03,4.131600168529351094e-03,2.186270183830675062e+00,-4.730024753236997288e-03,-1.280266874112073912e-03,3.309784588935741345e-01
2.725000000000000000e+01,3.215787838713726754e-01,-5.166779461395678563e-01,1.000207517209930896e-01,1.999388084058838222e-01,6.211344311612008312e-02,1.466105184282638792e-06,4.692983632805476819e-03,4.950949330079354102e-03,2.227644472719667590e+00,-7.520032303133320807e-03,-3.846435410786626548e-03,3.309952517188076149e-01
2.750000000000000000e+01,3.465283749176663042e-01,-5.083786056061408987e-01,1.000210083157237889e-01,1.990935428046564926e-01,7.060302382423361278e-02,2.599254041783469351e-06,4.860914617487019883e-03,6.188265685354079129e-03,2.269020906229008983e+00,-9.313301408350398158e-03,-6.352518437362186972e-03,3.310119951389161042e-01
2.775000000000000000e+01,3.712897248087626556e-01,-4.989330215863249651e-01,1.000213993321558553e-01,1.969042977971562913e-01,8.042906430738583357e-02,3.568864914669405302e-06,4.957957389423690159e-03,7.714862583337129751e-03,2.310398962358005015e+00,-9.847878765830228240e-03,-8.400186027825946866e-03,3.310250017379462451e-01
2.800000000000000000e+01,3.956704632811692268e-01,-4.881708689329044004e-01,1.000218818387148406e-01,1.930082569340739462e-01,9.160887722021010537e-02,4.023351453170684195e-06,4.955280341906871146e-03,9.375120480474142051e-03,2.351777560901608499e+00,-9.212444764551897675e-03,-9.767474737546053692e-03,3.310318229145852165e-01
2.825000000000000000e+01,4.194394316888657159e-01,-4.759323296354146526e-01,1.000223738691829178e-01,1.871485207489747560e-01,1.039697070583646965e-01,3.729609895726652459e-06,4.834681507939890197e-03,1.102766375153714853e-02,2.393155363206110220e+00,-7.728644158067139898e-03,-1.043130682465899690e-02,3.310319114159427922e-01
2.850000000000000000e+01,4.423409628754499945e-01,-4.620887485804168748e-01,1.000227821675644946e-01,1.791855059742426259e-01,1.172006481871850775e-01,2.738017031060569558e-06,4.589830903140651279e-03,1.257027338896624623e-02,2.434531138174885534e+00,-5.781986148018560326e-03,-1.050249389545636521e-02,3.310264225518190218e-01
2.875000000000000000e+01,4.641089737093663237e-01,-4.465558461380882416e-01,1.000230345587481556e-01,1.690857446286996024e-01,1.309149904008326537e-01,1.294676147518208665e-06,4.224683521789911536e-03,1.394168924274666668e-02,2.475904020006914674e+00,-3.666417218005793913e-03,-1.009984609670390443e-02,3.310172947562694534e-01
2.900000000000000000e+01,4.844791750074292080e-01,-4.292998005396433947e-01,1.000230886577692796e-01,1.569066433370017721e-01,1.446991449531018770e-01,-4.129614441230945440e-07,3.750445931539947864e-03,1.510166452503845617e-02,2.517273574876015108e+00,-1.499031208405708984e-03,-9.217790709849672109e-03,3.310062175610748447e-01
2.925000000000000000e+01,5.032002436029175962e-01,-4.103388483742485549e-01,1.000229097887689600e-01,1.427975735788128142e-01,1.581354206202369717e-01,-2.458305693880847391e-06,3.182778174160076808e-03,1.599888552278052115e-02,2.558639732697775226e+00,7.658719889850275526e-04,-7.652737863858968467e-03,3.309941539933610177e-01
2.950000000000000000e+01,5.200469093130396514e-01,-3.897436626656493597e-01,1.000224374837426627e-01,1.270292769010591405e-01,1.708013114472709260e-01,-5.142883401400122860e-06,2.540597547574250607e-03,1.654200403453276111e-02,2.600002724332918458e+00,3.233491735370733720e-03,-5.038348694100088822e-03,3.309816955173374153e-01
2.975000000000000000e+01,5.348384052360389829e-01,-3.676385126148946636e-01,1.000215748972673180e-01,1.100471539285491629e-01,1.822614101294401101e-01,-8.676375015277117155e-06,1.847033545724744135e-03,1.658953586004877079e-02,2.641363137467376720e+00,5.924255849106226969e-03,-9.990324204277021593e-04,3.309699294390184288e-01
3.000000000000000000e+01,5.474639748798597605e-01,-3.442027259575398679e-01,1.000202313450098551e-01,9.252576385820825144e-02,1.920737021303273451e-01,-1.268847192899536659e-05,1.132028233784907433e-03,1.596870520446670022e-02,2.682722075984320664e+00,8.657483291809594389e-03,4.622242358918167253e-03,3.309610401379458056e-01
3.025000000000000000e+01,5.579134228320915545e-01,-3.196694760903022736e-01,1.000184203386935977e-01,7.539003148065172299e-02,1.998268142758381216e-01,-1.589300768549954356e-05,4.351415642529111593e-04,1.452277594729562207e-02,2.724081247483231660e+00,1.102398280705692984e-02,1.154906292886726318e-02,3.309578644946313819e-01
3.050000000000000000e+01,5.663063155965278872e-01,-2.943177070786709426e-01,1.000163660081146016e-01,5.977010884044492434e-02,2.052102967621402263e-01,-1.633713916024854700e-05,-1.933383979975158962e-04,1.217454789185246251e-02,2.765442728035672371e+00,1.247306754686191080e-02,1.896884973243806796e-02,3.309622382424448062e-01
3.075000000000000000e+01,5.729102448181644380e-01,-2.684539150929522999e-01,1.000145269012219784e-01,4.687366341399126779e-02,2.081020375839608971e-01,-1.243725959001515138e-05,-6.946361878532795846e-04,8.985141136210189269e-03,2.806808278119449884e+00,1.248976534507167425e-02,2.561100662058181376e-02,3.309730006982691819e-01
3.100000000000000000e+01,5.781382570123065889e-01,-2.423834528061779292e-01,1.000134594227342355e-01,3.778707341326250496e-02,2.086433767437394504e-01,-4.361124498631892702e-06,-1.007796861378672205e-03,5.185788060465685613e-03,2.848178416160724868e+00,1.079609168108681266e-02,3.001010240059654582e-02,3.309852807809130493e-01
3.125000000000000000e+01,5.825188933363636412e-01,-2.163750028550952831e-01,1.000135415393631905e-01,3.324571570020408429e-02,2.072699297937720120e-01,5.288765348080184542e-06,-1.079419523749442335e-03,1.167223174344494789e-03,2.889551802843305151e+00,7.495683503227715955e-03,3.088549834235182132e-02,3.309923310031973598e-01
3.150000000000000000e+01,5.866386535894916321e-01,-1.906253183317177802e-01,1.000147090662496102e-01,3.343193685479990684e-02,2.046765646664571447e-01,1.238779335336590567e-05,-8.748606829556157625e-04,-2.575824020653148458e-03,2.930925530287704639e+00,3.100811000611358378e-03,2.751881037466746144e-02,3.309895269467215684e-01
3.175000000000000000e+01,5.910642480179986169e-01,-1.652328009478357673e-01,1.000164058976455161e-01,3.785955808526868943e-02,2.017148948997501134e-01,1.360150915622351240e-05,-3.881482935258577516e-04,-5.533268927826093773e-03,2.972296465246742070e+00,-1.574112677032454746e-03,2.000513424445139049e-02,3.309782075625782860e-01
3.200000000000000000e+01,5.962583157314886861e-01,-1.401872522208756910e-01,1.000178389336885965e-01,4.538486580676151516e-02,1.992435796719901897e-01,8.641836158118966707e-06,3.521588170760157183e-04,-7.279288161984207375e-03,3.013663067131860718e+00,-5.618155072247393508e-03,9.295611677325506944e-03,3.309664375244749657e-01
3.225000000000000000e+01,6.025053067175215604e-01,-1.153794770178206419e-01,1.000184150372985248e-01,5.435213234694053624e-02,1.979675127229310050e-01,7.561927975595764134e-07,1.283131946475123825e-03,-7.557782939933180635e-03,3.055026610658210462e+00,-8.260369264886185947e-03,-2.980677524136964452e-03,3.309653965478310811e-01
3.250000000000000000e+01,6.098629760086577978e-01,-9.062949995485936050e-02,1.000180854499596456e-01,6.284732227382659742e-02,1.983062469217639345e-01,-5.111815892080678582e-06,2.314258148092167462e-03,-6.333426623658836019e-03,3.096390932714095712e+00,-9.063504998032842139e-03,-1.485883374670349082e-02,3.309830361486183481e-01
3.275000000000000000e+01,6.181498138937717712e-01,-6.572751215009234316e-02,1.000173642076333802e-01,6.900726485720345971e-02,2.003240117161510514e-01,-5.354399479779542472e-06,3.339909111342850585e-03,-3.798170955488742399e-03,3.137760660726587769e+00,-8.021766020708418973e-03,-2.444630841011649278e-02,3.310187491647306746e-01
3.300000000000000000e+01,6.269711505162482990e-01,-4.047851527722008680e-02,1.000259546180324172e-01,7.131847029592933151e-02,2.037383181550345979e-01,1.002576008836919780e-05,4.255110739904880736e-03,-3.360634603442453597e-04,-3.103667095823283706e+00,-5.530115636307045626e-03,-3.028779299512275938e-02,3.269551119277047668e-01
3.325000000000000000e+01,6.357791643211360144e-01,-1.474167031420585763e-02,1.000251674285786291e-01,6.885605989636120472e-02,2.079943415002746820e-01,-1.032817608541985732e-05,4.971821241981494270e-03,3.552803238929169195e-03,-3.062559493591853421e+00,-2.324580252827137834e-03,-3.166798010630243743e-02,3.300019960648192252e-01
3.350000000000000000e+01,6.439550060960959055e-01,1.154461643393975973e-02,1.000243328137121052e-01,6.139262398092647233e-02,2.124064966864821491e-01,-2.905332929269946721e-06,5.432099447702893116e-03,7.332349963248094293e-03,-3.021242906982492649e+00,8.114020733732247269e-04,-2.863581585377159358e-02,3.308210914397919367e-01
3.375000000000000000e+01,6.508970150293686974e-01,3.835552127058725752e-02,1.000242840288119300e-01,4.939652879556972326e-02,2.163022944703292261e-01,8.250260096957835132e-07,5.615340675055295432e-03,1.052319046551994375e-02,-2.979872442666971377e+00,3.160011452737619859e-03,-2.204362122601129237e-02,3.310240795834948901e-01
3.400000000000000000e+01,6.561004833120895885e-01,6.559053477768947427e-02,1.000242513926039301e-01,3.390070039672801044e-02,2.191574694937583057e-01,-2.209966632848389994e-06,5.538831607066699997e-03,1.278116156276590080e-02,-2.938492948456200349e+00,4.277122070799312982e-03,-1.333671690972553642e-02,3.310469105974522264e-01
3.425000000000000000e+01,6.592143578697987616e-01,9.309818164880669100e-02,1.000235544753970279e-01,1.627623901272849324e-02,2.206821778515086208e-01,-8.961532309827519718e-06,5.251774130626078382e-03,1.394899216751986117e-02,-2.897117691662826289e+00,4.088594429621311699e-03,-4.252672887549814769e-03,3.310162546423504049e-01
3.450000000000000000e+01,6.600661115552182157e-01,1.207073630508952861e-01,1.000220152055925071e-01,-2.039924865395208436e-03,2.208414262700413022e-01,-1.502123717063472013e-05,4.824185337324212765e-03,1.407181367697017162e-02,-2.855749304287906742e+00,2.886621383553993059e-03,3.546382801904988859e-03,3.309760851869812393e-01
3.475000000000000000e+01,6.586527140119784463e-01,1.482569003366147886e-01,1.000199439138362151e-01,-1.980552706941065763e-02,2.198095852928336758e-01,-1.728605235932196321e-05,4.332974064497263286e-03,1.337136079869363087e-02,-2.814386242117161263e+00,1.218162991166900572e-03,8.838348827373240443e-03,3.309444054388905321e-01
3.500000000000000000e+01,6.551029414660571870e-01,1.756160302258597539e-01,1.000178767379711897e-01,-3.616466798486950990e-02,2.178771181837191040e-01,-1.522558491785539294e-05,3.848075518203387165e-03,1.218182959392609399e-02,-2.773025669130717574e+00,-3.088187813353453107e-04,1.111136453868435091e-02,3.309271891772340157e-01
3.525000000000000000e+01,6.496225561404274096e-01,2.026918649380162196e-01,1.000162660348829363e-01,-5.072899576416869255e-02,2.153419458423974642e-01,-1.044506780585065672e-05,3.421482897163964643e-03,1.086098480649547171e-02,-2.731665059778724647e+00,-1.240074069973289613e-03,1.064828548652735699e-02,3.309233466688444314e-01
3.550000000000000000e+01,6.424373417674562603e-01,2.294242931921662287e-01,1.000153043762140315e-01,-6.353582120915025888e-02,2.124221999764170088e-01,-5.206039525372597849e-06,3.081344870991348673e-03,9.700195578539730010e-03,-2.690302880816541897e+00,-1.427575694843106384e-03,8.373278987342427926e-03,3.309283531668918976e-01
